%time,field.header.seq,field.header.stamp,field.header.frame_id,field.pose.position.x,field.pose.position.y,field.pose.position.z,field.pose.orientation.x,field.pose.orientation.y,field.pose.orientation.z,field.pose.orientation.w
1421850640463994026,127843,1421850640463994026,fcu,0.05859375,-0.001953125,0.00390625,-0.00917383774789,0.0160968948555,-0.19508980444,-0.980610370576
1421850640468996048,127844,1421850640468996048,fcu,0.05859375,-0.001953125,0.00390625,-0.00994115326122,0.0149486985133,-0.195102139055,-0.98061861354
1421850640473997831,127845,1421850640473997831,fcu,0.05859375,-0.001953125,0.00390625,-0.0101314605363,0.0159063698231,-0.195105431035,-0.98060094416
1421850640478997946,127846,1421850640478997946,fcu,0.05859375,-0.0,0.00390625,-0.0101314605363,0.0159063698231,-0.195105431035,-0.98060094416
1421850640489001989,127848,1421850640489001989,fcu,0.05859375,-0.0,0.00390625,-0.0101314605363,0.0159063698231,-0.195105431035,-0.98060094416
1421850640494001865,127849,1421850640494001865,fcu,0.05859375,-0.0,0.00390625,-0.0103217581492,0.0168640259633,-0.195108536949,-0.980582339606
1421850640499003887,127850,1421850640499003887,fcu,0.05859375,-0.0,0.00390625,-0.0112793530162,0.0166734822716,-0.195124912687,-0.980571792187
1421850640504005909,127851,1421850640504005909,fcu,0.05859375,-0.0,0.00390625,-0.0112793530162,0.0166734822716,-0.195124912687,-0.980571792187
1421850640509007931,127852,1421850640509007931,fcu,0.05859375,-0.0,0.00390625,-0.0112793530162,0.0166734822716,-0.195124912687,-0.980571792187
1421850640514008045,127853,1421850640514008045,fcu,0.05859375,-0.0,0.00390625,-0.0112793530162,0.0166734822716,-0.195124912687,-0.980571792187
1421850640519009829,127854,1421850640519009829,fcu,0.05859375,0.001953125,0.00390625,-0.0112793530162,0.0166734822716,-0.195124912687,-0.980571792187
1421850640524011850,127855,1421850640524011850,fcu,0.05859375,0.001953125,0.00390625,-0.0122369371264,0.0164829226788,-0.195141102339,-0.980560309623
1421850640529011965,127856,1421850640529011965,fcu,0.05859375,0.001953125,0.00390625,-0.0122369371264,0.0164829226788,-0.195141102339,-0.980560309623
1421850640534013987,127857,1421850640534013987,fcu,0.05859375,0.001953125,0.00390625,-0.0124271863693,0.0174405552069,-0.195145892566,-0.980540398295
1421850640539016008,127858,1421850640539016008,fcu,0.05859375,0.001953125,0.00390625,-0.0124271863693,0.0174405552069,-0.195145892566,-0.980540398295
1421850640544018030,127859,1421850640544018030,fcu,0.05859375,0.001953125,0.00390625,-0.0124271863693,0.0174405552069,-0.195145892566,-0.980540398295
1421850640549017906,127860,1421850640549017906,fcu,0.05859375,0.00390625,0.00390625,-0.0133847392741,0.0172499747602,-0.195162831303,-0.980527794814
1421850640554019928,127861,1421850640554019928,fcu,0.056640625,0.00390625,0.00390625,-0.0133847392741,0.0172499747602,-0.195162831303,-0.980527794814
1421850640559021950,127862,1421850640559021950,fcu,0.056640625,0.00390625,0.00390625,-0.0133847392741,0.0172499747602,-0.195162831303,-0.980527794814
1421850640564021826,127863,1421850640564021826,fcu,0.056640625,0.00390625,0.00390625,-0.0133847392741,0.0172499747602,-0.195162831303,-0.980527794814
1421850640569023848,127864,1421850640569023848,fcu,0.056640625,0.005859375,0.00390625,-0.0133847392741,0.0172499747602,-0.195162831303,-0.980527794814
1421850640574025869,127865,1421850640574025869,fcu,0.056640625,0.005859375,0.00390625,-0.0133847392741,0.0172499747602,-0.195162831303,-0.980527794814
1421850640579027891,127866,1421850640579027891,fcu,0.056640625,0.005859375,0.00390625,-0.0143422794142,0.0170593778626,-0.195179583918,-0.98051425623
1421850640584028006,127867,1421850640584028006,fcu,0.056640625,0.0078125,0.00390625,-0.0143589321213,0.0170453635981,-0.19613702415,-0.980323183652
1421850640589030027,127868,1421850640589030027,fcu,0.0546875,0.0078125,0.00390625,-0.0143589321213,0.0170453635981,-0.19613702415,-0.980323183652
1421850640594032049,127869,1421850640594032049,fcu,0.0546875,0.0078125,0.00390625,-0.0143589321213,0.0170453635981,-0.19613702415,-0.980323183652
1421850640599031925,127870,1421850640599031925,fcu,0.0546875,0.0078125,0.00390625,-0.0145500635046,0.0180027824795,-0.196143477882,-0.980301959378
1421850640604033947,127871,1421850640604033947,fcu,0.0546875,0.0078125,0.00390625,-0.0145500635046,0.0180027824795,-0.196143477882,-0.980301959378
1421850640609035969,127872,1421850640609035969,fcu,0.0546875,0.0078125,0.00390625,-0.0155073825466,0.0178112275604,-0.196160965193,-0.980287282889
1421850640614037991,127873,1421850640614037991,fcu,0.0546875,0.009765625,0.00390625,-0.0145500635046,0.0180027824795,-0.196143477882,-0.980301959378
1421850640619037867,127874,1421850640619037867,fcu,0.0546875,0.009765625,0.00390625,-0.0155073825466,0.0178112275604,-0.196160965193,-0.980287282889
1421850640624039888,127875,1421850640624039888,fcu,0.0546875,0.009765625,0.00390625,-0.0155073825466,0.0178112275604,-0.196160965193,-0.980287282889
1421850640629041910,127876,1421850640629041910,fcu,0.0546875,0.009765625,0.00390625,-0.0155073825466,0.0178112275604,-0.196160965193,-0.980287282889
1421850640634042025,127877,1421850640634042025,fcu,0.0546875,0.009765625,0.00390625,-0.0155073825466,0.0178112275604,-0.196160965193,-0.980287282889
1421850640639044046,127878,1421850640639044046,fcu,0.0546875,0.009765625,0.00390625,-0.0164646867996,0.0176196556552,-0.19617826543,-0.980271671526
1421850640644045830,127879,1421850640644045830,fcu,0.0546875,0.009765625,0.00390625,-0.0164646867996,0.0176196556552,-0.19617826543,-0.980271671526
1421850640649047852,127880,1421850640649047852,fcu,0.0546875,0.009765625,0.00390625,-0.0164646867996,0.0176196556552,-0.19617826543,-0.980271671526
1421850640654047966,127881,1421850640654047966,fcu,0.0546875,0.009765625,0.00390625,-0.0164646867996,0.0176196556552,-0.19617826543,-0.980271671526
1421850640659049988,127882,1421850640659049988,fcu,0.0546875,0.009765625,0.00390625,-0.0164646867996,0.0176196556552,-0.19617826543,-0.980271671526
1421850640664052010,127883,1421850640664052010,fcu,0.052734375,0.009765625,0.00390625,-0.0174219753507,0.0174280669466,-0.196195378577,-0.980255125303
1421850640669051886,127884,1421850640669051886,fcu,0.052734375,0.009765625,0.00390625,-0.0174219753507,0.0174280669466,-0.196195378577,-0.980255125303
1421850640674053907,127885,1421850640674053907,fcu,0.052734375,0.009765625,0.00390625,-0.0174219753507,0.0174280669466,-0.196195378577,-0.980255125303
1421850640679055929,127886,1421850640679055929,fcu,0.052734375,0.01171875,0.00390625,-0.0174219753507,0.0174280669466,-0.196195378577,-0.980255125303
1421850640684057951,127887,1421850640684057951,fcu,0.052734375,0.01171875,0.00390625,-0.0174219753507,0.0174280669466,-0.196195378577,-0.980255125303
1421850640689057827,127888,1421850640689057827,fcu,0.0546875,0.01171875,0.00390625,-0.0183792472869,0.0172364616173,-0.196212304618,-0.980237644236
1421850640694059849,127889,1421850640694059849,fcu,0.052734375,0.01171875,0.00390625,-0.0174389866372,0.0174110449912,-0.197152565268,-0.980063060862
1421850640699061871,127890,1421850640699061871,fcu,0.052734375,0.013671875,0.00390625,-0.0183960710024,0.0172185049175,-0.197169474229,-0.980045563274
1421850640704061985,127891,1421850640704061985,fcu,0.052734375,0.013671875,0.00390625,-0.0183960710024,0.0172185049175,-0.197169474229,-0.980045563274
1421850640709064007,127892,1421850640709064007,fcu,0.052734375,0.013671875,0.00390625,-0.0183960710024,0.0172185049175,-0.197169474229,-0.980045563274
1421850640714066029,127893,1421850640714066029,fcu,0.052734375,0.013671875,0.00390625,-0.0183960710024,0.0172185049175,-0.197169474229,-0.980045563274
1421850640719068050,127894,1421850640719068050,fcu,0.052734375,0.013671875,0.00390625,-0.0183960710024,0.0172185049175,-0.197169474229,-0.980045563274
1421850640724067926,127895,1421850640724067926,fcu,0.052734375,0.015625,0.00390625,-0.0183960710024,0.0172185049175,-0.197169474229,-0.980045563274
1421850640729069948,127896,1421850640729069948,fcu,0.052734375,0.015625,0.00390625,-0.0183960710024,0.0172185049175,-0.197169474229,-0.980045563274
1421850640739071846,127898,1421850640739071846,fcu,0.052734375,0.015625,0.00390625,-0.0183960710024,0.0172185049175,-0.197169474229,-0.980045563274
1421850640744073868,127899,1421850640744073868,fcu,0.052734375,0.015625,0.00390625,-0.0176309732544,0.0183682372052,-0.197161614608,-0.980040333032
1421850640754077911,127901,1421850640754077911,fcu,0.052734375,0.015625,0.00390625,-0.0176309732544,0.0183682372052,-0.197161614608,-0.980040333032
1421850640759078026,127902,1421850640759078026,fcu,0.052734375,0.015625,0.00390625,-0.0186057761617,0.0181575267957,-0.198136417516,-0.979829622622
1421850640764080048,127903,1421850640764080048,fcu,0.052734375,0.015625,0.00390625,-0.0176489025761,0.018351010702,-0.19811859108,-0.979847325104
1421850640769081831,127904,1421850640769081831,fcu,0.052734375,0.015625,0.00390625,-0.0186057761617,0.0181575267957,-0.198136417516,-0.979829622622
1421850640774081945,127905,1421850640774081945,fcu,0.052734375,0.017578125,0.00390625,-0.0178418070282,0.0193079974718,-0.198127429281,-0.979823653992
1421850640779083967,127906,1421850640779083967,fcu,0.052734375,0.017578125,0.00390625,-0.0187799819364,0.0191328534246,-0.197189254373,-0.979998798039
1421850640789088011,127908,1421850640789088011,fcu,0.052734375,0.017578125,0.00390625,-0.0178229430573,0.019325411902,-0.197170475921,-0.980016670563
1421850640794087887,127909,1421850640794087887,fcu,0.052734375,0.017578125,0.00390625,-0.0187986574056,0.0191145044781,-0.19814619027,-0.979805763139
1421850640799089909,127910,1421850640799089909,fcu,0.052734375,0.017578125,0.00390625,-0.0180346944651,0.0202649658281,-0.198136078532,-0.979799048448
1421850640804091930,127911,1421850640804091930,fcu,0.052734375,0.01953125,0.00390625,-0.0189915207217,0.0200714639316,-0.198155774056,-0.97978096924
1421850640809092045,127912,1421850640809092045,fcu,0.052734375,0.01953125,0.00390625,-0.0180346944651,0.0202649658281,-0.198136078532,-0.979799048448
1421850640814093828,127913,1421850640814093828,fcu,0.052734375,0.01953125,0.00390625,-0.0180346944651,0.0202649658281,-0.198136078532,-0.979799048448
1421850640819095850,127914,1421850640819095850,fcu,0.052734375,0.01953125,0.00390625,-0.0182275647028,0.0212219148582,-0.198144538827,-0.979773508495
1421850640824097872,127915,1421850640824097872,fcu,0.052734375,0.01953125,0.00390625,-0.0182275647028,0.0212219148582,-0.198144538827,-0.979773508495
1421850640829097986,127916,1421850640829097986,fcu,0.052734375,0.01953125,0.00390625,-0.0184204175573,0.0221788436496,-0.198152810156,-0.979747034157
1421850640834100008,127917,1421850640834100008,fcu,0.052734375,0.01953125,0.00390625,-0.0174854643719,0.0223552766605,-0.199087763341,-0.979570601146
1421850640839102030,127918,1421850640839102030,fcu,0.052734375,0.01953125,0.00390625,-0.0184420677974,0.0221608443877,-0.19910949973,-0.979553058404
1421850640844101906,127919,1421850640844101906,fcu,0.052734375,0.01953125,0.00390625,-0.0174854643719,0.0223552766605,-0.199087763341,-0.979570601146
1421850640849103928,127920,1421850640849103928,fcu,0.052734375,0.01953125,0.00390625,-0.017679260729,0.023312002939,-0.199094884628,-0.97954337381
1421850640854105949,127921,1421850640854105949,fcu,0.052734375,0.01953125,0.00390625,-0.017679260729,0.023312002939,-0.199094884628,-0.97954337381
1421850640859107971,127922,1421850640859107971,fcu,0.052734375,0.01953125,0.00390625,-0.017679260729,0.023312002939,-0.199094884628,-0.97954337381
1421850640864107847,127923,1421850640864107847,fcu,0.052734375,0.01953125,0.00390625,-0.0178730402258,0.0242687069855,-0.199101816042,-0.979515212308
1421850640869109869,127924,1421850640869109869,fcu,0.052734375,0.01953125,0.00390625,-0.0178730402258,0.0242687069855,-0.199101816042,-0.979515212308
1421850640874111891,127925,1421850640874111891,fcu,0.05078125,0.01953125,0.00390625,-0.0178730402258,0.0242687069855,-0.199101816042,-0.979515212308
1421850640879112005,127926,1421850640879112005,fcu,0.05078125,0.01953125,0.00390625,-0.0178730402258,0.0242687069855,-0.199101816042,-0.979515212308
1421850640884114027,127927,1421850640884114027,fcu,0.05078125,0.01953125,0.00390625,-0.0178967316087,0.0242512412752,-0.200058278775,-0.979320309903
1421850640889116049,127928,1421850640889116049,fcu,0.05078125,0.01953125,0.00390625,-0.0178967316087,0.0242512412752,-0.200058278775,-0.979320309903
1421850640894117832,127929,1421850640894117832,fcu,0.052734375,0.01953125,0.00390625,-0.0180914282266,0.0252077325,-0.200064991895,-0.979291207693
1421850640899117947,127930,1421850640899117947,fcu,0.052734375,0.01953125,0.00390625,-0.0178967316087,0.0242512412752,-0.200058278775,-0.979320309903
1421850640904119968,127931,1421850640904119968,fcu,0.052734375,0.01953125,0.00390625,-0.0180914282266,0.0252077325,-0.200064991895,-0.979291207693
1421850640909121990,127932,1421850640909121990,fcu,0.052734375,0.01953125,0.00390625,-0.0171350806819,0.0254030964176,-0.200040279574,-0.979308408138
1421850640924125910,127935,1421850640924125910,fcu,0.052734375,0.01953125,0.00390625,-0.0171350806819,0.0254030964176,-0.200040279574,-0.979308408138
1421850640929127932,127936,1421850640929127932,fcu,0.052734375,0.01953125,0.00390625,-0.0171350806819,0.0254030964176,-0.200040279574,-0.979308408138
1421850640934128046,127937,1421850640934128046,fcu,0.052734375,0.01953125,0.00390625,-0.0171350806819,0.0254030964176,-0.200040279574,-0.979308408138
1421850640944131851,127939,1421850640944131851,fcu,0.052734375,0.01953125,0.00390625,-0.0171350806819,0.0254030964176,-0.200040279574,-0.979308408138
1421850640949131966,127940,1421850640949131966,fcu,0.052734375,0.01953125,0.00390625,-0.0171350806819,0.0254030964176,-0.200040279574,-0.979308408138
1421850640954133987,127941,1421850640954133987,fcu,0.052734375,0.01953125,0.00390625,-0.0169403557367,0.0244465990932,-0.200034500531,-0.979337320201
1421850640959136009,127942,1421850640959136009,fcu,0.052734375,0.01953125,0.00390625,-0.0171350806819,0.0254030964176,-0.200040279574,-0.979308408138
1421850640964138031,127943,1421850640964138031,fcu,0.052734375,0.01953125,0.00390625,-0.0169403557367,0.0244465990932,-0.200034500531,-0.979337320201
1421850640969137907,127944,1421850640969137907,fcu,0.052734375,0.01953125,0.00390625,-0.016178716796,0.0255984361089,-0.20001537648,-0.979324674642
1421850640974139929,127945,1421850640974139929,fcu,0.052734375,0.01953125,0.00390625,-0.0159839637092,0.024641933597,-0.200010531519,-0.97935339653
1421850640979141951,127946,1421850640979141951,fcu,0.052734375,0.01953125,0.00390625,-0.0159839637092,0.024641933597,-0.200010531519,-0.97935339653
1421850640984141827,127947,1421850640984141827,fcu,0.052734375,0.01953125,0.00390625,-0.0159839637092,0.024641933597,-0.200010531519,-0.97935339653
1421850640989143848,127948,1421850640989143848,fcu,0.052734375,0.01953125,0.00390625,-0.0159839637092,0.024641933597,-0.200010531519,-0.97935339653
1421850640994145870,127949,1421850640994145870,fcu,0.052734375,0.01953125,0.00390625,-0.0159839637092,0.024641933597,-0.200010531519,-0.97935339653
1421850640999147892,127950,1421850640999147892,fcu,0.052734375,0.01953125,0.00390625,-0.0157891953789,0.0236854075847,-0.200005495813,-0.979381184433
1421850641004148006,127951,1421850641004148006,fcu,0.052734375,0.01953125,0.00390625,-0.0150275564382,0.0248372446004,-0.199986371762,-0.979368538875
1421850641009150028,127952,1421850641009150028,fcu,0.052734375,0.01953125,0.00390625,-0.0159839637092,0.024641933597,-0.200010531519,-0.97935339653
1421850641014152050,127953,1421850641014152050,fcu,0.052734375,0.01953125,0.00390625,-0.0150275564382,0.0248372446004,-0.199986371762,-0.979368538875
1421850641019151926,127954,1421850641019151926,fcu,0.052734375,0.01953125,0.00390625,-0.0148327610642,0.0238807141266,-0.199982270166,-0.979396136561
1421850641024153948,127955,1421850641024153948,fcu,0.052734375,0.01953125,0.00390625,-0.0148327610642,0.0238807141266,-0.199982270166,-0.979396136561
1421850641029155970,127956,1421850641029155970,fcu,0.052734375,0.01953125,0.00390625,-0.0148327610642,0.0238807141266,-0.199982270166,-0.979396136561
1421850641034157991,127957,1421850641034157991,fcu,0.052734375,0.017578125,0.00390625,-0.0148327610642,0.0238807141266,-0.199982270166,-0.979396136561
1421850641039157867,127958,1421850641039157867,fcu,0.052734375,0.017578125,0.00390625,-0.0138763126038,0.024075997894,-0.199958853801,-0.979410154665
1421850641044159889,127959,1421850641044159889,fcu,0.052734375,0.017578125,0.00390625,-0.0148327610642,0.0238807141266,-0.199982270166,-0.979396136561
1421850641049161911,127960,1421850641049161911,fcu,0.052734375,0.017578125,0.00390625,-0.0136814771383,0.0231194409101,-0.199955495623,-0.97943662807
1421850641054162025,127961,1421850641054162025,fcu,0.052734375,0.017578125,0.00390625,-0.0136814771383,0.0231194409101,-0.199955495623,-0.97943662807
1421850641059164047,127962,1421850641059164047,fcu,0.052734375,0.017578125,0.00390625,-0.0136814771383,0.0231194409101,-0.199955495623,-0.97943662807
1421850641064165831,127963,1421850641064165831,fcu,0.052734375,0.017578125,0.00390625,-0.0136814771383,0.0231194409101,-0.199955495623,-0.97943662807
1421850641069167852,127964,1421850641069167852,fcu,0.052734375,0.017578125,0.00390625,-0.0136814771383,0.0231194409101,-0.199955495623,-0.97943662807
1421850641074167967,127965,1421850641074167967,fcu,0.052734375,0.015625,0.00390625,-0.0136814771383,0.0231194409101,-0.199955495623,-0.97943662807
1421850641079169989,127966,1421850641079169989,fcu,0.052734375,0.015625,0.00390625,-0.0136814771383,0.0231194409101,-0.199955495623,-0.97943662807
1421850641084172010,127967,1421850641084172010,fcu,0.052734375,0.015625,0.00390625,-0.0134866286252,0.0221628618778,-0.199951946753,-0.979462167412
1421850641099175930,127970,1421850641099175930,fcu,0.052734375,0.015625,0.00390625,-0.0125301163234,0.0223581168517,-0.199930207992,-0.979474870902
1421850641104177952,127971,1421850641104177952,fcu,0.052734375,0.015625,0.00390625,-0.0125301163234,0.0223581168517,-0.199930207992,-0.979474870902
1421850641109177828,127972,1421850641109177828,fcu,0.052734375,0.015625,0.00390625,-0.0125301163234,0.0223581168517,-0.199930207992,-0.979474870902
1421850641114179850,127973,1421850641114179850,fcu,0.05078125,0.015625,0.00390625,-0.0123352310128,0.0214015134874,-0.199927402614,-0.97949928585
1421850641119181871,127974,1421850641119181871,fcu,0.05078125,0.015625,0.00390625,-0.0123352310128,0.0214015134874,-0.199927402614,-0.97949928585
1421850641124181986,127975,1421850641124181986,fcu,0.05078125,0.015625,0.00390625,-0.0123352310128,0.0214015134874,-0.199927402614,-0.97949928585
1421850641129184008,127976,1421850641129184008,fcu,0.05078125,0.015625,0.00390625,-0.0123352310128,0.0214015134874,-0.199927402614,-0.97949928585
1421850641134186029,127977,1421850641134186029,fcu,0.05078125,0.015625,0.00390625,-0.0121403339384,0.0204448897131,-0.19992440657,-0.979522766675
1421850641139188051,127978,1421850641139188051,fcu,0.05078125,0.013671875,0.00390625,-0.0121403339384,0.0204448897131,-0.19992440657,-0.979522766675
1421850641144187927,127979,1421850641144187927,fcu,0.05078125,0.013671875,0.00390625,-0.0111837630996,0.0206401186115,-0.199904345529,-0.979534155395
1421850641149189949,127980,1421850641149189949,fcu,0.05078125,0.013671875,0.00390625,-0.0121403339384,0.0204448897131,-0.19992440657,-0.979522766675
1421850641159191847,127982,1421850641159191847,fcu,0.05078125,0.013671875,0.00390625,-0.010988832522,0.0196834726836,-0.199902093046,-0.979556511723
1421850641164193869,127983,1421850641164193869,fcu,0.05078125,0.013671875,0.00390625,-0.010988832522,0.0196834726836,-0.199902093046,-0.979556511723
1421850641169195890,127984,1421850641169195890,fcu,0.05078125,0.013671875,0.00390625,-0.010988832522,0.0196834726836,-0.199902093046,-0.979556511723
1421850641174197912,127985,1421850641174197912,fcu,0.05078125,0.013671875,0.00390625,-0.010988832522,0.0196834726836,-0.199902093046,-0.979556511723
1421850641179198027,127986,1421850641179198027,fcu,0.05078125,0.013671875,0.00390625,-0.010988832522,0.0196834726836,-0.199902093046,-0.979556511723
1421850641184200048,127987,1421850641184200048,fcu,0.05078125,0.01171875,0.00390625,-0.010988832522,0.0196834726836,-0.199902093046,-0.979556511723
1421850641189201832,127988,1421850641189201832,fcu,0.048828125,0.01171875,0.00390625,-0.00983726739362,0.0189220135252,-0.199881266707,-0.979588007682
1421850641194201946,127989,1421850641194201946,fcu,0.048828125,0.01171875,0.00390625,-0.00983726739362,0.0189220135252,-0.199881266707,-0.979588007682
1421850641199203968,127990,1421850641199203968,fcu,0.048828125,0.01171875,0.00390625,-0.00985574122874,0.0189123977976,-0.200837800158,-0.979392344059
1421850641204205990,127991,1421850641204205990,fcu,0.048828125,0.009765625,0.00390625,-0.00985574122874,0.0189123977976,-0.200837800158,-0.979392344059
1421850641209208012,127992,1421850641209208012,fcu,0.048828125,0.009765625,0.00390625,-0.00985574122874,0.0189123977976,-0.200837800158,-0.979392344059
1421850641214207888,127993,1421850641214207888,fcu,0.048828125,0.009765625,0.00390625,-0.00965983579341,0.0179559039807,-0.200836120478,-0.979412643269
1421850641219209909,127994,1421850641219209909,fcu,0.048828125,0.009765625,0.00390625,-0.00965983579341,0.0179559039807,-0.200836120478,-0.979412643269
1421850641224211931,127995,1421850641224211931,fcu,0.048828125,0.0078125,0.00390625,-0.00965983579341,0.0179559039807,-0.200836120478,-0.979412643269
1421850641229212046,127996,1421850641229212046,fcu,0.046875,0.0078125,0.00390625,-0.00870337367983,0.0181520244114,-0.200818489652,-0.979421609681
1421850641234213829,127997,1421850641234213829,fcu,0.046875,0.0078125,0.00390625,-0.00946392114575,0.0169993930397,-0.200834249266,-0.979432008439
1421850641239215851,127998,1421850641239215851,fcu,0.046875,0.0078125,0.00390625,-0.00870337367983,0.0181520244114,-0.200818489652,-0.979421609681
1421850641244217873,127999,1421850641244217873,fcu,0.046875,0.0078125,0.00390625,-0.00850744021429,0.0171955120991,-0.200817552534,-0.979440783518
1421850641249217987,128000,1421850641249217987,fcu,0.046875,0.005859375,0.00390625,-0.00850744021429,0.0171955120991,-0.200817552534,-0.979440783518
1421850641254220009,128001,1421850641254220009,fcu,0.046875,0.005859375,0.00390625,-0.00850744021429,0.0171955120991,-0.200817552534,-0.979440783518
1421850641259222031,128002,1421850641259222031,fcu,0.046875,0.005859375,0.00390625,-0.00850744021429,0.0171955120991,-0.200817552534,-0.979440783518
1421850641264221907,128003,1421850641264221907,fcu,0.046875,0.005859375,0.00390625,-0.00850744021429,0.0171955120991,-0.200817552534,-0.979440783518
1421850641269223928,128004,1421850641269223928,fcu,0.046875,0.005859375,0.00390625,-0.00735499187179,0.0164350854024,-0.200800469764,-0.979466672942
1421850641274225950,128005,1421850641274225950,fcu,0.046875,0.00390625,0.00390625,-0.00735499187179,0.0164350854024,-0.200800469764,-0.979466672942
1421850641284227848,128007,1421850641284227848,fcu,0.044921875,0.00390625,0.00390625,-0.00735499187179,0.0164350854024,-0.200800469764,-0.979466672942
1421850641289229870,128008,1421850641289229870,fcu,0.044921875,0.00390625,0.00390625,-0.00735499187179,0.0164350854024,-0.200800469764,-0.979466672942
1421850641294231892,128009,1421850641294231892,fcu,0.044921875,0.00390625,0.00390625,-0.00639847809389,0.0166311717431,-0.20078432413,-0.979473388504
1421850641299232006,128010,1421850641299232006,fcu,0.044921875,0.001953125,0.00390625,-0.00639847809389,0.0166311717431,-0.20078432413,-0.979473388504
1421850641304234028,128011,1421850641304234028,fcu,0.044921875,0.001953125,0.00390625,-0.00620249516216,0.0156746267913,-0.200784872235,-0.979490311443
1421850641309236050,128012,1421850641309236050,fcu,0.044921875,0.001953125,0.00390625,-0.00620249516216,0.0156746267913,-0.200784872235,-0.979490311443
1421850641314237833,128013,1421850641314237833,fcu,0.044921875,0.001953125,0.00390625,-0.00620249516216,0.0156746267913,-0.200784872235,-0.979490311443
1421850641319237947,128014,1421850641319237947,fcu,0.044921875,-0.0,0.00390625,-0.00524595884935,0.0158706982627,-0.200769469243,-0.979495901509
1421850641334241867,128017,1421850641334241867,fcu,0.044921875,-0.0,0.00390625,-0.00504995448183,0.0149141391668,-0.200770760005,-0.979511698929
1421850641339243889,128018,1421850641339243889,fcu,0.04296875,-0.001953125,0.00390625,-0.00504995448183,0.0149141391668,-0.200770760005,-0.979511698929
1421850641344245911,128019,1421850641344245911,fcu,0.04296875,-0.001953125,0.00390625,-0.00504995448183,0.0149141391668,-0.200770760005,-0.979511698929
1421850641354248047,128021,1421850641354248047,fcu,0.04296875,-0.001953125,0.00390625,-0.00389737422739,0.0141536254299,-0.200758133129,-0.979530835321
1421850641359249830,128022,1421850641359249830,fcu,0.04296875,-0.00390625,0.00390625,-0.00389737422739,0.0141536254299,-0.200758133129,-0.979530835321
1421850641364251852,128023,1421850641364251852,fcu,0.04296875,-0.00390625,0.00390625,-0.00389737422739,0.0141536254299,-0.200758133129,-0.979530835321
1421850641374253988,128025,1421850641374253988,fcu,0.04296875,-0.00390625,0.005859375,-0.00294079943965,0.0143496715141,-0.200744215502,-0.979534174273
1421850641379256010,128026,1421850641379256010,fcu,0.04296875,-0.00390625,0.005859375,-0.00294079943965,0.0143496715141,-0.200744215502,-0.979534174273
1421850641384258032,128027,1421850641384258032,fcu,0.04296875,-0.00390625,0.005859375,-0.00294079943965,0.0143496715141,-0.200744215502,-0.979534174273
1421850641389257908,128028,1421850641389257908,fcu,0.04296875,-0.005859375,0.005859375,-0.00294079943965,0.0143496715141,-0.200744215502,-0.979534174273
1421850641394259930,128029,1421850641394259930,fcu,0.04296875,-0.005859375,0.005859375,-0.00294079943965,0.0143496715141,-0.200744215502,-0.979534174273
1421850641399261951,128030,1421850641399261951,fcu,0.04296875,-0.005859375,0.005859375,-0.00295481138623,0.0143467927977,-0.20170069597,-0.979337667953
1421850641404261827,128031,1421850641404261827,fcu,0.04296875,-0.005859375,0.005859375,-0.00275783667266,0.0133904016672,-0.201703485349,-0.979351211506
1421850641409263849,128032,1421850641409263849,fcu,0.04296875,-0.0078125,0.005859375,-0.00274475879558,0.0133930884816,-0.200746991654,-0.979547720543
1421850641414265871,128033,1421850641414265871,fcu,0.04296875,-0.0078125,0.005859375,-0.00274475879558,0.0133930884816,-0.200746991654,-0.979547720543
1421850641419267893,128034,1421850641419267893,fcu,0.041015625,-0.0078125,0.005859375,-0.00274475879558,0.0133930884816,-0.200746991654,-0.979547720543
1421850641424268007,128035,1421850641424268007,fcu,0.041015625,-0.009765625,0.005859375,-0.00275783667266,0.0133904016672,-0.201703485349,-0.979351211506
1421850641429270029,128036,1421850641429270029,fcu,0.041015625,-0.009765625,0.005859375,-0.00275783667266,0.0133904016672,-0.201703485349,-0.979351211506
1421850641434272051,128037,1421850641434272051,fcu,0.041015625,-0.01171875,0.005859375,-0.00180143784216,0.0135873713108,-0.201690312608,-0.979353437714
1421850641439271927,128038,1421850641439271927,fcu,0.041015625,-0.01171875,0.005859375,-0.00180143784216,0.0135873713108,-0.201690312608,-0.979353437714
1421850641444273949,128039,1421850641444273949,fcu,0.041015625,-0.01171875,0.005859375,-0.00180143784216,0.0135873713108,-0.201690312608,-0.979353437714
1421850641449275970,128040,1421850641449275970,fcu,0.041015625,-0.013671875,0.005859375,-0.00180143784216,0.0135873713108,-0.201690312608,-0.979353437714
1421850641454277992,128041,1421850641454277992,fcu,0.041015625,-0.013671875,0.005859375,-0.00180143784216,0.0135873713108,-0.201690312608,-0.979353437714
1421850641464279890,128043,1421850641464279890,fcu,0.041015625,-0.013671875,0.005859375,-0.00178816806798,0.0135891240482,-0.200733816745,-0.979549933887
1421850641469281912,128044,1421850641469281912,fcu,0.0390625,-0.015625,0.005859375,-0.00178816806798,0.0135891240482,-0.200733816745,-0.979549933887
1421850641474282026,128045,1421850641474282026,fcu,0.0390625,-0.015625,0.005859375,-0.00178816806798,0.0135891240482,-0.200733816745,-0.979549933887
1421850641479284048,128046,1421850641479284048,fcu,0.0390625,-0.015625,0.005859375,-0.00178816806798,0.0135891240482,-0.200733816745,-0.979549933887
1421850641489287853,128048,1421850641489287853,fcu,0.0390625,-0.015625,0.005859375,-0.000831575635046,0.0137851466552,-0.2007204504,-0.979551213059
1421850641494287968,128049,1421850641494287968,fcu,0.0390625,-0.017578125,0.005859375,-0.000858498146385,0.013783496192,-0.202633252303,-0.979157312833
1421850641499289989,128050,1421850641499289989,fcu,0.0390625,-0.017578125,0.005859375,-0.000858498146385,0.013783496192,-0.202633252303,-0.979157312833
1421850641504292011,128051,1421850641504292011,fcu,0.0390625,-0.01953125,0.005859375,-0.000858498146385,0.013783496192,-0.202633252303,-0.979157312833
1421850641509291887,128052,1421850641509291887,fcu,0.0390625,-0.01953125,0.005859375,-0.000858498146385,0.013783496192,-0.202633252303,-0.979157312833
1421850641514293909,128053,1421850641514293909,fcu,0.037109375,-0.01953125,0.005859375,-0.000660562663031,0.0128272920283,-0.20263772923,-0.979169533293
1421850641519295931,128054,1421850641519295931,fcu,0.037109375,-0.021484375,0.005859375,-0.000858498146385,0.013783496192,-0.202633252303,-0.979157312833
1421850641524297953,128055,1421850641524297953,fcu,0.037109375,-0.021484375,0.005859375,-0.000660562663031,0.0128272920283,-0.20263772923,-0.979169533293
1421850641529297829,128056,1421850641529297829,fcu,0.037109375,-0.021484375,0.005859375,9.77104243075e-05,0.0139813736235,-0.202619695237,-0.979157684312
1421850641534299850,128057,1421850641534299850,fcu,0.037109375,-0.0234375,0.005859375,0.000295657747319,0.0130251742878,-0.202625105954,-0.979169711469
1421850641539301872,128058,1421850641539301872,fcu,0.037109375,-0.0234375,0.0078125,9.77104243075e-05,0.0139813736235,-0.202619695237,-0.979157684312
1421850641549304008,128060,1421850641549304008,fcu,0.037109375,-0.0234375,0.0078125,0.000295657747319,0.0130251742878,-0.202625105954,-0.979169711469
1421850641554306030,128061,1421850641554306030,fcu,0.037109375,-0.025390625,0.0078125,0.000295657747319,0.0130251742878,-0.202625105954,-0.979169711469
1421850641559308052,128062,1421850641559308052,fcu,0.037109375,-0.025390625,0.0078125,0.000295657747319,0.0130251742878,-0.202625105954,-0.979169711469
1421850641564307928,128063,1421850641564307928,fcu,0.037109375,-0.025390625,0.0078125,0.00125187787571,0.0132230441255,-0.20261228944,-0.979168955836
1421850641569309950,128064,1421850641569309950,fcu,0.037109375,-0.02734375,0.0078125,0.000295657747319,0.0130251742878,-0.202625105954,-0.979169711469
1421850641574311972,128065,1421850641574311972,fcu,0.037109375,-0.02734375,0.0078125,0.00125187787571,0.0132230441255,-0.20261228944,-0.979168955836
1421850641579311848,128066,1421850641579311848,fcu,0.03515625,-0.02734375,0.0078125,0.00105391890182,0.0141792377213,-0.202605944937,-0.979157121993
1421850641584313869,128067,1421850641584313869,fcu,0.03515625,-0.02734375,0.0078125,0.00125187787571,0.0132230441255,-0.20261228944,-0.979168955836
1421850641589315891,128068,1421850641589315891,fcu,0.03515625,-0.029296875,0.0078125,0.00105391890182,0.0141792377213,-0.202605944937,-0.979157121993
1421850641594317913,128069,1421850641594317913,fcu,0.03515625,-0.029296875,0.0078125,0.00125187787571,0.0132230441255,-0.20261228944,-0.979168955836
1421850641599318027,128070,1421850641599318027,fcu,0.03515625,-0.029296875,0.0078125,0.00125187787571,0.0132230441255,-0.20261228944,-0.979168955836
1421850641604320049,128071,1421850641604320049,fcu,0.03515625,-0.03125,0.0078125,0.00125187787571,0.0132230441255,-0.20261228944,-0.979168955836
1421850641609321833,128072,1421850641609321833,fcu,0.03515625,-0.03125,0.0078125,0.00220809681021,0.0134209013527,-0.2025992797,-0.979167266395
1421850641614321947,128073,1421850641614321947,fcu,0.03515625,-0.03125,0.0078125,0.00220809681021,0.0134209013527,-0.2025992797,-0.979167266395
1421850641619323969,128074,1421850641619323969,fcu,0.03515625,-0.033203125,0.0078125,0.00220809681021,0.0134209013527,-0.2025992797,-0.979167266395
1421850641624325991,128075,1421850641624325991,fcu,0.03515625,-0.033203125,0.0078125,0.00220809681021,0.0134209013527,-0.2025992797,-0.979167266395
1421850641629328012,128076,1421850641629328012,fcu,0.033203125,-0.033203125,0.0078125,0.00240606514039,0.0124647016095,-0.202606364769,-0.979177973108
1421850641634327888,128077,1421850641634327888,fcu,0.033203125,-0.033203125,0.0078125,0.00220809681021,0.0134209013527,-0.2025992797,-0.979167266395
1421850641639329910,128078,1421850641639329910,fcu,0.033203125,-0.03515625,0.0078125,0.00240606514039,0.0124647016095,-0.202606364769,-0.979177973108
1421850641644331932,128079,1421850641644331932,fcu,0.033203125,-0.03515625,0.0078125,0.00336229233046,0.0126625534125,-0.2025940956,-0.979175156527
1421850641649332047,128080,1421850641649332047,fcu,0.033203125,-0.03515625,0.0078125,0.00240606514039,0.0124647016095,-0.202606364769,-0.979177973108
1421850641654333830,128081,1421850641654333830,fcu,0.033203125,-0.03515625,0.0078125,0.00336229233046,0.0126625534125,-0.2025940956,-0.979175156527
1421850641659335852,128082,1421850641659335852,fcu,0.033203125,-0.03515625,0.0078125,0.00240606514039,0.0124647016095,-0.202606364769,-0.979177973108
1421850641664337873,128083,1421850641664337873,fcu,0.033203125,-0.037109375,0.0078125,0.00336229233046,0.0126625534125,-0.2025940956,-0.979175156527
1421850641669337988,128084,1421850641669337988,fcu,0.033203125,-0.037109375,0.0078125,0.00336229233046,0.0126625534125,-0.2025940956,-0.979175156527
1421850641674340010,128085,1421850641674340010,fcu,0.033203125,-0.037109375,0.0078125,0.00336229233046,0.0126625534125,-0.2025940956,-0.979175156527
1421850641679342031,128086,1421850641679342031,fcu,0.033203125,-0.037109375,0.0078125,0.00336229233046,0.0126625534125,-0.2025940956,-0.979175156527
1421850641684341908,128087,1421850641684341908,fcu,0.033203125,-0.0390625,0.0078125,0.00356026781549,0.0117063489683,-0.202601921245,-0.979184736092
1421850641689343929,128088,1421850641689343929,fcu,0.033203125,-0.0390625,0.0078125,0.00336229233046,0.0126625534125,-0.2025940956,-0.979175156527
1421850641694345951,128089,1421850641694345951,fcu,0.033203125,-0.0390625,0.0078125,0.00240606514039,0.0124647016095,-0.202606364769,-0.979177973108
1421850641699347973,128090,1421850641699347973,fcu,0.033203125,-0.0390625,0.0078125,0.00336229233046,0.0126625534125,-0.2025940956,-0.979175156527
1421850641704347849,128091,1421850641704347849,fcu,0.033203125,-0.0390625,0.0078125,0.00336229233046,0.0126625534125,-0.2025940956,-0.979175156527
1421850641709349871,128092,1421850641709349871,fcu,0.033203125,-0.0390625,0.0078125,0.00336229233046,0.0126625534125,-0.2025940956,-0.979175156527
1421850641714351892,128093,1421850641714351892,fcu,0.033203125,-0.041015625,0.0078125,0.00336229233046,0.0126625534125,-0.2025940956,-0.979175156527
1421850641719352007,128094,1421850641719352007,fcu,0.033203125,-0.041015625,0.0078125,0.00336229233046,0.0126625534125,-0.2025940956,-0.979175156527
1421850641724354029,128095,1421850641724354029,fcu,0.033203125,-0.041015625,0.0078125,0.00336229233046,0.0126625534125,-0.2025940956,-0.979175156527
1421850641729356050,128096,1421850641729356050,fcu,0.033203125,-0.041015625,0.0078125,0.00336229233046,0.0126625534125,-0.2025940956,-0.979175156527
1421850641734357834,128097,1421850641734357834,fcu,0.033203125,-0.041015625,0.0078125,0.00336229233046,0.0126625534125,-0.2025940956,-0.979175156527
1421850641739357948,128098,1421850641739357948,fcu,0.033203125,-0.041015625,0.0078125,0.00336229233046,0.0126625534125,-0.2025940956,-0.979175156527
1421850641744359970,128099,1421850641744359970,fcu,0.033203125,-0.04296875,0.0078125,0.00260403117597,0.011508489979,-0.202613256617,-0.979187746003
1421850641749361992,128100,1421850641749361992,fcu,0.033203125,-0.04296875,0.0078125,0.00260403117597,0.011508489979,-0.202613256617,-0.979187746003
1421850641754361868,128101,1421850641754361868,fcu,0.033203125,-0.04296875,0.0078125,0.00260403117597,0.011508489979,-0.202613256617,-0.979187746003
1421850641759363890,128102,1421850641759363890,fcu,0.033203125,-0.04296875,0.0078125,0.00260403117597,0.011508489979,-0.202613256617,-0.979187746003
1421850641764365911,128103,1421850641764365911,fcu,0.033203125,-0.04296875,0.0078125,0.00240606514039,0.0124647016095,-0.202606364769,-0.979177973108
1421850641769367933,128104,1421850641769367933,fcu,0.033203125,-0.044921875,0.0078125,0.00260403117597,0.011508489979,-0.202613256617,-0.979187746003
1421850641774368048,128105,1421850641774368048,fcu,0.033203125,-0.044921875,0.0078125,0.00240606514039,0.0124647016095,-0.202606364769,-0.979177973108
1421850641779369831,128106,1421850641779369831,fcu,0.033203125,-0.044921875,0.0078125,0.00260403117597,0.011508489979,-0.202613256617,-0.979187746003
1421850641784371853,128107,1421850641784371853,fcu,0.033203125,-0.044921875,0.0078125,0.00144983565572,0.0122668379192,-0.202618440717,-0.979179855872
1421850641789371967,128108,1421850641789371967,fcu,0.033203125,-0.044921875,0.0078125,0.00144983565572,0.0122668379192,-0.202618440717,-0.979179855872
1421850641794373989,128109,1421850641794373989,fcu,0.033203125,-0.044921875,0.0078125,0.00144983565572,0.0122668379192,-0.202618440717,-0.979179855872
1421850641799376011,128110,1421850641799376011,fcu,0.033203125,-0.046875,0.0078125,0.00144983565572,0.0122668379192,-0.202618440717,-0.979179855872
1421850641804378033,128111,1421850641804378033,fcu,0.033203125,-0.046875,0.0078125,0.00144983565572,0.0122668379192,-0.202618440717,-0.979179855872
1421850641809377909,128112,1421850641809377909,fcu,0.03125,-0.046875,0.0078125,0.00144983565572,0.0122668379192,-0.202618440717,-0.979179855872
1421850641814379930,128113,1421850641814379930,fcu,0.03125,-0.046875,0.0078125,0.00144983565572,0.0122668379192,-0.202618440717,-0.979179855872
1421850641819381952,128114,1421850641819381952,fcu,0.03125,-0.046875,0.0078125,0.00125187787571,0.0132230441255,-0.20261228944,-0.979168955836
1421850641824381828,128115,1421850641824381828,fcu,0.03125,-0.046875,0.0078125,0.000295657747319,0.0130251742878,-0.202625105954,-0.979169711469
1421850641834385872,128117,1421850641834385872,fcu,0.03125,-0.046875,0.0078125,0.000295657747319,0.0130251742878,-0.202625105954,-0.979169711469
1421850641839387894,128118,1421850641839387894,fcu,0.03125,-0.046875,0.0078125,0.000295657747319,0.0130251742878,-0.202625105954,-0.979169711469
1421850641849390030,128120,1421850641849390030,fcu,0.03125,-0.048828125,0.0078125,0.000295657747319,0.0130251742878,-0.202625105954,-0.979169711469
1421850641854392052,128121,1421850641854392052,fcu,0.03125,-0.048828125,0.0078125,0.000295657747319,0.0130251742878,-0.202625105954,-0.979169711469
1421850641864393950,128123,1421850641864393950,fcu,0.03125,-0.048828125,0.0078125,9.77104243075e-05,0.0139813736235,-0.202619695237,-0.979157684312
1421850641869395971,128124,1421850641869395971,fcu,0.03125,-0.048828125,0.0078125,-0.000858498146385,0.013783496192,-0.202633252303,-0.979157312833
1421850641874397993,128125,1421850641874397993,fcu,0.03125,-0.048828125,0.0078125,-0.000858498146385,0.013783496192,-0.202633252303,-0.979157312833
1421850641879397869,128126,1421850641879397869,fcu,0.03125,-0.048828125,0.0078125,-0.000858498146385,0.013783496192,-0.202633252303,-0.979157312833
1421850641884399891,128127,1421850641884399891,fcu,0.03125,-0.05078125,0.0078125,-0.00181470589835,0.0135856056155,-0.202646616124,-0.979156007558
1421850641889401913,128128,1421850641889401913,fcu,0.03125,-0.05078125,0.0078125,-0.00201262762264,0.0145418007389,-0.202642879734,-0.979142660012
1421850641894402027,128129,1421850641894402027,fcu,0.03125,-0.05078125,0.0078125,-0.00181470589835,0.0135856056155,-0.202646616124,-0.979156007558
1421850641899404049,128130,1421850641899404049,fcu,0.03125,-0.05078125,0.0078125,-0.00201262762264,0.0145418007389,-0.202642879734,-0.979142660012
1421850641904405832,128131,1421850641904405832,fcu,0.03125,-0.05078125,0.0078125,-0.00181470589835,0.0135856056155,-0.202646616124,-0.979156007558
1421850641909407854,128132,1421850641909407854,fcu,0.03125,-0.05078125,0.0078125,-0.00201262762264,0.0145418007389,-0.202642879734,-0.979142660012
1421850641914407969,128133,1421850641914407969,fcu,0.03125,-0.05078125,0.0078125,-0.00296882051488,0.014343900399,-0.202656984081,-0.979140227664
1421850641919409990,128134,1421850641919409990,fcu,0.03125,-0.05078125,0.0078125,-0.00296882051488,0.014343900399,-0.202656984081,-0.979140227664
1421850641924412012,128135,1421850641924412012,fcu,0.03125,-0.052734375,0.0078125,-0.00296882051488,0.014343900399,-0.202656984081,-0.979140227664
1421850641929411888,128136,1421850641929411888,fcu,0.03125,-0.052734375,0.0078125,-0.00296882051488,0.014343900399,-0.202656984081,-0.979140227664
1421850641934413910,128137,1421850641934413910,fcu,0.03125,-0.052734375,0.0078125,-0.0031667262788,0.0153000850359,-0.202653988208,-0.97912575306
1421850641939415932,128138,1421850641939415932,fcu,0.03125,-0.052734375,0.009765625,-0.00296882051488,0.014343900399,-0.202656984081,-0.979140227664
1421850641944417953,128139,1421850641944417953,fcu,0.03125,-0.052734375,0.009765625,-0.0031667262788,0.0153000850359,-0.202653988208,-0.97912575306
1421850641949417830,128140,1421850641949417830,fcu,0.03125,-0.052734375,0.009765625,-0.0031667262788,0.0153000850359,-0.202653988208,-0.97912575306
1421850641954419851,128141,1421850641954419851,fcu,0.03125,-0.052734375,0.009765625,-0.0031667262788,0.0153000850359,-0.202653988208,-0.97912575306
1421850641959421873,128142,1421850641959421873,fcu,0.03125,-0.052734375,0.009765625,-0.0031667262788,0.0153000850359,-0.202653988208,-0.97912575306
1421850641964421988,128143,1421850641964421988,fcu,0.03125,-0.052734375,0.009765625,-0.0031667262788,0.0153000850359,-0.202653988208,-0.97912575306
1421850641969424009,128144,1421850641969424009,fcu,0.03125,-0.052734375,0.009765625,-0.0031667262788,0.0153000850359,-0.202653988208,-0.97912575306
1421850641974426031,128145,1421850641974426031,fcu,0.03125,-0.052734375,0.009765625,-0.0031667262788,0.0153000850359,-0.202653988208,-0.97912575306
1421850641979428053,128146,1421850641979428053,fcu,0.03125,-0.0546875,0.009765625,-0.00336462902269,0.0162562550815,-0.20265079907,-0.97911034469
1421850641984427929,128147,1421850641984427929,fcu,0.03125,-0.0546875,0.009765625,-0.00336462902269,0.0162562550815,-0.20265079907,-0.97911034469
1421850641989429951,128148,1421850641989429951,fcu,0.03125,-0.0546875,0.009765625,-0.0031667262788,0.0153000850359,-0.202653988208,-0.97912575306
1421850641994431973,128149,1421850641994431973,fcu,0.03125,-0.0546875,0.009765625,-0.00336462902269,0.0162562550815,-0.20265079907,-0.97911034469
1421850641999431849,128150,1421850641999431849,fcu,0.03125,-0.0546875,0.009765625,-0.00336462902269,0.0162562550815,-0.20265079907,-0.97911034469
1421850642004433870,128151,1421850642004433870,fcu,0.03125,-0.0546875,0.009765625,-0.00336462902269,0.0162562550815,-0.20265079907,-0.97911034469
1421850642009435892,128152,1421850642009435892,fcu,0.03125,-0.0546875,0.009765625,-0.00336462902269,0.0162562550815,-0.20265079907,-0.97911034469
1421850642019438028,128154,1421850642019438028,fcu,0.03125,-0.056640625,0.009765625,-0.00336462902269,0.0162562550815,-0.20265079907,-0.97911034469
1421850642024440050,128155,1421850642024440050,fcu,0.03125,-0.056640625,0.009765625,-0.00336462902269,0.0162562550815,-0.20265079907,-0.97911034469
1421850642029441833,128156,1421850642029441833,fcu,0.03125,-0.056640625,0.009765625,-0.00336462902269,0.0162562550815,-0.20265079907,-0.97911034469
1421850642034441948,128157,1421850642034441948,fcu,0.03125,-0.056640625,0.009765625,-0.00336462902269,0.0162562550815,-0.20265079907,-0.97911034469
1421850642039443970,128158,1421850642039443970,fcu,0.03125,-0.05859375,0.009765625,-0.00336462902269,0.0162562550815,-0.20265079907,-0.97911034469
1421850642044445992,128159,1421850642044445992,fcu,0.03125,-0.05859375,0.009765625,-0.00336462902269,0.0162562550815,-0.20265079907,-0.97911034469
1421850642049448013,128160,1421850642049448013,fcu,0.03125,-0.05859375,0.009765625,-0.00336462902269,0.0162562550815,-0.20265079907,-0.97911034469
1421850642054447889,128161,1421850642054447889,fcu,0.03125,-0.05859375,0.009765625,-0.00336462902269,0.0162562550815,-0.20265079907,-0.97911034469
1421850642059449911,128162,1421850642059449911,fcu,0.03125,-0.05859375,0.009765625,-0.00336462902269,0.0162562550815,-0.20265079907,-0.97911034469
1421850642064451933,128163,1421850642064451933,fcu,0.03125,-0.05859375,0.009765625,-0.00336462902269,0.0162562550815,-0.20265079907,-0.97911034469
1421850642069452047,128164,1421850642069452047,fcu,0.03125,-0.05859375,0.009765625,-0.00336462902269,0.0162562550815,-0.20265079907,-0.97911034469
1421850642074453831,128165,1421850642074453831,fcu,0.03125,-0.05859375,0.009765625,-0.00336462902269,0.0162562550815,-0.20265079907,-0.97911034469
1421850642079455853,128166,1421850642079455853,fcu,0.03125,-0.05859375,0.009765625,-0.0024084651243,0.0164541484695,-0.202634827192,-0.979113163584
1421850642084457874,128167,1421850642084457874,fcu,0.03125,-0.05859375,0.009765625,-0.0024084651243,0.0164541484695,-0.202634827192,-0.979113163584
1421850642089457989,128168,1421850642089457989,fcu,0.03125,-0.05859375,0.009765625,-0.0024084651243,0.0164541484695,-0.202634827192,-0.979113163584
1421850642094460011,128169,1421850642094460011,fcu,0.03125,-0.05859375,0.009765625,-0.0024084651243,0.0164541484695,-0.202634827192,-0.979113163584
1421850642099462032,128170,1421850642099462032,fcu,0.03125,-0.05859375,0.009765625,-0.0024084651243,0.0164541484695,-0.202634827192,-0.979113163584
1421850642104461908,128171,1421850642104461908,fcu,0.03125,-0.05859375,0.009765625,-0.0024084651243,0.0164541484695,-0.202634827192,-0.979113163584
1421850642109463930,128172,1421850642109463930,fcu,0.03125,-0.05859375,0.009765625,-0.0024084651243,0.0164541484695,-0.202634827192,-0.979113163584
1421850642124467850,128175,1421850642124467850,fcu,0.03125,-0.060546875,0.009765625,-0.00336462902269,0.0162562550815,-0.20265079907,-0.97911034469
1421850642129469872,128176,1421850642129469872,fcu,0.03125,-0.060546875,0.009765625,-0.0031667262788,0.0153000850359,-0.202653988208,-0.97912575306
1421850642134471893,128177,1421850642134471893,fcu,0.03125,-0.060546875,0.009765625,-0.00336462902269,0.0162562550815,-0.20265079907,-0.97911034469
1421850642139472008,128178,1421850642139472008,fcu,0.03125,-0.060546875,0.009765625,-0.0031667262788,0.0153000850359,-0.202653988208,-0.97912575306
1421850642144474030,128179,1421850642144474030,fcu,0.03125,-0.060546875,0.009765625,-0.00336462902269,0.0162562550815,-0.20265079907,-0.97911034469
1421850642149476051,128180,1421850642149476051,fcu,0.03125,-0.060546875,0.009765625,-0.00336462902269,0.0162562550815,-0.20265079907,-0.97911034469
1421850642154477835,128181,1421850642154477835,fcu,0.03125,-0.060546875,0.009765625,-0.00356252855782,0.017212409624,-0.202647416668,-0.979094002567
1421850642164479971,128183,1421850642164479971,fcu,0.03125,-0.060546875,0.009765625,-0.00336462902269,0.0162562550815,-0.20265079907,-0.97911034469
1421850642169481993,128184,1421850642169481993,fcu,0.03125,-0.060546875,0.009765625,-0.00336462902269,0.0162562550815,-0.20265079907,-0.97911034469
1421850642174481869,128185,1421850642174481869,fcu,0.03125,-0.0625,0.009765625,-0.00336462902269,0.0162562550815,-0.20265079907,-0.97911034469
1421850642179483891,128186,1421850642179483891,fcu,0.03125,-0.0625,0.009765625,-0.00336462902269,0.0162562550815,-0.20265079907,-0.97911034469
1421850642184485912,128187,1421850642184485912,fcu,0.03125,-0.0625,0.009765625,-0.0031667262788,0.0153000850359,-0.202653988208,-0.97912575306
1421850642189487934,128188,1421850642189487934,fcu,0.03125,-0.0625,0.009765625,-0.0031667262788,0.0153000850359,-0.202653988208,-0.97912575306
1421850642194488049,128189,1421850642194488049,fcu,0.03125,-0.0625,0.009765625,-0.0031667262788,0.0153000850359,-0.202653988208,-0.97912575306
1421850642199489832,128190,1421850642199489832,fcu,0.03125,-0.0625,0.009765625,-0.0031667262788,0.0153000850359,-0.202653988208,-0.97912575306
1421850642204491854,128191,1421850642204491854,fcu,0.03125,-0.0625,0.009765625,-0.0031667262788,0.0153000850359,-0.202653988208,-0.97912575306
1421850642209491968,128192,1421850642209491968,fcu,0.03125,-0.0625,0.009765625,-0.0031667262788,0.0153000850359,-0.202653988208,-0.97912575306
1421850642214493990,128193,1421850642214493990,fcu,0.03125,-0.0625,0.009765625,-0.0031816662557,0.0152969852347,-0.203610068917,-0.978927381923
1421850642219496012,128194,1421850642219496012,fcu,0.033203125,-0.064453125,0.009765625,-0.0031816662557,0.0152969852347,-0.203610068917,-0.978927381923
1421850642224498034,128195,1421850642224498034,fcu,0.033203125,-0.064453125,0.009765625,-0.0031816662557,0.0152969852347,-0.203610068917,-0.978927381923
1421850642229497910,128196,1421850642229497910,fcu,0.033203125,-0.064453125,0.009765625,-0.0031667262788,0.0153000850359,-0.202653988208,-0.97912575306
1421850642234499931,128197,1421850642234499931,fcu,0.033203125,-0.064453125,0.009765625,-0.0031667262788,0.0153000850359,-0.202653988208,-0.97912575306
1421850642239501953,128198,1421850642239501953,fcu,0.033203125,-0.064453125,0.009765625,-0.0031667262788,0.0153000850359,-0.202653988208,-0.97912575306
1421850642244501829,128199,1421850642244501829,fcu,0.033203125,-0.064453125,0.009765625,-0.0031667262788,0.0153000850359,-0.202653988208,-0.97912575306
1421850642249503851,128200,1421850642249503851,fcu,0.033203125,-0.064453125,0.009765625,-0.0031667262788,0.0153000850359,-0.202653988208,-0.97912575306
1421850642254505873,128201,1421850642254505873,fcu,0.033203125,-0.064453125,0.009765625,-0.0031667262788,0.0153000850359,-0.202653988208,-0.97912575306
1421850642259507895,128202,1421850642259507895,fcu,0.033203125,-0.064453125,0.009765625,-0.00338050266489,0.0162529615599,-0.203606864732,-0.978911976674
1421850642264508009,128203,1421850642264508009,fcu,0.033203125,-0.064453125,0.009765625,-0.0031816662557,0.0152969852347,-0.203610068917,-0.978927381923
1421850642269510031,128204,1421850642269510031,fcu,0.033203125,-0.064453125,0.009765625,-0.00338050266489,0.0162529615599,-0.203606864732,-0.978911976674
1421850642274512053,128205,1421850642274512053,fcu,0.033203125,-0.064453125,0.009765625,-0.00338050266489,0.0162529615599,-0.203606864732,-0.978911976674
1421850642279511929,128206,1421850642279511929,fcu,0.033203125,-0.064453125,0.009765625,-0.00338050266489,0.0162529615599,-0.203606864732,-0.978911976674
1421850642284513950,128207,1421850642284513950,fcu,0.033203125,-0.064453125,0.009765625,-0.00338050266489,0.0162529615599,-0.203606864732,-0.978911976674
1421850642309521914,128212,1421850642309521914,fcu,0.033203125,-0.06640625,0.01171875,-0.00357933585017,0.0172089223852,-0.203603466374,-0.978895637862
1421850642314522028,128213,1421850642314522028,fcu,0.033203125,-0.06640625,0.01171875,-0.00377816562194,0.0181648667988,-0.203599873843,-0.978878365503
1421850642319524050,128214,1421850642319524050,fcu,0.033203125,-0.06640625,0.01171875,-0.00357933585017,0.0172089223852,-0.203603466374,-0.978895637862
1421850642324525833,128215,1421850642324525833,fcu,0.033203125,-0.06640625,0.01171875,-0.00377816562194,0.0181648667988,-0.203599873843,-0.978878365503
1421850642329527855,128216,1421850642329527855,fcu,0.033203125,-0.06640625,0.01171875,-0.00376042469546,0.0181685477513,-0.202643841007,-0.979076726708
1421850642334527969,128217,1421850642334527969,fcu,0.033203125,-0.06640625,0.01171875,-0.00376042469546,0.0181685477513,-0.202643841007,-0.979076726708
1421850642339529991,128218,1421850642339529991,fcu,0.033203125,-0.06640625,0.01171875,-0.00376042469546,0.0181685477513,-0.202643841007,-0.979076726708
1421850642344532013,128219,1421850642344532013,fcu,0.033203125,-0.06640625,0.01171875,-0.00377816562194,0.0181648667988,-0.203599873843,-0.978878365503
1421850642349531889,128220,1421850642349531889,fcu,0.033203125,-0.06640625,0.01171875,-0.00377816562194,0.0181648667988,-0.203599873843,-0.978878365503
1421850642354533911,128221,1421850642354533911,fcu,0.03515625,-0.06640625,0.01171875,-0.00377816562194,0.0181648667988,-0.203599873843,-0.978878365503
1421850642359535933,128222,1421850642359535933,fcu,0.03515625,-0.06640625,0.01171875,-0.00377816562194,0.0181648667988,-0.203599873843,-0.978878365503
1421850642364537954,128223,1421850642364537954,fcu,0.03515625,-0.06640625,0.01171875,-0.00377816562194,0.0181648667988,-0.203599873843,-0.978878365503
1421850642369537830,128224,1421850642369537830,fcu,0.03515625,-0.06640625,0.01171875,-0.00377816562194,0.0181648667988,-0.203599873843,-0.978878365503
1421850642374539852,128225,1421850642374539852,fcu,0.03515625,-0.06640625,0.01171875,-0.00377816562194,0.0181648667988,-0.203599873843,-0.978878365503
1421850642379541874,128226,1421850642379541874,fcu,0.03515625,-0.06640625,0.01171875,-0.00377816562194,0.0181648667988,-0.203599873843,-0.978878365503
1421850642384541988,128227,1421850642384541988,fcu,0.03515625,-0.06640625,0.01171875,-0.00377816562194,0.0181648667988,-0.203599873843,-0.978878365503
1421850642389544010,128228,1421850642389544010,fcu,0.03515625,-0.06640625,0.01171875,-0.00377816562194,0.0181648667988,-0.203599873843,-0.978878365503
1421850642394546032,128229,1421850642394546032,fcu,0.03515625,-0.06640625,0.01171875,-0.00377816562194,0.0181648667988,-0.203599873843,-0.978878365503
1421850642399548054,128230,1421850642399548054,fcu,0.03515625,-0.06640625,0.01171875,-0.00377816562194,0.0181648667988,-0.203599873843,-0.978878365503
1421850642404547930,128231,1421850642404547930,fcu,0.03515625,-0.06640625,0.01171875,-0.00376042469546,0.0181685477513,-0.202643841007,-0.979076726708
1421850642409549952,128232,1421850642409549952,fcu,0.03515625,-0.06640625,0.01171875,-0.00395831724688,0.0191246685519,-0.20264007209,-0.979058517128
1421850642414551973,128233,1421850642414551973,fcu,0.03515625,-0.06640625,0.01171875,-0.00376042469546,0.0181685477513,-0.202643841007,-0.979076726708
1421850642419551849,128234,1421850642419551849,fcu,0.037109375,-0.06640625,0.01171875,-0.00395831724688,0.0191246685519,-0.20264007209,-0.979058517128
1421850642424553871,128235,1421850642424553871,fcu,0.037109375,-0.06640625,0.01171875,-0.00376042469546,0.0181685477513,-0.202643841007,-0.979076726708
1421850642429555893,128236,1421850642429555893,fcu,0.037109375,-0.06640625,0.01171875,-0.00393963892824,0.0191285249761,-0.201683863783,-0.97925594094
1421850642434557915,128237,1421850642434557915,fcu,0.037109375,-0.06640625,0.01171875,-0.00469900066231,0.0179752421817,-0.201705265041,-0.979270032277
1421850642439558029,128238,1421850642439558029,fcu,0.037109375,-0.06640625,0.01171875,-0.00469900066231,0.0179752421817,-0.201705265041,-0.979270032277
1421850642444560051,128239,1421850642444560051,fcu,0.037109375,-0.06640625,0.01171875,-0.00469900066231,0.0179752421817,-0.201705265041,-0.979270032277
1421850642449561834,128240,1421850642449561834,fcu,0.037109375,-0.06640625,0.01171875,-0.00469900066231,0.0179752421817,-0.201705265041,-0.979270032277
1421850642454561949,128241,1421850642454561949,fcu,0.037109375,-0.06640625,0.01171875,-0.00469900066231,0.0179752421817,-0.201705265041,-0.979270032277
1421850642459563971,128242,1421850642459563971,fcu,0.037109375,-0.06640625,0.01171875,-0.00469900066231,0.0179752421817,-0.201705265041,-0.979270032277
1421850642464565992,128243,1421850642464565992,fcu,0.037109375,-0.06640625,0.01171875,-0.00469900066231,0.0179752421817,-0.201705265041,-0.979270032277
1421850642469568014,128244,1421850642469568014,fcu,0.0390625,-0.06640625,0.01171875,-0.00469900066231,0.0179752421817,-0.201705265041,-0.979270032277
1421850642474567890,128245,1421850642474567890,fcu,0.0390625,-0.06640625,0.01171875,-0.00469900066231,0.0179752421817,-0.201705265041,-0.979270032277
1421850642484571934,128247,1421850642484571934,fcu,0.0390625,-0.06640625,0.01171875,-0.00469900066231,0.0179752421817,-0.201705265041,-0.979270032277
1421850642489572048,128248,1421850642489572048,fcu,0.0390625,-0.06640625,0.01171875,-0.00469900066231,0.0179752421817,-0.201705265041,-0.979270032277
1421850642494573832,128249,1421850642494573832,fcu,0.0390625,-0.06640625,0.01171875,-0.0048959415275,0.018931558988,-0.20170244781,-0.979251626692
1421850642499575853,128250,1421850642499575853,fcu,0.0390625,-0.06640625,0.01171875,-0.00469900066231,0.0179752421817,-0.201705265041,-0.979270032277
1421850642504577875,128251,1421850642504577875,fcu,0.0390625,-0.06640625,0.01171875,-0.00469900066231,0.0179752421817,-0.201705265041,-0.979270032277
1421850642509577990,128252,1421850642509577990,fcu,0.0390625,-0.06640625,0.01171875,-0.00469900066231,0.0179752421817,-0.201705265041,-0.979270032277
1421850642514580011,128253,1421850642514580011,fcu,0.041015625,-0.06640625,0.01171875,-0.00469900066231,0.0179752421817,-0.201705265041,-0.979270032277
1421850642519582033,128254,1421850642519582033,fcu,0.041015625,-0.06640625,0.01171875,-0.00469900066231,0.0179752421817,-0.201705265041,-0.979270032277
1421850642524581909,128255,1421850642524581909,fcu,0.041015625,-0.06640625,0.01171875,-0.0048959415275,0.018931558988,-0.20170244781,-0.979251626692
1421850642529583931,128256,1421850642529583931,fcu,0.041015625,-0.06640625,0.01171875,-0.00469900066231,0.0179752421817,-0.201705265041,-0.979270032277
1421850642534585953,128257,1421850642534585953,fcu,0.041015625,-0.06640625,0.01171875,-0.0048959415275,0.018931558988,-0.20170244781,-0.979251626692
1421850642549589872,128260,1421850642549589872,fcu,0.041015625,-0.06640625,0.01171875,-0.0048959415275,0.018931558988,-0.20170244781,-0.979251626692
1421850642554591894,128261,1421850642554591894,fcu,0.041015625,-0.06640625,0.01171875,-0.0048959415275,0.018931558988,-0.20170244781,-0.979251626692
1421850642564594030,128263,1421850642564594030,fcu,0.041015625,-0.06640625,0.01171875,-0.0048959415275,0.018931558988,-0.20170244781,-0.979251626692
1421850642569596052,128264,1421850642569596052,fcu,0.041015625,-0.06640625,0.01171875,-0.0048774513453,0.0189363311528,-0.200746051366,-0.979448134764
1421850642574597836,128265,1421850642574597836,fcu,0.041015625,-0.06640625,0.01171875,-0.0048774513453,0.0189363311528,-0.200746051366,-0.979448134764
1421850642579597950,128266,1421850642579597950,fcu,0.041015625,-0.06640625,0.01171875,-0.0048774513453,0.0189363311528,-0.200746051366,-0.979448134764
1421850642584599972,128267,1421850642584599972,fcu,0.041015625,-0.06640625,0.01171875,-0.0048774513453,0.0189363311528,-0.200746051366,-0.979448134764
1421850642589601994,128268,1421850642589601994,fcu,0.041015625,-0.06640625,0.01171875,-0.0048774513453,0.0189363311528,-0.200746051366,-0.979448134764
1421850642594601870,128269,1421850642594601870,fcu,0.04296875,-0.06640625,0.01171875,-0.0048774513453,0.0189363311528,-0.200746051366,-0.979448134764
1421850642599603891,128270,1421850642599603891,fcu,0.04296875,-0.06640625,0.01171875,-0.0048774513453,0.0189363311528,-0.200746051366,-0.979448134764
1421850642604605913,128271,1421850642604605913,fcu,0.04296875,-0.06640625,0.01171875,-0.0048774513453,0.0189363311528,-0.200746051366,-0.979448134764
1421850642609607935,128272,1421850642609607935,fcu,0.04296875,-0.06640625,0.01171875,-0.00392095685247,0.0191323631579,-0.200727463134,-0.979452430862
1421850642614608049,128273,1421850642614608049,fcu,0.04296875,-0.06640625,0.01171875,-0.00392095685247,0.0191323631579,-0.200727463134,-0.979452430862
1421850642619609833,128274,1421850642619609833,fcu,0.04296875,-0.06640625,0.01171875,-0.00392095685247,0.0191323631579,-0.200727463134,-0.979452430862
1421850642624611855,128275,1421850642624611855,fcu,0.04296875,-0.06640625,0.01171875,-0.00392095685247,0.0191323631579,-0.200727463134,-0.979452430862
