%time,field.header.seq,field.header.stamp,field.header.frame_id,field.pose.position.x,field.pose.position.y,field.pose.position.z,field.pose.orientation.x,field.pose.orientation.y,field.pose.orientation.z,field.pose.orientation.w
1421850126059952021,28753,1421850126059952021,fcu,0.037109375,-0.076171875,0.00390625,-0.00185630375476,0.0145625813319,-0.192113256145,-0.981262952615
1421850126064954042,28754,1421850126064954042,fcu,0.037109375,-0.076171875,0.00390625,-0.00185630375476,0.0145625813319,-0.192113256145,-0.981262952615
1421850126069953918,28755,1421850126069953918,fcu,0.037109375,-0.078125,0.00390625,-0.00185630375476,0.0145625813319,-0.192113256145,-0.981262952615
1421850126074954033,28756,1421850126074954033,fcu,0.037109375,-0.078125,0.00390625,-0.00166866487966,0.0136043153064,-0.19211684894,-0.981276339527
1421850126079953909,28757,1421850126079953909,fcu,0.037109375,-0.078125,0.00390625,-0.00185630375476,0.0145625813319,-0.192113256145,-0.981262952615
1421850126084954023,28758,1421850126084954023,fcu,0.037109375,-0.078125,0.00390625,-0.00166866487966,0.0136043153064,-0.19211684894,-0.981276339527
1421850126089956045,28759,1421850126089956045,fcu,0.037109375,-0.078125,0.00390625,-0.00185630375476,0.0145625813319,-0.192113256145,-0.981262952615
1421850126094955921,28760,1421850126094955921,fcu,0.037109375,-0.078125,0.00390625,-0.00185630375476,0.0145625813319,-0.192113256145,-0.981262952615
1421850126099956036,28761,1421850126099956036,fcu,0.037109375,-0.078125,0.00390625,-0.00089803841975,0.0147501849598,-0.19209894327,-0.981264297509
1421850126104955912,28762,1421850126104955912,fcu,0.037109375,-0.078125,0.00390625,-0.00089803841975,0.0147501849598,-0.19209894327,-0.981264297509
1421850126109956026,28763,1421850126109956026,fcu,0.037109375,-0.078125,0.00390625,-0.00089803841975,0.0147501849598,-0.19209894327,-0.981264297509
1421850126114958048,28764,1421850126114958048,fcu,0.037109375,-0.078125,0.00390625,-0.00089803841975,0.0147501849598,-0.19209894327,-0.981264297509
1421850126119957924,28765,1421850126119957924,fcu,0.037109375,-0.078125,0.00390625,-0.00089803841975,0.0147501849598,-0.19209894327,-0.981264297509
1421850126124958038,28766,1421850126124958038,fcu,0.037109375,-0.078125,0.00390625,-0.00089803841975,0.0147501849598,-0.19209894327,-0.981264297509
1421850126129957914,28767,1421850126129957914,fcu,0.037109375,-0.078125,0.00390625,-0.00089803841975,0.0147501849598,-0.19209894327,-0.981264297509
1421850126134958029,28768,1421850126134958029,fcu,0.037109375,-0.078125,0.00390625,-0.00089803841975,0.0147501849598,-0.19209894327,-0.981264297509
1421850126139960051,28769,1421850126139960051,fcu,0.037109375,-0.078125,0.00390625,-0.00089803841975,0.0147501849598,-0.19209894327,-0.981264297509
1421850126144959927,28770,1421850126144959927,fcu,0.037109375,-0.078125,0.00390625,-0.00089803841975,0.0147501849598,-0.19209894327,-0.981264297509
1421850126149960041,28771,1421850126149960041,fcu,0.037109375,-0.078125,0.00390625,-0.00108568942209,0.0157084329529,-0.19209423147,-0.981250158038
1421850126154959917,28772,1421850126154959917,fcu,0.037109375,-0.078125,0.00390625,-0.00089803841975,0.0147501849598,-0.19209894327,-0.981264297509
1421850126159960032,28773,1421850126159960032,fcu,0.037109375,-0.078125,0.00390625,-0.00089803841975,0.0147501849598,-0.19209894327,-0.981264297509
1421850126164962053,28774,1421850126164962053,fcu,0.037109375,-0.078125,0.00390625,-0.00089803841975,0.0147501849598,-0.19209894327,-0.981264297509
1421850126169961929,28775,1421850126169961929,fcu,0.037109375,-0.078125,0.00390625,-0.00089803841975,0.0147501849598,-0.19209894327,-0.981264297509
1421850126174962044,28776,1421850126174962044,fcu,0.037109375,-0.078125,0.00390625,-0.00089803841975,0.0147501849598,-0.19209894327,-0.981264297509
1421850126179961920,28777,1421850126179961920,fcu,0.037109375,-0.078125,0.00390625,-0.00089803841975,0.0147501849598,-0.19209894327,-0.981264297509
1421850126184962034,28778,1421850126184962034,fcu,0.037109375,-0.078125,0.00390625,-0.00089803841975,0.0147501849598,-0.19209894327,-0.981264297509
1421850126189963818,28779,1421850126189963818,fcu,0.037109375,-0.078125,0.00390625,-0.00089803841975,0.0147501849598,-0.19209894327,-0.981264297509
1421850126194963932,28780,1421850126194963932,fcu,0.037109375,-0.078125,0.00390625,-0.00089803841975,0.0147501849598,-0.19209894327,-0.981264297509
1421850126199964046,28781,1421850126199964046,fcu,0.037109375,-0.078125,0.00390625,-0.00089803841975,0.0147501849598,-0.19209894327,-0.981264297509
1421850126204963923,28782,1421850126204963923,fcu,0.037109375,-0.078125,0.00390625,-0.00089803841975,0.0147501849598,-0.19209894327,-0.981264297509
1421850126209964037,28783,1421850126209964037,fcu,0.037109375,-0.078125,0.00390625,-0.00089803841975,0.0147501849598,-0.19209894327,-0.981264297509
1421850126214965820,28784,1421850126214965820,fcu,0.037109375,-0.078125,0.00390625,-0.00089803841975,0.0147501849598,-0.19209894327,-0.981264297509
1421850126219965935,28785,1421850126219965935,fcu,0.037109375,-0.078125,0.00390625,-0.00089803841975,0.0147501849598,-0.19209894327,-0.981264297509
1421850126224966049,28786,1421850126224966049,fcu,0.037109375,-0.078125,0.00390625,-0.00089803841975,0.0147501849598,-0.19209894327,-0.981264297509
1421850126229965925,28787,1421850126229965925,fcu,0.037109375,-0.078125,0.00390625,-0.00089803841975,0.0147501849598,-0.19209894327,-0.981264297509
1421850126234966040,28788,1421850126234966040,fcu,0.037109375,-0.078125,0.00390625,-0.00089803841975,0.0147501849598,-0.19209894327,-0.981264297509
1421850126239967823,28789,1421850126239967823,fcu,0.037109375,-0.078125,0.00390625,-0.00089803841975,0.0147501849598,-0.19209894327,-0.981264297509
1421850126244967937,28790,1421850126244967937,fcu,0.037109375,-0.078125,0.00390625,-0.00089803841975,0.0147501849598,-0.19209894327,-0.981264297509
1421850126249968052,28791,1421850126249968052,fcu,0.037109375,-0.078125,0.00390625,-0.00089803841975,0.0147501849598,-0.19209894327,-0.981264297509
1421850126254967928,28792,1421850126254967928,fcu,0.037109375,-0.078125,0.00390625,-0.00089803841975,0.0147501849598,-0.19209894327,-0.981264297509
1421850126259968042,28793,1421850126259968042,fcu,0.037109375,-0.078125,0.00390625,-0.00089803841975,0.0147501849598,-0.19209894327,-0.981264297509
1421850126269969940,28795,1421850126269969940,fcu,0.037109375,-0.078125,0.00390625,-0.00089803841975,0.0147501849598,-0.19209894327,-0.981264297509
1421850126274970055,28796,1421850126274970055,fcu,0.037109375,-0.078125,0.00390625,-0.00089803841975,0.0147501849598,-0.19209894327,-0.981264297509
1421850126279969931,28797,1421850126279969931,fcu,0.037109375,-0.078125,0.00390625,-0.00089803841975,0.0147501849598,-0.19209894327,-0.981264297509
1421850126284970045,28798,1421850126284970045,fcu,0.037109375,-0.078125,0.00390625,-0.00187052413817,0.0145607615915,-0.193071428988,-0.981074874141
1421850126289971828,28799,1421850126289971828,fcu,0.037109375,-0.078125,0.00390625,-0.000912442466742,0.0147493009358,-0.193057117433,-0.981076233011
1421850126294971943,28800,1421850126294971943,fcu,0.037109375,-0.078125,0.00390625,-0.00110102916851,0.0157073652191,-0.193052391827,-0.981062098148
1421850126299971819,28801,1421850126299971819,fcu,0.037109375,-0.080078125,0.00390625,-0.00205909694644,0.0155188300328,-0.193067638994,-0.981060555117
1421850126304971933,28802,1421850126304971933,fcu,0.037109375,-0.080078125,0.00390625,-0.00205909694644,0.0155188300328,-0.193067638994,-0.981060555117
1421850126309972048,28803,1421850126309972048,fcu,0.037109375,-0.080078125,0.00390625,-0.00208940321467,0.0155147787618,-0.194983403426,-0.980681598901
1421850126314973831,28804,1421850126314973831,fcu,0.037109375,-0.080078125,0.00390625,-0.00189895953983,0.014557080454,-0.194987221379,-0.980695910494
1421850126319973946,28805,1421850126319973946,fcu,0.037109375,-0.08203125,0.00390625,-0.00208940321467,0.0155147787618,-0.194983403426,-0.980681598901
1421850126324973822,28806,1421850126324973822,fcu,0.037109375,-0.08203125,0.00390625,-0.00208940321467,0.0155147787618,-0.194983403426,-0.980681598901
1421850126329973936,28807,1421850126329973936,fcu,0.037109375,-0.08203125,0.00390625,-0.00208940321467,0.0155147787618,-0.194983403426,-0.980681598901
1421850126334974051,28808,1421850126334974051,fcu,0.037109375,-0.08203125,0.00390625,-0.00208940321467,0.0155147787618,-0.194983403426,-0.980681598901
1421850126339975834,28809,1421850126339975834,fcu,0.037109375,-0.083984375,0.00390625,-0.00208940321467,0.0155147787618,-0.194983403426,-0.980681598901
1421850126344975948,28810,1421850126344975948,fcu,0.037109375,-0.083984375,0.00390625,-0.00208940321467,0.0155147787618,-0.194983403426,-0.980681598901
1421850126349975824,28811,1421850126349975824,fcu,0.037109375,-0.083984375,0.00390625,-0.00208940321467,0.0155147787618,-0.194983403426,-0.980681598901
1421850126354975939,28812,1421850126354975939,fcu,0.037109375,-0.083984375,0.00390625,-0.00208940321467,0.0155147787618,-0.194983403426,-0.980681598901
1421850126369977951,28815,1421850126369977951,fcu,0.0390625,-0.0859375,0.00390625,-0.00323752564198,0.0162820448794,-0.194995392934,-0.980663658028
1421850126374977827,28816,1421850126374977827,fcu,0.0390625,-0.0859375,0.00390625,-0.00323752564198,0.0162820448794,-0.194995392934,-0.980663658028
1421850126379977942,28817,1421850126379977942,fcu,0.0390625,-0.0859375,0.00390625,-0.00323752564198,0.0162820448794,-0.194995392934,-0.980663658028
1421850126384977818,28818,1421850126384977818,fcu,0.0390625,-0.0859375,0.00390625,-0.00325342453014,0.0162788754699,-0.195952979155,-0.980472765253
1421850126389979839,28819,1421850126389979839,fcu,0.0390625,-0.0859375,0.00390625,-0.00325342453014,0.0162788754699,-0.195952979155,-0.980472765253
1421850126394979954,28820,1421850126394979954,fcu,0.0390625,-0.0859375,0.00390625,-0.00325342453014,0.0162788754699,-0.195952979155,-0.980472765253
1421850126399979830,28821,1421850126399979830,fcu,0.0390625,-0.0859375,0.00390625,-0.00325342453014,0.0162788754699,-0.195952979155,-0.980472765253
1421850126404979944,28822,1421850126404979944,fcu,0.0390625,-0.0859375,0.00390625,-0.00325342453014,0.0162788754699,-0.195952979155,-0.980472765253
1421850126409979820,28823,1421850126409979820,fcu,0.0390625,-0.087890625,0.00390625,-0.00325342453014,0.0162788754699,-0.195952979155,-0.980472765253
1421850126414981842,28824,1421850126414981842,fcu,0.0390625,-0.087890625,0.00390625,-0.00325342453014,0.0162788754699,-0.195952979155,-0.980472765253
1421850126419981956,28825,1421850126419981956,fcu,0.0390625,-0.087890625,0.00390625,-0.00325342453014,0.0162788754699,-0.195952979155,-0.980472765253
1421850126424981833,28826,1421850126424981833,fcu,0.0390625,-0.087890625,0.00390625,-0.00229593019615,0.0164702280083,-0.19593698838,-0.980475474899
1421850126429981947,28827,1421850126429981947,fcu,0.0390625,-0.087890625,0.00390625,-0.00325342453014,0.0162788754699,-0.195952979155,-0.980472765253
1421850126434981823,28828,1421850126434981823,fcu,0.0390625,-0.087890625,0.00390625,-0.00210455336709,0.0155127309313,-0.195941007172,-0.980490717826
1421850126439983845,28829,1421850126439983845,fcu,0.0390625,-0.087890625,0.00390625,-0.00229593019615,0.0164702280083,-0.19593698838,-0.980475474899
1421850126444983959,28830,1421850126444983959,fcu,0.0390625,-0.087890625,0.00390625,-0.00208940321467,0.0155147787618,-0.194983403426,-0.980681598901
1421850126449983835,28831,1421850126449983835,fcu,0.0390625,-0.087890625,0.00390625,-0.00208940321467,0.0155147787618,-0.194983403426,-0.980681598901
1421850126454983950,28832,1421850126454983950,fcu,0.0390625,-0.087890625,0.00390625,-0.00227984489689,0.0164724622736,-0.194979399521,-0.980666352057
1421850126459983826,28833,1421850126459983826,fcu,0.0390625,-0.087890625,0.00390625,-0.00208940321467,0.0155147787618,-0.194983403426,-0.980681598901
1421850126464985847,28834,1421850126464985847,fcu,0.0390625,-0.087890625,0.00390625,-0.00229593019615,0.0164702280083,-0.19593698838,-0.980475474899
1421850126469985962,28835,1421850126469985962,fcu,0.0390625,-0.087890625,0.00390625,-0.00114704204912,0.0157040721437,-0.195925764591,-0.980492305519
1421850126474985838,28836,1421850126474985838,fcu,0.0390625,-0.087890625,0.00390625,-0.00114704204912,0.0157040721437,-0.195925764591,-0.980492305519
1421850126479985952,28837,1421850126479985952,fcu,0.0390625,-0.087890625,0.00390625,-0.00114704204912,0.0157040721437,-0.195925764591,-0.980492305519
1421850126484985828,28838,1421850126484985828,fcu,0.041015625,-0.08984375,0.00390625,-0.00114704204912,0.0157040721437,-0.195925764591,-0.980492305519
1421850126489987850,28839,1421850126489987850,fcu,0.041015625,-0.08984375,0.00390625,-0.00114704204912,0.0157040721437,-0.195925764591,-0.980492305519
1421850126499987841,28841,1421850126499987841,fcu,0.041015625,-0.08984375,0.00390625,-0.00114704204912,0.0157040721437,-0.195925764591,-0.980492305519
1421850126504987955,28842,1421850126504987955,fcu,0.041015625,-0.08984375,0.00390625,-0.00114704204912,0.0157040721437,-0.195925764591,-0.980492305519
1421850126519989967,28845,1421850126519989967,fcu,0.041015625,-0.091796875,0.00390625,-0.000189529637255,0.0158953983794,-0.195910335161,-0.980492958142
1421850126524989843,28846,1421850126524989843,fcu,0.041015625,-0.091796875,0.00390625,-0.000189529637255,0.0158953983794,-0.195910335161,-0.980492958142
1421850126529989958,28847,1421850126529989958,fcu,0.041015625,-0.091796875,0.00390625,-0.000189529637255,0.0158953983794,-0.195910335161,-0.980492958142
1421850126534989834,28848,1421850126534989834,fcu,0.041015625,-0.091796875,0.00390625,-0.000205052394393,0.0158952057124,-0.196867754246,-0.98030117195
1421850126539991856,28849,1421850126539991856,fcu,0.04296875,-0.091796875,0.00390625,-0.000205052394393,0.0158952057124,-0.196867754246,-0.98030117195
1421850126544991970,28850,1421850126544991970,fcu,0.04296875,-0.091796875,0.00390625,-0.000205052394393,0.0158952057124,-0.196867754246,-0.98030117195
1421850126549991846,28851,1421850126549991846,fcu,0.04296875,-0.091796875,0.00390625,-0.000397393584633,0.0168525057372,-0.196861850834,-0.980286308593
1421850126554991961,28852,1421850126554991961,fcu,0.04296875,-0.091796875,0.00390625,-0.000205052394393,0.0158952057124,-0.196867754246,-0.98030117195
1421850126559991837,28853,1421850126559991837,fcu,0.04296875,-0.091796875,0.00390625,-0.000205052394393,0.0158952057124,-0.196867754246,-0.98030117195
1421850126564993858,28854,1421850126564993858,fcu,0.04296875,-0.091796875,0.00390625,-0.000205052394393,0.0158952057124,-0.196867754246,-0.98030117195
1421850126569993973,28855,1421850126569993973,fcu,0.04296875,-0.091796875,0.00390625,-0.000205052394393,0.0158952057124,-0.196867754246,-0.98030117195
1421850126574993849,28856,1421850126574993849,fcu,0.04296875,-0.091796875,0.00390625,-0.000205052394393,0.0158952057124,-0.196867754246,-0.98030117195
1421850126579993963,28857,1421850126579993963,fcu,0.04296875,-0.091796875,0.00390625,-0.000205052394393,0.0158952057124,-0.196867754246,-0.98030117195
1421850126584993839,28858,1421850126584993839,fcu,0.044921875,-0.091796875,0.00390625,-0.000205052394393,0.0158952057124,-0.196867754246,-0.98030117195
1421850126589995861,28859,1421850126589995861,fcu,0.044921875,-0.09375,0.00390625,-0.000205052394393,0.0158952057124,-0.196867754246,-0.98030117195
1421850126594995975,28860,1421850126594995975,fcu,0.044921875,-0.09375,0.00390625,0.000752272914454,0.0160874517687,-0.196852137713,-0.980300904753
1421850126599995852,28861,1421850126599995852,fcu,0.044921875,-0.09375,0.00390625,-0.000397393584633,0.0168525057372,-0.196861850834,-0.980286308593
1421850126604995966,28862,1421850126604995966,fcu,0.044921875,-0.09375,0.00390625,0.000559917300934,0.017044745572,-0.19684529944,-0.980286229236
1421850126609995842,28863,1421850126609995842,fcu,0.044921875,-0.09375,0.00390625,-0.000397393584633,0.0168525057372,-0.196861850834,-0.980286308593
1421850126619997978,28865,1421850126619997978,fcu,0.044921875,-0.09375,0.00390625,0.000367561153436,0.0180020231201,-0.196838273441,-0.980270618845
1421850126624997854,28866,1421850126624997854,fcu,0.044921875,-0.09375,0.00390625,0.000559917300934,0.017044745572,-0.19684529944,-0.980286229236
1421850126629997969,28867,1421850126629997969,fcu,0.044921875,-0.09375,0.00390625,0.000559917300934,0.017044745572,-0.19684529944,-0.980286229236
1421850126634997845,28868,1421850126634997845,fcu,0.044921875,-0.09375,0.00390625,0.000559917300934,0.017044745572,-0.19684529944,-0.980286229236
1421850126644999981,28870,1421850126644999981,fcu,0.044921875,-0.09375,0.00390625,0.000559917300934,0.017044745572,-0.19684529944,-0.980286229236
1421850126649999857,28871,1421850126649999857,fcu,0.044921875,-0.09375,0.00390625,0.000367561153436,0.0180020231201,-0.196838273441,-0.980270618845
1421850126659999847,28873,1421850126659999847,fcu,0.046875,-0.09375,0.00390625,0.000367561153436,0.0180020231201,-0.196838273441,-0.980270618845
1421850126665001869,28874,1421850126665001869,fcu,0.046875,-0.09375,0.00390625,0.000367561153436,0.0180020231201,-0.196838273441,-0.980270618845
1421850126670001984,28875,1421850126670001984,fcu,0.046875,-0.09375,0.00390625,0.000367561153436,0.0180020231201,-0.196838273441,-0.980270618845
1421850126675001860,28876,1421850126675001860,fcu,0.046875,-0.09375,0.00390625,0.000367561153436,0.0180020231201,-0.196838273441,-0.980270618845
1421850126680001974,28877,1421850126680001974,fcu,0.046875,-0.09375,0.00390625,0.000367561153436,0.0180020231201,-0.196838273441,-0.980270618845
1421850126685001850,28878,1421850126685001850,fcu,0.046875,-0.09375,0.00390625,0.000367561153436,0.0180020231201,-0.196838273441,-0.980270618845
1421850126690003872,28879,1421850126690003872,fcu,0.046875,-0.09375,0.00390625,0.000367561153436,0.0180020231201,-0.196838273441,-0.980270618845
1421850126695003986,28880,1421850126695003986,fcu,0.046875,-0.09375,0.00390625,0.000367561153436,0.0180020231201,-0.196838273441,-0.980270618845
1421850126700003862,28881,1421850126700003862,fcu,0.048828125,-0.09375,0.00390625,0.000367561153436,0.0180020231201,-0.196838273441,-0.980270618845
1421850126710003853,28883,1421850126710003853,fcu,0.048828125,-0.09375,0.00390625,0.000175204655404,0.0189592835002,-0.196831059723,-0.980254073596
1421850126715005875,28884,1421850126715005875,fcu,0.048828125,-0.095703125,0.00390625,0.000175204655404,0.0189592835002,-0.196831059723,-0.980254073596
1421850126720005989,28885,1421850126720005989,fcu,0.048828125,-0.095703125,0.00390625,0.000175204655404,0.0189592835002,-0.196831059723,-0.980254073596
1421850126730005980,28887,1421850126730005980,fcu,0.048828125,-0.095703125,0.00390625,0.000175204655404,0.0189592835002,-0.196831059723,-0.980254073596
1421850126735005856,28888,1421850126735005856,fcu,0.05078125,-0.095703125,0.00390625,0.000175204655404,0.0189592835002,-0.196831059723,-0.980254073596
1421850126740007877,28889,1421850126740007877,fcu,0.05078125,-0.095703125,0.00390625,0.000175204655404,0.0189592835002,-0.196831059723,-0.980254073596
1421850126745007992,28890,1421850126745007992,fcu,0.05078125,-0.095703125,0.00390625,-1.71520097159e-05,0.0199165257993,-0.196823658292,-0.980236593503
1421850126750007868,28891,1421850126750007868,fcu,0.05078125,-0.095703125,0.00390625,-1.71520097159e-05,0.0199165257993,-0.196823658292,-0.980236593503
1421850126765009880,28894,1421850126765009880,fcu,0.052734375,-0.09765625,0.00390625,0.000940110144653,0.0201087268756,-0.19680411471,-0.98023614284
1421850126770009995,28895,1421850126770009995,fcu,0.052734375,-0.09765625,0.00390625,-1.71520097159e-05,0.0199165257993,-0.196823658292,-0.980236593503
1421850126775009871,28896,1421850126775009871,fcu,0.052734375,-0.09765625,0.00390625,0.000959747121842,0.0201077992108,-0.19584675916,-0.980427866915
1421850126780009985,28897,1421850126780009985,fcu,0.0546875,-0.09765625,0.00390625,0.000959747121842,0.0201077992108,-0.19584675916,-0.980427866915
1421850126785009861,28898,1421850126785009861,fcu,0.0546875,-0.09765625,0.00390625,0.000959747121842,0.0201077992108,-0.19584675916,-0.980427866915
1421850126795011997,28900,1421850126795011997,fcu,0.0546875,-0.09765625,0.00390625,0.000959747121842,0.0201077992108,-0.19584675916,-0.980427866915
1421850126800011873,28901,1421850126800011873,fcu,0.0546875,-0.09765625,0.00390625,0.000959747121842,0.0201077992108,-0.19584675916,-0.980427866915
1421850126805011988,28902,1421850126805011988,fcu,0.056640625,-0.09765625,0.00390625,0.000959747121842,0.0201077992108,-0.19584675916,-0.980427866915
1421850126810011864,28903,1421850126810011864,fcu,0.056640625,-0.09765625,0.00390625,0.000959747121842,0.0201077992108,-0.19584675916,-0.980427866915
1421850126815013885,28904,1421850126815013885,fcu,0.056640625,-0.09765625,0.00390625,0.000768307453769,0.0210652020577,-0.195838253043,-0.980409631537
1421850126820014000,28905,1421850126820014000,fcu,0.056640625,-0.09765625,0.00390625,0.000768307453769,0.0210652020577,-0.195838253043,-0.980409631537
1421850126830013990,28907,1421850126830013990,fcu,0.056640625,-0.09765625,0.00390625,0.000768307453769,0.0210652020577,-0.195838253043,-0.980409631537
1421850126835013866,28908,1421850126835013866,fcu,0.056640625,-0.09765625,0.00390625,0.000768307453769,0.0210652020577,-0.195838253043,-0.980409631537
1421850126840015888,28909,1421850126840015888,fcu,0.056640625,-0.09765625,0.00390625,0.000768307453769,0.0210652020577,-0.195838253043,-0.980409631537
1421850126845016003,28910,1421850126845016003,fcu,0.056640625,-0.09765625,0.00390625,0.000768307453769,0.0210652020577,-0.195838253043,-0.980409631537
1421850126850015879,28911,1421850126850015879,fcu,0.05859375,-0.09765625,0.00390625,0.000768307453769,0.0210652020577,-0.195838253043,-0.980409631537
1421850126855015993,28912,1421850126855015993,fcu,0.05859375,-0.09765625,0.00390625,0.000768307453769,0.0210652020577,-0.195838253043,-0.980409631537
1421850126860015869,28913,1421850126860015869,fcu,0.05859375,-0.09765625,0.00390625,0.000768307453769,0.0210652020577,-0.195838253043,-0.980409631537
1421850126865017891,28914,1421850126865017891,fcu,0.05859375,-0.09765625,0.00390625,0.000768307453769,0.0210652020577,-0.195838253043,-0.980409631537
1421850126870018005,28915,1421850126870018005,fcu,0.05859375,-0.09765625,0.00390625,0.000788878570526,0.0210644417129,-0.194880728531,-0.980600412305
1421850126875017881,28916,1421850126875017881,fcu,0.05859375,-0.09765625,0.00390625,0.000788878570526,0.0210644417129,-0.194880728531,-0.980600412305
1421850126880017996,28917,1421850126880017996,fcu,0.060546875,-0.099609375,0.00390625,0.000788878570526,0.0210644417129,-0.194880728531,-0.980600412305
1421850126885017872,28918,1421850126885017872,fcu,0.060546875,-0.099609375,0.00390625,0.000788878570526,0.0210644417129,-0.194880728531,-0.980600412305
1421850126890019894,28919,1421850126890019894,fcu,0.060546875,-0.099609375,0.00390625,0.000788878570526,0.0210644417129,-0.194880728531,-0.980600412305
1421850126895020008,28920,1421850126895020008,fcu,0.060546875,-0.099609375,0.00390625,0.000598373204975,0.0220220109673,-0.194872054373,-0.980581233456
1421850126900019884,28921,1421850126900019884,fcu,0.060546875,-0.099609375,0.00390625,0.000598373204975,0.0220220109673,-0.194872054373,-0.980581233456
1421850126905019999,28922,1421850126905019999,fcu,0.060546875,-0.099609375,0.00390625,0.000788878570526,0.0210644417129,-0.194880728531,-0.980600412305
1421850126910019875,28923,1421850126910019875,fcu,0.0625,-0.099609375,0.00390625,0.000598373204975,0.0220220109673,-0.194872054373,-0.980581233456
1421850126915021896,28924,1421850126915021896,fcu,0.0625,-0.099609375,0.00390625,0.000788878570526,0.0210644417129,-0.194880728531,-0.980600412305
1421850126920022011,28925,1421850126920022011,fcu,0.0625,-0.099609375,0.00390625,-0.000359225788943,0.021831695756,-0.194893467317,-0.980581350228
1421850126925021887,28926,1421850126925021887,fcu,0.0625,-0.099609375,0.00390625,0.000598373204975,0.0220220109673,-0.194872054373,-0.980581233456
1421850126930022001,28927,1421850126930022001,fcu,0.0625,-0.099609375,0.00390625,0.000598373204975,0.0220220109673,-0.194872054373,-0.980581233456
1421850126935021877,28928,1421850126935021877,fcu,0.0625,-0.099609375,0.00390625,-0.000359225788943,0.021831695756,-0.194893467317,-0.980581350228
1421850126940023899,28929,1421850126940023899,fcu,0.064453125,-0.099609375,0.00390625,0.000598373204975,0.0220220109673,-0.194872054373,-0.980581233456
1421850126945024014,28930,1421850126945024014,fcu,0.064453125,-0.099609375,0.00390625,-0.000359225788943,0.021831695756,-0.194893467317,-0.980581350228
1421850126950023890,28931,1421850126950023890,fcu,0.064453125,-0.099609375,0.00390625,0.000598373204975,0.0220220109673,-0.194872054373,-0.980581233456
1421850126975025892,28936,1421850126975025892,fcu,0.064453125,-0.099609375,0.00390625,-0.000359225788943,0.021831695756,-0.194893467317,-0.980581350228
1421850126980026007,28937,1421850126980026007,fcu,0.064453125,-0.099609375,0.00390625,-0.000359225788943,0.021831695756,-0.194893467317,-0.980581350228
1421850126985025883,28938,1421850126985025883,fcu,0.064453125,-0.099609375,0.00390625,-0.000359225788943,0.021831695756,-0.194893467317,-0.980581350228
1421850126990027905,28939,1421850126990027905,fcu,0.064453125,-0.099609375,0.00390625,-0.000549711991728,0.0227892522044,-0.194885542425,-0.980561050192
1421850126995028019,28940,1421850126995028019,fcu,0.064453125,-0.099609375,0.00390625,-0.000527456604037,0.0227897781657,-0.193927870498,-0.980750900507
1421850127000027895,28941,1421850127000027895,fcu,0.064453125,-0.099609375,0.00390625,-0.000527456604037,0.0227897781657,-0.193927870498,-0.980750900507
1421850127005028009,28942,1421850127005028009,fcu,0.06640625,-0.099609375,0.00390625,-0.000527456604037,0.0227897781657,-0.193927870498,-0.980750900507
1421850127010027885,28943,1421850127010027885,fcu,0.06640625,-0.099609375,0.00390625,-0.000527456604037,0.0227897781657,-0.193927870498,-0.980750900507
1421850127015029907,28944,1421850127015029907,fcu,0.06640625,-0.099609375,0.00390625,-0.000527456604037,0.0227897781657,-0.193927870498,-0.980750900507
1421850127020030022,28945,1421850127020030022,fcu,0.06640625,-0.099609375,0.00390625,-0.000527456604037,0.0227897781657,-0.193927870498,-0.980750900507
1421850127025029898,28946,1421850127025029898,fcu,0.06640625,-0.099609375,0.00390625,-0.000527456604037,0.0227897781657,-0.193927870498,-0.980750900507
1421850127030030012,28947,1421850127030030012,fcu,0.068359375,-0.099609375,0.00390625,-0.000527456604037,0.0227897781657,-0.193927870498,-0.980750900507
1421850127035029888,28948,1421850127035029888,fcu,0.068359375,-0.099609375,0.00390625,-0.000527456604037,0.0227897781657,-0.193927870498,-0.980750900507
1421850127040031910,28949,1421850127040031910,fcu,0.068359375,-0.099609375,0.00390625,-0.000527456604037,0.0227897781657,-0.193927870498,-0.980750900507
1421850127045032024,28950,1421850127045032024,fcu,0.068359375,-0.099609375,0.00390625,-0.000527456604037,0.0227897781657,-0.193927870498,-0.980750900507
1421850127050031900,28951,1421850127050031900,fcu,0.068359375,-0.099609375,0.00390625,-0.000527456604037,0.0227897781657,-0.193927870498,-0.980750900507
1421850127055032015,28952,1421850127055032015,fcu,0.068359375,-0.099609375,0.00390625,-0.000527456604037,0.0227897781657,-0.193927870498,-0.980750900507
1421850127060031891,28953,1421850127060031891,fcu,0.068359375,-0.099609375,0.00390625,-0.000527456604037,0.0227897781657,-0.193927870498,-0.980750900507
1421850127065033913,28954,1421850127065033913,fcu,0.068359375,-0.099609375,0.00390625,-0.000527456604037,0.0227897781657,-0.193927870498,-0.980750900507
1421850127070034027,28955,1421850127070034027,fcu,0.0703125,-0.099609375,0.00390625,-0.000527456604037,0.0227897781657,-0.193927870498,-0.980750900507
1421850127075033903,28956,1421850127075033903,fcu,0.0703125,-0.099609375,0.00390625,-0.000527456604037,0.0227897781657,-0.193927870498,-0.980750900507
1421850127080034018,28957,1421850127080034018,fcu,0.0703125,-0.099609375,0.00390625,-0.00148522075157,0.0226003846427,-0.193950033665,-0.980749917754
1421850127085033894,28958,1421850127085033894,fcu,0.0703125,-0.099609375,0.00390625,-0.000527456604037,0.0227897781657,-0.193927870498,-0.980750900507
1421850127090035915,28959,1421850127090035915,fcu,0.0703125,-0.099609375,0.00390625,-0.000527456604037,0.0227897781657,-0.193927870498,-0.980750900507
1421850127095036030,28960,1421850127095036030,fcu,0.0703125,-0.099609375,0.00390625,-0.000527456604037,0.0227897781657,-0.193927870498,-0.980750900507
1421850127100035906,28961,1421850127100035906,fcu,0.0703125,-0.099609375,0.00390625,-0.000505200713323,0.0227902823929,-0.192970013627,-0.980939815504
1421850127105036020,28962,1421850127105036020,fcu,0.072265625,-0.099609375,0.00390625,-0.00146314935874,0.0226018242767,-0.192992177743,-0.980938854396
1421850127110035896,28963,1421850127110035896,fcu,0.072265625,-0.099609375,0.00390625,-0.000505200713323,0.0227902823929,-0.192970013627,-0.980939815504
1421850127115037918,28964,1421850127115037918,fcu,0.072265625,-0.099609375,0.00390625,-0.00146314935874,0.0226018242767,-0.192992177743,-0.980938854396
1421850127120038033,28965,1421850127120038033,fcu,0.072265625,-0.099609375,0.00390625,-0.000505200713323,0.0227902823929,-0.192970013627,-0.980939815504
1421850127125037909,28966,1421850127125037909,fcu,0.072265625,-0.099609375,0.00390625,-0.00146314935874,0.0226018242767,-0.192992177743,-0.980938854396
1421850127130038023,28967,1421850127130038023,fcu,0.072265625,-0.099609375,0.00390625,-0.000505200713323,0.0227902823929,-0.192970013627,-0.980939815504
1421850127135037899,28968,1421850127135037899,fcu,0.072265625,-0.099609375,0.00390625,-0.00146314935874,0.0226018242767,-0.192992177743,-0.980938854396
1421850127140039921,28969,1421850127140039921,fcu,0.072265625,-0.099609375,0.00390625,-0.000505200713323,0.0227902823929,-0.192970013627,-0.980939815504
1421850127145040035,28970,1421850127145040035,fcu,0.072265625,-0.099609375,0.00390625,-0.000505200713323,0.0227902823929,-0.192970013627,-0.980939815504
1421850127150039911,28971,1421850127150039911,fcu,0.07421875,-0.099609375,0.00390625,-0.00146314935874,0.0226018242767,-0.192992177743,-0.980938854396
1421850127155040026,28972,1421850127155040026,fcu,0.07421875,-0.099609375,0.00390625,-0.000505200713323,0.0227902823929,-0.192970013627,-0.980939815504
1421850127160039902,28973,1421850127160039902,fcu,0.07421875,-0.099609375,0.00390625,-0.000505200713323,0.0227902823929,-0.192970013627,-0.980939815504
1421850127165041924,28974,1421850127165041924,fcu,0.07421875,-0.099609375,0.00390625,-0.000505200713323,0.0227902823929,-0.192970013627,-0.980939815504
1421850127170042038,28975,1421850127170042038,fcu,0.07421875,-0.099609375,0.00390625,-0.000693815844739,0.0237481873235,-0.192961944367,-0.980918564533
1421850127175041914,28976,1421850127175041914,fcu,0.07421875,-0.099609375,0.00390625,-0.000505200713323,0.0227902823929,-0.192970013627,-0.980939815504
1421850127180042028,28977,1421850127180042028,fcu,0.07421875,-0.099609375,0.00390625,-0.000693815844739,0.0237481873235,-0.192961944367,-0.980918564533
1421850127185041904,28978,1421850127185041904,fcu,0.07421875,-0.099609375,0.00390625,-0.000505200713323,0.0227902823929,-0.192970013627,-0.980939815504
1421850127190043926,28979,1421850127190043926,fcu,0.076171875,-0.099609375,0.00390625,-0.000505200713323,0.0227902823929,-0.192970013627,-0.980939815504
1421850127195044041,28980,1421850127195044041,fcu,0.076171875,-0.099609375,0.00390625,-0.000693815844739,0.0237481873235,-0.192961944367,-0.980918564533
1421850127200043917,28981,1421850127200043917,fcu,0.076171875,-0.099609375,0.00390625,-0.000505200713323,0.0227902823929,-0.192970013627,-0.980939815504
1421850127205044031,28982,1421850127205044031,fcu,0.076171875,-0.099609375,0.00390625,-0.000505200713323,0.0227902823929,-0.192970013627,-0.980939815504
1421850127210043907,28983,1421850127210043907,fcu,0.076171875,-0.099609375,0.00390625,-0.000505200713323,0.0227902823929,-0.192970013627,-0.980939815504
1421850127215045929,28984,1421850127215045929,fcu,0.076171875,-0.099609375,0.00390625,-0.000505200713323,0.0227902823929,-0.192970013627,-0.980939815504
1421850127220046043,28985,1421850127220046043,fcu,0.076171875,-0.099609375,0.00390625,-0.000505200713323,0.0227902823929,-0.192970013627,-0.980939815504
1421850127225045919,28986,1421850127225045919,fcu,0.076171875,-0.099609375,0.00390625,-0.000505200713323,0.0227902823929,-0.192970013627,-0.980939815504
1421850127230046034,28987,1421850127230046034,fcu,0.076171875,-0.099609375,0.00390625,-0.000505200713323,0.0227902823929,-0.192970013627,-0.980939815504
1421850127235045910,28988,1421850127235045910,fcu,0.078125,-0.099609375,0.00390625,-0.000505200713323,0.0227902823929,-0.192970013627,-0.980939815504
1421850127240047932,28989,1421850127240047932,fcu,0.078125,-0.099609375,0.00390625,-0.000505200713323,0.0227902823929,-0.192970013627,-0.980939815504
1421850127255048037,28992,1421850127255048037,fcu,0.078125,-0.099609375,0.00390625,-0.00146314935874,0.0226018242767,-0.192992177743,-0.980938854396
1421850127260047913,28993,1421850127260047913,fcu,0.078125,-0.099609375,0.00390625,-0.00146314935874,0.0226018242767,-0.192992177743,-0.980938854396
1421850127265049934,28994,1421850127265049934,fcu,0.078125,-0.099609375,0.00390625,-0.00146314935874,0.0226018242767,-0.192992177743,-0.980938854396
1421850127270050049,28995,1421850127270050049,fcu,0.078125,-0.099609375,0.00390625,-0.00146314935874,0.0226018242767,-0.192992177743,-0.980938854396
1421850127275049925,28996,1421850127275049925,fcu,0.078125,-0.099609375,0.00390625,-0.00146314935874,0.0226018242767,-0.192992177743,-0.980938854396
1421850127280050039,28997,1421850127280050039,fcu,0.078125,-0.099609375,0.00390625,-0.00146314935874,0.0226018242767,-0.192992177743,-0.980938854396
1421850127285049915,28998,1421850127285049915,fcu,0.078125,-0.099609375,0.00390625,-0.00146314935874,0.0226018242767,-0.192992177743,-0.980938854396
1421850127290051937,28999,1421850127290051937,fcu,0.078125,-0.099609375,0.00390625,-0.00242109660879,0.0224133446057,-0.193014157808,-0.980936957791
1421850127295052052,29000,1421850127295052052,fcu,0.078125,-0.099609375,0.00390625,-0.00242109660879,0.0224133446057,-0.193014157808,-0.980936957791
1421850127300051928,29001,1421850127300051928,fcu,0.080078125,-0.099609375,0.00390625,-0.00242109660879,0.0224133446057,-0.193014157808,-0.980936957791
1421850127305052042,29002,1421850127305052042,fcu,0.080078125,-0.099609375,0.00390625,-0.00239920742596,0.0224156982699,-0.192056119676,-0.981124980403
1421850127310051918,29003,1421850127310051918,fcu,0.080078125,-0.099609375,0.00390625,-0.00221156742943,0.0214575743321,-0.192062113739,-0.981145670092
1421850127315053940,29004,1421850127315053940,fcu,0.080078125,-0.099609375,0.00390625,-0.00239920742596,0.0224156982699,-0.192056119676,-0.981124980403
1421850127320054054,29005,1421850127320054054,fcu,0.080078125,-0.099609375,0.00390625,-0.00221156742943,0.0214575743321,-0.192062113739,-0.981145670092
1421850127325053930,29006,1421850127325053930,fcu,0.080078125,-0.099609375,0.00390625,-0.00221156742943,0.0214575743321,-0.192062113739,-0.981145670092
1421850127330054045,29007,1421850127330054045,fcu,0.080078125,-0.099609375,0.00390625,-0.00316971629102,0.0212700034722,-0.192082976815,-0.981143042511
1421850127335053921,29008,1421850127335053921,fcu,0.080078125,-0.099609375,0.00390625,-0.00316971629102,0.0212700034722,-0.192082976815,-0.981143042511
1421850127340055943,29009,1421850127340055943,fcu,0.08203125,-0.099609375,0.00390625,-0.00316971629102,0.0212700034722,-0.192082976815,-0.981143042511
1421850127345055819,29010,1421850127345055819,fcu,0.08203125,-0.099609375,0.00390625,-0.00316971629102,0.0212700034722,-0.192082976815,-0.981143042511
1421850127350055933,29011,1421850127350055933,fcu,0.08203125,-0.099609375,0.00390625,-0.00316971629102,0.0212700034722,-0.192082976815,-0.981143042511
1421850127360055923,29013,1421850127360055923,fcu,0.08203125,-0.099609375,0.00390625,-0.00316971629102,0.0212700034722,-0.192082976815,-0.981143042511
1421850127365057945,29014,1421850127365057945,fcu,0.08203125,-0.099609375,0.00390625,-0.00316971629102,0.0212700034722,-0.192082976815,-0.981143042511
1421850127370057821,29015,1421850127370057821,fcu,0.08203125,-0.099609375,0.00390625,-0.00316971629102,0.0212700034722,-0.192082976815,-0.981143042511
1421850127375057936,29016,1421850127375057936,fcu,0.08203125,-0.099609375,0.00390625,-0.00298209356586,0.020311853853,-0.192087852023,-0.981162979742
1421850127380058050,29017,1421850127380058050,fcu,0.08203125,-0.099609375,0.00390625,-0.00316971629102,0.0212700034722,-0.192082976815,-0.981143042511
1421850127400059938,29021,1421850127400059938,fcu,0.083984375,-0.09765625,0.00390625,-0.00316971629102,0.0212700034722,-0.192082976815,-0.981143042511
1421850127405060053,29022,1421850127405060053,fcu,0.083984375,-0.09765625,0.00390625,-0.00316971629102,0.0212700034722,-0.192082976815,-0.981143042511
1421850127410059929,29023,1421850127410059929,fcu,0.083984375,-0.09765625,0.00390625,-0.00316971629102,0.0212700034722,-0.192082976815,-0.981143042511
1421850127415061951,29024,1421850127415061951,fcu,0.083984375,-0.09765625,0.00390625,-0.00316971629102,0.0212700034722,-0.192082976815,-0.981143042511
1421850127420061827,29025,1421850127420061827,fcu,0.083984375,-0.09765625,0.00390625,-0.00316971629102,0.0212700034722,-0.192082976815,-0.981143042511
1421850127425061941,29026,1421850127425061941,fcu,0.083984375,-0.09765625,0.00390625,-0.00316971629102,0.0212700034722,-0.192082976815,-0.981143042511
1421850127430061817,29027,1421850127430061817,fcu,0.083984375,-0.09765625,0.00390625,-0.00316971629102,0.0212700034722,-0.192082976815,-0.981143042511
1421850127435061932,29028,1421850127435061932,fcu,0.083984375,-0.09765625,0.00390625,-0.00316971629102,0.0212700034722,-0.192082976815,-0.981143042511
1421850127440063953,29029,1421850127440063953,fcu,0.083984375,-0.09765625,0.00390625,-0.00316971629102,0.0212700034722,-0.192082976815,-0.981143042511
1421850127445063829,29030,1421850127445063829,fcu,0.083984375,-0.09765625,0.00390625,-0.00316971629102,0.0212700034722,-0.192082976815,-0.981143042511
1421850127450063944,29031,1421850127450063944,fcu,0.083984375,-0.09765625,0.00390625,-0.00316971629102,0.0212700034722,-0.192082976815,-0.981143042511
1421850127460063934,29033,1421850127460063934,fcu,0.0859375,-0.09765625,0.00390625,-0.00316971629102,0.0212700034722,-0.192082976815,-0.981143042511
1421850127465065956,29034,1421850127465065956,fcu,0.0859375,-0.09765625,0.00390625,-0.00316971629102,0.0212700034722,-0.192082976815,-0.981143042511
1421850127475065947,29036,1421850127475065947,fcu,0.0859375,-0.09765625,0.00390625,-0.00316971629102,0.0212700034722,-0.192082976815,-0.981143042511
1421850127480065823,29037,1421850127480065823,fcu,0.0859375,-0.09765625,0.00390625,-0.00412786212974,0.0210824123276,-0.192103656708,-0.98113947924
1421850127485065937,29038,1421850127485065937,fcu,0.0859375,-0.09765625,0.00390625,-0.00431546135886,0.0220405461452,-0.192099533991,-0.981118423107
1421850127490067959,29039,1421850127490067959,fcu,0.0859375,-0.09765625,0.00390625,-0.00431546135886,0.0220405461452,-0.192099533991,-0.981118423107
1421850127495067835,29040,1421850127495067835,fcu,0.0859375,-0.09765625,0.00390625,-0.00431546135886,0.0220405461452,-0.192099533991,-0.981118423107
1421850127505067825,29042,1421850127505067825,fcu,0.0859375,-0.095703125,0.00390625,-0.00431546135886,0.0220405461452,-0.192099533991,-0.981118423107
1421850127510067940,29043,1421850127510067940,fcu,0.0859375,-0.095703125,0.00390625,-0.00431546135886,0.0220405461452,-0.192099533991,-0.981118423107
1421850127520069838,29045,1421850127520069838,fcu,0.0859375,-0.095703125,0.00390625,-0.00431546135886,0.0220405461452,-0.192099533991,-0.981118423107
1421850127525069952,29046,1421850127525069952,fcu,0.087890625,-0.095703125,0.00390625,-0.00450305647243,0.0229986589432,-0.192095228073,-0.981096431306
1421850127530069828,29047,1421850127530069828,fcu,0.087890625,-0.095703125,0.00390625,-0.00431546135886,0.0220405461452,-0.192099533991,-0.981118423107
1421850127535069942,29048,1421850127535069942,fcu,0.087890625,-0.095703125,0.00390625,-0.00450305647243,0.0229986589432,-0.192095228073,-0.981096431306
1421850127545071840,29050,1421850127545071840,fcu,0.087890625,-0.095703125,0.00390625,-0.00335733599331,0.0222281328067,-0.192077918423,-0.98112216959
1421850127550071955,29051,1421850127550071955,fcu,0.087890625,-0.095703125,0.00390625,-0.00450305647243,0.0229986589432,-0.192095228073,-0.981096431306
1421850127555071831,29052,1421850127555071831,fcu,0.087890625,-0.095703125,0.00390625,-0.0035449524938,0.0231862409429,-0.192072676851,-0.981100360998
1421850127560071945,29053,1421850127560071945,fcu,0.087890625,-0.095703125,0.00390625,-0.0035449524938,0.0231862409429,-0.192072676851,-0.981100360998
1421850127565073967,29054,1421850127565073967,fcu,0.087890625,-0.095703125,0.00390625,-0.00431546135886,0.0220405461452,-0.192099533991,-0.981118423107
1421850127570073843,29055,1421850127570073843,fcu,0.087890625,-0.095703125,0.00390625,-0.00431546135886,0.0220405461452,-0.192099533991,-0.981118423107
1421850127575073957,29056,1421850127575073957,fcu,0.087890625,-0.095703125,0.00390625,-0.00431546135886,0.0220405461452,-0.192099533991,-0.981118423107
1421850127580073833,29057,1421850127580073833,fcu,0.087890625,-0.095703125,0.00390625,-0.00431546135886,0.0220405461452,-0.192099533991,-0.981118423107
1421850127585073948,29058,1421850127585073948,fcu,0.087890625,-0.095703125,0.00390625,-0.00431546135886,0.0220405461452,-0.192099533991,-0.981118423107
1421850127590075970,29059,1421850127590075970,fcu,0.087890625,-0.095703125,0.00390625,-0.00431546135886,0.0220405461452,-0.192099533991,-0.981118423107
1421850127595075846,29060,1421850127595075846,fcu,0.087890625,-0.095703125,0.00390625,-0.00431546135886,0.0220405461452,-0.192099533991,-0.981118423107
1421850127600075960,29061,1421850127600075960,fcu,0.087890625,-0.095703125,0.00390625,-0.00431546135886,0.0220405461452,-0.192099533991,-0.981118423107
1421850127605075836,29062,1421850127605075836,fcu,0.087890625,-0.095703125,0.00390625,-0.00431546135886,0.0220405461452,-0.192099533991,-0.981118423107
1421850127630077839,29067,1421850127630077839,fcu,0.087890625,-0.095703125,0.00390625,-0.00431546135886,0.0220405461452,-0.192099533991,-0.981118423107
1421850127635077953,29068,1421850127635077953,fcu,0.087890625,-0.095703125,0.00390625,-0.00431546135886,0.0220405461452,-0.192099533991,-0.981118423107
1421850127640079975,29069,1421850127640079975,fcu,0.087890625,-0.095703125,0.00390625,-0.00431546135886,0.0220405461452,-0.192099533991,-0.981118423107
1421850127650079966,29071,1421850127650079966,fcu,0.087890625,-0.095703125,0.00390625,-0.00529492085105,0.0218477780616,-0.193078993483,-0.980925655023
1421850127655079842,29072,1421850127655079842,fcu,0.087890625,-0.095703125,0.00390625,-0.00529492085105,0.0218477780616,-0.193078993483,-0.980925655023
1421850127660079956,29073,1421850127660079956,fcu,0.087890625,-0.095703125,0.00390625,-0.00529492085105,0.0218477780616,-0.193078993483,-0.980925655023
1421850127665081978,29074,1421850127665081978,fcu,0.087890625,-0.095703125,0.00390625,-0.00529492085105,0.0218477780616,-0.193078993483,-0.980925655023
1421850127670081854,29075,1421850127670081854,fcu,0.087890625,-0.09375,0.00390625,-0.00529492085105,0.0218477780616,-0.193078993483,-0.980925655023
1421850127675081968,29076,1421850127675081968,fcu,0.087890625,-0.09375,0.00390625,-0.00529492085105,0.0218477780616,-0.193078993483,-0.980925655023
1421850127680081844,29077,1421850127680081844,fcu,0.087890625,-0.09375,0.00390625,-0.00529492085105,0.0218477780616,-0.193078993483,-0.980925655023
1421850127685081959,29078,1421850127685081959,fcu,0.087890625,-0.09375,0.00390625,-0.00529492085105,0.0218477780616,-0.193078993483,-0.980925655023
1421850127690083981,29079,1421850127690083981,fcu,0.08984375,-0.09375,0.00390625,-0.00529492085105,0.0218477780616,-0.193078993483,-0.980925655023
1421850127695083857,29080,1421850127695083857,fcu,0.08984375,-0.09375,0.00390625,-0.00529492085105,0.0218477780616,-0.193078993483,-0.980925655023
1421850127705085993,29082,1421850127705085993,fcu,0.08984375,-0.09375,0.00390625,-0.00529492085105,0.0218477780616,-0.193078993483,-0.980925655023
1421850127710085869,29083,1421850127710085869,fcu,0.08984375,-0.09375,0.00390625,-0.00529492085105,0.0218477780616,-0.193078993483,-0.980925655023
1421850127715085983,29084,1421850127715085983,fcu,0.08984375,-0.09375,0.00390625,-0.00529492085105,0.0218477780616,-0.193078993483,-0.980925655023
1421850127720085859,29085,1421850127720085859,fcu,0.08984375,-0.09375,0.00390625,-0.00529492085105,0.0218477780616,-0.193078993483,-0.980925655023
1421850127725087881,29086,1421850127725087881,fcu,0.08984375,-0.09375,0.00390625,-0.00510640668257,0.0208898243139,-0.19308220126,-0.980946891227
1421850127730087996,29087,1421850127730087996,fcu,0.08984375,-0.09375,0.00390625,-0.00529492085105,0.0218477780616,-0.193078993483,-0.980925655023
1421850127735087872,29088,1421850127735087872,fcu,0.08984375,-0.09375,0.00390625,-0.00512680446346,0.0208848276283,-0.194040064988,-0.980757866668
1421850127740087986,29089,1421850127740087986,fcu,0.08984375,-0.09375,0.00390625,-0.00512680446346,0.0208848276283,-0.194040064988,-0.980757866668
1421850127745087862,29090,1421850127745087862,fcu,0.08984375,-0.09375,0.00390625,-0.00512680446346,0.0208848276283,-0.194040064988,-0.980757866668
1421850127750087976,29091,1421850127750087976,fcu,0.08984375,-0.09375,0.00390625,-0.00512680446346,0.0208848276283,-0.194040064988,-0.980757866668
1421850127755089998,29092,1421850127755089998,fcu,0.08984375,-0.09375,0.00390625,-0.00608457322074,0.0206953254488,-0.194060367799,-0.980752392362
1421850127760089874,29093,1421850127760089874,fcu,0.08984375,-0.09375,0.00390625,-0.00608457322074,0.0206953254488,-0.194060367799,-0.980752392362
1421850127765089989,29094,1421850127765089989,fcu,0.08984375,-0.09375,0.00390625,-0.00608457322074,0.0206953254488,-0.194060367799,-0.980752392362
1421850127770089865,29095,1421850127770089865,fcu,0.08984375,-0.09375,0.00390625,-0.00589513866363,0.019737533821,-0.19406247592,-0.980772875103
1421850127775089979,29096,1421850127775089979,fcu,0.08984375,-0.09375,0.00390625,-0.00589513866363,0.019737533821,-0.19406247592,-0.980772875103
1421850127780092001,29097,1421850127780092001,fcu,0.08984375,-0.09375,0.00390625,-0.00589513866363,0.019737533821,-0.19406247592,-0.980772875103
1421850127785091877,29098,1421850127785091877,fcu,0.08984375,-0.09375,0.00390625,-0.00589513866363,0.019737533821,-0.19406247592,-0.980772875103
1421850127790091991,29099,1421850127790091991,fcu,0.08984375,-0.09375,0.00390625,-0.00589513866363,0.019737533821,-0.19406247592,-0.980772875103
1421850127795091867,29100,1421850127795091867,fcu,0.08984375,-0.09375,0.00390625,-0.00589513866363,0.019737533821,-0.19406247592,-0.980772875103
1421850127800091982,29101,1421850127800091982,fcu,0.08984375,-0.09375,0.00390625,-0.00570569848448,0.01877972337,-0.194064398969,-0.980792422507
1421850127805091858,29102,1421850127805091858,fcu,0.087890625,-0.09375,0.00390625,-0.00589513866363,0.019737533821,-0.19406247592,-0.980772875103
1421850127810093880,29103,1421850127810093880,fcu,0.087890625,-0.09375,0.00390625,-0.00570569848448,0.01877972337,-0.194064398969,-0.980792422507
1421850127815093994,29104,1421850127815093994,fcu,0.087890625,-0.09375,0.00390625,-0.00570569848448,0.01877972337,-0.194064398969,-0.980792422507
1421850127820093870,29105,1421850127820093870,fcu,0.087890625,-0.09375,0.00390625,-0.00570569848448,0.01877972337,-0.194064398969,-0.980792422507
1421850127825093985,29106,1421850127825093985,fcu,0.087890625,-0.091796875,0.00390625,-0.00570569848448,0.01877972337,-0.194064398969,-0.980792422507
1421850127830093861,29107,1421850127830093861,fcu,0.087890625,-0.091796875,0.00390625,-0.00570569848448,0.01877972337,-0.194064398969,-0.980792422507
1421850127835095882,29108,1421850127835095882,fcu,0.087890625,-0.091796875,0.00390625,-0.00570569848448,0.01877972337,-0.194064398969,-0.980792422507
1421850127840095997,29109,1421850127840095997,fcu,0.087890625,-0.091796875,0.00390625,-0.00570569848448,0.01877972337,-0.194064398969,-0.980792422507
1421850127845095873,29110,1421850127845095873,fcu,0.087890625,-0.091796875,0.00390625,-0.00570569848448,0.01877972337,-0.194064398969,-0.980792422507
1421850127850095987,29111,1421850127850095987,fcu,0.087890625,-0.091796875,0.00390625,-0.00570569848448,0.01877972337,-0.194064398969,-0.980792422507
1421850127855095863,29112,1421850127855095863,fcu,0.087890625,-0.091796875,0.00390625,-0.00570569848448,0.01877972337,-0.194064398969,-0.980792422507
1421850127860097885,29113,1421850127860097885,fcu,0.087890625,-0.091796875,0.00390625,-0.00570569848448,0.01877972337,-0.194064398969,-0.980792422507
1421850127865098000,29114,1421850127865098000,fcu,0.087890625,-0.091796875,0.00390625,-0.00570569848448,0.01877972337,-0.194064398969,-0.980792422507
1421850127870097876,29115,1421850127870097876,fcu,0.087890625,-0.091796875,0.00390625,-0.00570569848448,0.01877972337,-0.194064398969,-0.980792422507
1421850127875097990,29116,1421850127875097990,fcu,0.087890625,-0.091796875,0.00390625,-0.00570569848448,0.01877972337,-0.194064398969,-0.980792422507
1421850127880097866,29117,1421850127880097866,fcu,0.087890625,-0.091796875,0.00390625,-0.00570569848448,0.01877972337,-0.194064398969,-0.980792422507
1421850127885097980,29118,1421850127885097980,fcu,0.087890625,-0.091796875,0.00390625,-0.00666350071166,0.0185901984307,-0.194082646002,-0.980786382859
1421850127890100002,29119,1421850127890100002,fcu,0.087890625,-0.091796875,0.00390625,-0.00551625286395,0.0178218950093,-0.194066136943,-0.980811034555
1421850127895099878,29120,1421850127895099878,fcu,0.087890625,-0.08984375,0.00390625,-0.00570569848448,0.01877972337,-0.194064398969,-0.980792422507
1421850127900099993,29121,1421850127900099993,fcu,0.087890625,-0.08984375,0.00390625,-0.00647407335729,0.0176323688294,-0.194083448597,-0.980805179903
1421850127905099869,29122,1421850127905099869,fcu,0.087890625,-0.08984375,0.00390625,-0.00572403533448,0.0187741424449,-0.195022111379,-0.980602438845
1421850127910099983,29123,1421850127910099983,fcu,0.087890625,-0.08984375,0.00390625,-0.00649128937766,0.0176260380854,-0.195041173457,-0.980615177631
1421850127930101871,29127,1421850127930101871,fcu,0.087890625,-0.091796875,0.00390625,-0.00668165202202,0.0185836822423,-0.195040352506,-0.98059638138
1421850127935101986,29128,1421850127935101986,fcu,0.087890625,-0.091796875,0.00390625,-0.00649128937766,0.0176260380854,-0.195041173457,-0.980615177631
1421850127940101862,29129,1421850127940101862,fcu,0.087890625,-0.091796875,0.00390625,-0.00668165202202,0.0185836822423,-0.195040352506,-0.98059638138
1421850127960103989,29133,1421850127960103989,fcu,0.0859375,-0.091796875,0.00390625,-0.00668165202202,0.0185836822423,-0.195040352506,-0.98059638138
1421850127965103865,29134,1421850127965103865,fcu,0.0859375,-0.091796875,0.00390625,-0.00668165202202,0.0185836822423,-0.195040352506,-0.98059638138
1421850127970105886,29135,1421850127970105886,fcu,0.0859375,-0.091796875,0.00390625,-0.00668165202202,0.0185836822423,-0.195040352506,-0.98059638138
1421850127975106001,29136,1421850127975106001,fcu,0.0859375,-0.091796875,0.00390625,-0.00669979696027,0.0185771483311,-0.195997873005,-0.980405444731
1421850127980105877,29137,1421850127980105877,fcu,0.0859375,-0.091796875,0.00390625,-0.00669979696027,0.0185771483311,-0.195997873005,-0.980405444731
1421850127985105991,29138,1421850127985105991,fcu,0.0859375,-0.091796875,0.00390625,-0.00669979696027,0.0185771483311,-0.195997873005,-0.980405444731
1421850127990105867,29139,1421850127990105867,fcu,0.0859375,-0.091796875,0.00390625,-0.0076572208055,0.0183857353304,-0.19601592129,-0.980398434468
1421850127995107889,29140,1421850127995107889,fcu,0.0859375,-0.091796875,0.00390625,-0.00652570283026,0.0176133261749,-0.196956064247,-0.980232367707
1421850128000108004,29141,1421850128000108004,fcu,0.0859375,-0.091796875,0.00390625,-0.00671793550909,0.0185705967034,-0.196955206586,-0.980213573095
1421850128005107880,29142,1421850128005107880,fcu,0.0859375,-0.091796875,0.00390625,-0.00652570283026,0.0176133261749,-0.196956064247,-0.980232367707
1421850128010107994,29143,1421850128010107994,fcu,0.0859375,-0.091796875,0.00390625,-0.00671793550909,0.0185705967034,-0.196955206586,-0.980213573095
1421850128015107870,29144,1421850128015107870,fcu,0.0859375,-0.091796875,0.00390625,-0.00671793550909,0.0185705967034,-0.196955206586,-0.980213573095
1421850128020107985,29145,1421850128020107985,fcu,0.083984375,-0.091796875,0.00390625,-0.00671793550909,0.0185705967034,-0.196955206586,-0.980213573095
1421850128025110006,29146,1421850128025110006,fcu,0.083984375,-0.091796875,0.00390625,-0.00671793550909,0.0185705967034,-0.196955206586,-0.980213573095
1421850128030109882,29147,1421850128030109882,fcu,0.083984375,-0.091796875,0.00390625,-0.00671793550909,0.0185705967034,-0.196955206586,-0.980213573095
1421850128035109997,29148,1421850128035109997,fcu,0.083984375,-0.091796875,0.00390625,-0.00671793550909,0.0185705967034,-0.196955206586,-0.980213573095
1421850128040109873,29149,1421850128040109873,fcu,0.083984375,-0.091796875,0.005859375,-0.00652570283026,0.0176133261749,-0.196956064247,-0.980232367707
1421850128045109987,29150,1421850128045109987,fcu,0.083984375,-0.091796875,0.005859375,-0.00671793550909,0.0185705967034,-0.196955206586,-0.980213573095
1421850128050112009,29151,1421850128050112009,fcu,0.083984375,-0.091796875,0.005859375,-0.00671793550909,0.0185705967034,-0.196955206586,-0.980213573095
1421850128055111885,29152,1421850128055111885,fcu,0.083984375,-0.091796875,0.005859375,-0.00652570283026,0.0176133261749,-0.196956064247,-0.980232367707
1421850128070111990,29155,1421850128070111990,fcu,0.083984375,-0.091796875,0.005859375,-0.0057606926404,0.0187629268867,-0.196936977325,-0.980219666175
1421850128075111866,29156,1421850128075111866,fcu,0.083984375,-0.091796875,0.005859375,-0.00556844169913,0.0178056576522,-0.19693876982,-0.980238273051
1421850128080113888,29157,1421850128080113888,fcu,0.083984375,-0.091796875,0.005859375,-0.00556844169913,0.0178056576522,-0.19693876982,-0.980238273051
1421850128085114002,29158,1421850128085114002,fcu,0.083984375,-0.091796875,0.005859375,-0.00556844169913,0.0178056576522,-0.19693876982,-0.980238273051
1421850128090113878,29159,1421850128090113878,fcu,0.083984375,-0.091796875,0.005859375,-0.00558582737867,0.0178002112313,-0.197895939698,-0.98004548265
1421850128095113993,29160,1421850128095113993,fcu,0.083984375,-0.091796875,0.005859375,-0.00462874920062,0.0179934604664,-0.197878462318,-0.980050470237
1421850128100113869,29161,1421850128100113869,fcu,0.08203125,-0.091796875,0.005859375,-0.00462874920062,0.0179934604664,-0.197878462318,-0.980050470237
1421850128105115891,29162,1421850128105115891,fcu,0.08203125,-0.091796875,0.005859375,-0.00462874920062,0.0179934604664,-0.197878462318,-0.980050470237
1421850128110116005,29163,1421850128110116005,fcu,0.08203125,-0.091796875,0.005859375,-0.00462874920062,0.0179934604664,-0.197878462318,-0.980050470237
1421850128115115881,29164,1421850128115115881,fcu,0.08203125,-0.091796875,0.005859375,-0.00462874920062,0.0179934604664,-0.197878462318,-0.980050470237
1421850128120115995,29165,1421850128120115995,fcu,0.08203125,-0.091796875,0.005859375,-0.00462874920062,0.0179934604664,-0.197878462318,-0.980050470237
1421850128125115871,29166,1421850128125115871,fcu,0.08203125,-0.091796875,0.005859375,-0.00462874920062,0.0179934604664,-0.197878462318,-0.980050470237
1421850128130117893,29167,1421850128130117893,fcu,0.08203125,-0.091796875,0.005859375,-0.00462874920062,0.0179934604664,-0.197878462318,-0.980050470237
1421850128135118008,29168,1421850128135118008,fcu,0.08203125,-0.091796875,0.005859375,-0.00462874920062,0.0179934604664,-0.197878462318,-0.980050470237
1421850128140117884,29169,1421850128140117884,fcu,0.08203125,-0.091796875,0.005859375,-0.00462874920062,0.0179934604664,-0.197878462318,-0.980050470237
1421850128145117998,29170,1421850128145117998,fcu,0.08203125,-0.091796875,0.005859375,-0.00443554102667,0.0170363644981,-0.197881018919,-0.980067952038
1421850128150117874,29171,1421850128150117874,fcu,0.08203125,-0.091796875,0.005859375,-0.00349526557381,0.0172261943956,-0.198821294372,-0.97987812214
1421850128155117989,29172,1421850128155117989,fcu,0.08203125,-0.091796875,0.005859375,-0.00349526557381,0.0172261943956,-0.198821294372,-0.97987812214
1421850128160120010,29173,1421850128160120010,fcu,0.08203125,-0.091796875,0.005859375,-0.00349526557381,0.0172261943956,-0.198821294372,-0.97987812214
1421850128165119886,29174,1421850128165119886,fcu,0.08203125,-0.091796875,0.0078125,-0.00349526557381,0.0172261943956,-0.198821294372,-0.97987812214
1421850128170120001,29175,1421850128170120001,fcu,0.08203125,-0.091796875,0.0078125,-0.00349526557381,0.0172261943956,-0.198821294372,-0.97987812214
1421850128175119877,29176,1421850128175119877,fcu,0.08203125,-0.091796875,0.0078125,-0.00352890379666,0.0172193348531,-0.200734738391,-0.979487930578
1421850128180119991,29177,1421850128180119991,fcu,0.080078125,-0.091796875,0.0078125,-0.00352890379666,0.0172193348531,-0.200734738391,-0.979487930578
1421850128185122013,29178,1421850128185122013,fcu,0.080078125,-0.091796875,0.0078125,-0.00352890379666,0.0172193348531,-0.200734738391,-0.979487930578
1421850128190121889,29179,1421850128190121889,fcu,0.080078125,-0.091796875,0.0078125,-0.00352890379666,0.0172193348531,-0.200734738391,-0.979487930578
1421850128195122004,29180,1421850128195122004,fcu,0.080078125,-0.09375,0.0078125,-0.00333287212715,0.0162627956121,-0.200738088868,-0.979504279276
1421850128205121994,29182,1421850128205121994,fcu,0.080078125,-0.09375,0.0078125,-0.00352890379666,0.0172193348531,-0.200734738391,-0.979487930578
1421850128210121870,29183,1421850128210121870,fcu,0.078125,-0.09375,0.0078125,-0.00257237108378,0.0174153566291,-0.20071782692,-0.979490909716
1421850128215123892,29184,1421850128215123892,fcu,0.078125,-0.09375,0.0078125,-0.00257237108378,0.0174153566291,-0.20071782692,-0.979490909716
1421850128220124006,29185,1421850128220124006,fcu,0.078125,-0.09375,0.0078125,-0.00258937703869,0.017412836244,-0.201674265149,-0.979294429187
1421850128225123882,29186,1421850128225123882,fcu,0.078125,-0.09375,0.0078125,-0.00258937703869,0.017412836244,-0.201674265149,-0.979294429187
1421850128230123997,29187,1421850128230123997,fcu,0.078125,-0.09375,0.0078125,-0.00239239547404,0.0164564926399,-0.201678565521,-0.979310582248
1421850128235123873,29188,1421850128235123873,fcu,0.078125,-0.09375,0.0078125,-0.00239239547404,0.0164564926399,-0.201678565521,-0.979310582248
1421850128240125895,29189,1421850128240125895,fcu,0.078125,-0.09375,0.0078125,-0.00239239547404,0.0164564926399,-0.201678565521,-0.979310582248
1421850128245126009,29190,1421850128245126009,fcu,0.078125,-0.09375,0.0078125,-0.00143603649479,0.0166534364856,-0.201662398562,-0.9793124516
1421850128255125999,29192,1421850128255125999,fcu,0.078125,-0.09375,0.0078125,-0.0012390378801,0.0156970816551,-0.201667440541,-0.979327478343
1421850128260125875,29193,1421850128260125875,fcu,0.076171875,-0.09375,0.0078125,-0.0012390378801,0.0156970816551,-0.201667440541,-0.979327478343
1421850128265127897,29194,1421850128265127897,fcu,0.076171875,-0.09375,0.0078125,-0.0012390378801,0.0156970816551,-0.201667440541,-0.979327478343
1421850128270128012,29195,1421850128270128012,fcu,0.076171875,-0.09375,0.0078125,-0.0012390378801,0.0156970816551,-0.201667440541,-0.979327478343
1421850128275127888,29196,1421850128275127888,fcu,0.076171875,-0.09375,0.0078125,-0.0012390378801,0.0156970816551,-0.201667440541,-0.979327478343
