%time,field.x,field.y,field.theta
1421851253848357211,-1.74552462554,0.857410728256,0.163415624529
1421851253849822627,-1.74455882223,0.857873349273,0.163218556664
1421851254022737294,-1.74414003718,0.858491222863,0.162657163563
1421851254022882627,-1.73992360042,0.857915535287,0.162271689667
1421851254023257002,-1.73655538422,0.857556703396,0.163033098866
1421851254023590961,-1.73305953143,0.858112952128,0.163183670892
1421851254023944044,-1.72675817988,0.861790494262,0.162743847356
1421851254024275252,-1.72300364321,0.862769913342,0.162915959919
1421851254024585002,-1.71897372539,0.865058902828,0.16306329614
1421851254250306586,-1.71443132862,0.864138074777,0.163773163264
1421851254250697419,-1.70830478708,0.864906780755,0.164231616383
1421851254251111169,-1.6972417823,0.869306906501,0.164331135739
1421851254251470044,-1.68871788524,0.872452767517,0.164516335074
1421851254335738586,-1.66562108654,0.879414467407,0.166846890027
1421851254335895377,-1.65687226765,0.881408737562,0.167846036307
1421851254336536377,-1.62863843691,0.889405197135,0.169809689043
1421851254370266377,-1.60904830565,0.894366709064,0.171805550119
1421851254435483419,-1.58618031946,0.898824314867,0.174053432101
1421851254486063711,-1.57432478384,0.900778776595,0.174835843422
1421851254516714294,-1.56049766245,0.906261450609,0.175214966932
1421851254595312044,-1.54607357165,0.907890986187,0.176730427179
1421851254766205544,-1.38739343704,0.943614452893,0.183941756326
1421851254831923836,-1.37340013314,0.945678758267,0.184589677291
1421851254852830461,-1.35404067904,0.950532881891,0.184551227057
1421851254875118169,-1.3114105357,0.959204741122,0.18550544983
1421851254918092502,-1.29551426898,0.964449988853,0.185379865186
1421851254933308877,-1.2702740066,0.969452415185,0.185420365306
1421851254964883961,-1.25339960727,0.972863331376,0.185070591307
1421851254984538502,-1.22033178141,0.97958730372,0.184349215789
1421851255101079587,-1.10415935787,1.0011490971,0.182383907774
1421851255110605670,-1.0817237156,1.00464865419,0.18199542821
1421851255164613171,-1.02831921647,1.01636653985,0.180566209521
1421851255203602129,-0.982166002968,1.02249714975,0.180530925579
1421851255275940504,-0.96928409068,1.0255073425,0.180654213123
1421851255276060254,-0.934078954645,1.03137419277,0.181738210794
1421851255415435004,-0.910159308426,1.03436049732,0.18220878247
1421851255415572795,-0.89055863105,1.03868499432,0.182079536256
1421851255415981837,-0.824219783013,1.04866701074,0.181780528528
1421851255416119420,-0.805024436397,1.05036219675,0.181994190078
1421851255598841254,-0.779278806658,1.05598429628,0.181465686551
1421851255599238879,-0.758229225129,1.05746826254,0.181825958499
1421851255599636837,-0.74361593141,1.05944385142,0.182029365984
1421851255599990129,-0.70752746677,1.06346436374,0.18256190951
1421851255690891087,-0.688367501201,1.06446095642,0.183327654454
1421851255691332754,-0.674326490628,1.06589577174,0.183684815107
1421851255691462879,-0.658471398659,1.06827744155,0.18357617662
1421851255775373796,-0.630950682258,1.07044690379,0.184441864109
1421851255775744962,-0.622036894229,1.07133934917,0.184176707018
1421851255776328421,-0.592363545804,1.07303244131,0.185260997197
1421851255776456338,-0.586237236495,1.07426665642,0.184890122375
1421851255905840546,-0.570838418063,1.07337923847,0.186507238405
1421851255930822212,-0.533839327738,1.07602651277,0.186646454397
1421851255962598129,-0.515990895112,1.07715732898,0.186388450151
1421851255980133754,-0.504235885893,1.07819233845,0.185662723214
1421851256002362213,-0.49568910205,1.07640975244,0.18685939046
1421851256014656796,-0.488511424688,1.07941963993,0.185932812231
1421851256066332171,-0.469544257163,1.07927137788,0.186073583378
1421851256102236546,-0.461438782056,1.07887093728,0.186964304708
1421851256143081129,-0.45256343082,1.07998717733,0.187152076108
1421851256168461671,-0.44384973445,1.07956043897,0.187260031129
1421851256193710837,-0.423441174067,1.08071074109,0.188174945451
1421851256231853379,-0.413698982064,1.08029401926,0.188642508703
1421851256273806504,-0.404196314946,1.0803096565,0.189138305287
1421851256274062087,-0.39670132365,1.08317599667,0.188727066005
1421851256325870087,-0.387949159963,1.08110161961,0.190117646507
1421851256349057671,-0.379253039553,1.08271266015,0.19059134727
1421851256385536129,-0.369489167885,1.08347106269,0.191079136191
1421851256495651337,-0.354001269904,1.08588917474,0.191655615074
1421851256496056296,-0.346232096582,1.08532941272,0.191930601485
1421851256496257921,-0.336802088765,1.08735387877,0.192979144434
1421851256496719713,-0.328692961383,1.08747345104,0.194015503592
1421851256587751754,-0.321409160863,1.08769087622,0.194983277007
1421851256588284213,-0.311660330098,1.08945229158,0.195916345657
1421851256588694004,-0.295594356761,1.09123660954,0.197170149714
1421851256617793629,-0.285158661107,1.09264605173,0.198238604301
1421851256635561962,-0.278475497463,1.09457633428,0.198907130119
1421851256674178504,-0.267189428058,1.09472518616,0.199723010279
1421851256685978796,-0.259035920006,1.09724322236,0.200774796082
1421851256691810296,-0.249654744269,1.09914386801,0.201247599397
1421851256729467962,-0.2414301861,1.10038867883,0.202198483941
1421851256774506337,-0.229582561535,1.1017435002,0.202897925578
1421851256825455921,-0.220009813005,1.10479391652,0.203534639116
1421851256825583921,-0.200423001542,1.10837714571,0.20449148568
1421851256860963337,-0.1903825487,1.11133131991,0.205350652251
1421851256893724379,-0.169317398785,1.11742187658,0.20525266799
1421851256922627671,-0.15971733016,1.12002544947,0.205734947777
1421851256969210671,-0.148658349307,1.12250415922,0.205885365157
1421851257001109337,-0.138178016044,1.12640819015,0.20508943963
1421851257044476879,-0.127774694961,1.12799857573,0.205766300185
1421851257096504754,-0.116910600485,1.13138625789,0.205870595702
1421851257096665171,-0.0961902364691,1.13755654251,0.206115474189
1421851257208154088,-0.0856935164979,1.14119888504,0.206053963471
1421851257208315046,-0.0656610975906,1.1469265984,0.204898775055
1421851257208444754,-0.0558422737383,1.14892374197,0.2047399059
1421851257300946837,-0.0446338672856,1.15406596067,0.204088179702
1421851257301410921,-0.0337819153205,1.15889422091,0.203044875711
1421851257301852713,-0.01517677055,1.16475376068,0.201748156472
1421851257486877296,0.00529997731593,1.17122473659,0.200609767005
1421851257487257546,0.0175919605036,1.17593696986,0.200233283184
1421851257487599879,0.0278659574787,1.17958801452,0.199232917449
1421851257487913254,0.0381191546928,1.1832901299,0.198875773866
1421851257488274213,0.0619243911785,1.19123332875,0.197795526235
1421851257648535171,0.0717559879628,1.19633345809,0.197256650908
1421851257648951421,0.0823805911998,1.19950012425,0.19647440462
1421851257649363879,0.0937156479765,1.2013437782,0.196751723248
1421851257649724171,0.106311843987,1.20622750018,0.195885724339
1421851257650136296,0.118503649502,1.21318942777,0.19492423771
1421851257775008296,0.127701662661,1.21532549177,0.195120011358
1421851257775389838,0.150566908418,1.22216925859,0.194860406366
1421851257775923046,0.184089044323,1.23114176338,0.195475783279
1421851257776463213,0.194319222709,1.23640918159,0.194924833624
1421851257890221921,0.20160090316,1.23695513724,0.195814830777
1421851257890591713,0.212048036088,1.24171576571,0.195814860951
1421851257891003879,0.223607465476,1.24361122349,0.197247447963
1421851257892188379,0.23376061114,1.24746121657,0.19772417247
1421851257949061879,0.255760986679,1.25310596037,0.198771508834
1421851257949510171,0.266749666897,1.25570298552,0.199268663578
1421851257974900713,0.279134639993,1.25854049427,0.199636858432
1421851258026407879,0.289761917772,1.263004561,0.200273855218
1421851258052769171,0.300410827961,1.26505350606,0.201414333148
1421851258073086129,0.309530418147,1.26735670118,0.201772976789
1421851258105089171,0.320734843403,1.27146226629,0.20245931047
1421851258120138004,0.332283950414,1.27383663148,0.203338245263
1421851258130740504,0.352271661982,1.27813887997,0.205560677464
1421851258204969213,0.36549060863,1.28012130107,0.206496796814
1421851258250487921,0.375681279196,1.28269359971,0.20753440072
1421851258251036129,0.394539979129,1.28771826196,0.209394700154
1421851258323123046,0.404617992326,1.28812465003,0.210645676122
1421851258369153546,0.415830191174,1.2907311018,0.211933679294
1421851258369534921,0.446016995207,1.29526142402,0.214748867005
1421851258435137838,0.45744442296,1.29855630898,0.215347801563
1421851258435265421,0.468411929595,1.29941432663,0.21601164631
1421851258470957713,0.488045309363,1.30480151136,0.217054789381
1421851258620233713,0.49640148164,1.30449970466,0.217989496568
1421851258620601921,0.509114493495,1.30604696584,0.219493594062
1421851258620956504,0.518288626194,1.30866876621,0.21984084349
1421851258621386004,0.538967243078,1.30917040368,0.221855456307
1421851258727154004,0.549846459557,1.31179747165,0.222353650529
1421851258727509421,0.560439189952,1.31388361358,0.222672665294
1421851258727705838,0.572505163469,1.31401928995,0.223555230903
1421851258727837963,0.591169039975,1.31303408556,0.225412569925
1421851258756015213,0.603418495736,1.3157395382,0.225987104364
1421851258756126004,0.61235097613,1.31568596401,0.22670485907
1421851258788315004,0.621130706344,1.31734893798,0.226841803597
1421851258888226879,0.631474963362,1.31793473031,0.227062011755
1421851258888639838,0.641397799101,1.31819147721,0.228540401049
1421851258889077338,0.649661614648,1.31926071288,0.228864682186
1421851258911771588,0.659645412109,1.31744931475,0.229790325218
1421851258942023088,0.673668057399,1.3193530885,0.230050818509
1421851258957437754,0.681077861311,1.32110436096,0.230064828644
1421851259064215921,0.692549884335,1.31930354446,0.230766685496
1421851259064703588,0.703261785382,1.32048514182,0.230894219553
1421851259065093296,0.712794403418,1.32268078007,0.230603368868
1421851259065465046,0.722617026302,1.32106208698,0.231638219963
1421851259195854088,0.741047526514,1.32184234168,0.232400125439
1421851259196374546,0.760484273664,1.3238089393,0.233475149435
1421851259300858339,0.776747556954,1.32360661082,0.234160088909
1421851259301608215,0.786081038892,1.3238922769,0.234680586638
1421851259302082590,0.795255059956,1.32464401562,0.23484775795
1421851259302474840,0.803859741175,1.32712986152,0.234155880838
1421851259303279089,0.819753626428,1.32785097184,0.234913381326
1421851259400265756,0.83730929798,1.327520639,0.235710252693
1421851259728532048,0.846262125561,1.32860070111,0.235257599621
1421851259728955923,0.862625928195,1.3288781049,0.235684800835
1421851259729356339,0.871937143178,1.33150408414,0.235231211749
1421851259729753589,0.887419870479,1.33080745743,0.23572497767
1421851259729902881,0.893228292696,1.3311387149,0.23584588527
1421851259730020631,0.901244742531,1.33245113627,0.235880102603
1421851259730472214,0.906568595083,1.33456765457,0.23601484299
1421851259730619006,0.917475367505,1.33453327433,0.236729039461
1421851259731008214,0.930023899372,1.3371051732,0.237115798132
1421851259731123006,0.935066565472,1.336859613,0.237399360423
1421851260105060798,0.940750215769,1.33924875671,0.23740661187
1421851260105454756,0.945840302628,1.33900558194,0.238024985401
1421851260105832798,0.95359377384,1.34128114282,0.23913705031
1421851260106290798,0.96101723782,1.34388232798,0.240614265435
1421851260106666340,0.963988597089,1.34608768468,0.241216100992
1421851260106982423,0.965751718146,1.3469938331,0.242244783631
1421851260107494465,0.969736582044,1.34723231443,0.242613852489
1421851260107860923,0.97725368903,1.35399721551,0.246955213093
1421851260108237173,0.980125869596,1.35452362381,0.247234290699
1421851260108667756,0.981349154342,1.35793551589,0.247894777517
1421851260204753839,0.9822653768,1.35846083529,0.250195175462
1421851260204885048,0.983070001455,1.3596063446,0.251237656114
1421851260293809298,0.983940988506,1.36404858256,0.252617928289
1421851260294307756,0.982718795576,1.36702238548,0.254755003447
1421851260294913423,0.981448146619,1.36726537076,0.255967180018
1421851260342620548,0.981334104387,1.36839842363,0.256081619578
1421851260358169881,0.98059408047,1.36935209744,0.257222603877
1421851260399142506,0.977894833732,1.37249061804,0.259261613246
1421851260428022590,0.975039777872,1.3733911471,0.260104021807
1421851260428453465,0.973829495863,1.37524283388,0.259783183188
1421851260472945423,0.97239859011,1.37618927984,0.26129865139
1421851260512319715,0.968929867011,1.37701034468,0.262106459033
1421851260547623173,0.967282172837,1.37731898685,0.263111775246
1421851260548078090,0.963168815469,1.37831639139,0.263423810588
1421851260565446714,0.960878872443,1.37999055826,0.264409851149
1421851260592445090,0.957683902216,1.37957072615,0.265451282917
1421851260613510631,0.954728850754,1.38108233266,0.265453068795
1421851260658289048,0.950206991517,1.3797369136,0.267178994843
1421851260732888131,0.945471388228,1.37918231707,0.268983687241
1421851260733032506,0.933241618223,1.38059578117,0.27191058233
1421851260776109381,0.927739045817,1.3804226304,0.272628549554
1421851260887973506,0.906439067551,1.37762872152,0.2786186846
1421851260926454965,0.899906363385,1.37706878435,0.279587473859
1421851260989537089,0.891364214937,1.37394073898,0.282881419089
1421851260989974006,0.883428820477,1.3733689361,0.284497190406
1421851261034569881,0.877907289786,1.37311296818,0.285131355587
1421851261035017381,0.871273885373,1.37012158216,0.287287697375
1421851261050240756,0.864722415268,1.3698703031,0.288537492002
1421851261081672173,0.857589286018,1.36696346714,0.290600833588
1421851261097476340,0.850304105456,1.36681987743,0.291440768271
1421851261142666131,0.844226820714,1.36363018093,0.292955587026
1421851261143821923,0.82876837249,1.36164734906,0.292486673055
1421851261218842631,0.819836875624,1.35845224153,0.291557899244
1421851261250927256,0.814147283915,1.35599705357,0.28993808814
1421851261266848173,0.797858386948,1.35013894297,0.285432277554
1421851261313694715,0.790519889881,1.34769933117,0.281876320265
1421851261373268340,0.782961520297,1.3460845181,0.276294101663
1421851261383732173,0.767950469953,1.34185899462,0.265954593914
1421851261401811423,0.761888350901,1.33943829351,0.259502633625
1421851261532384715,0.75388624897,1.33594749896,0.253207735648
1421851261532560923,0.739434561523,1.33081807492,0.239314775792
1421851261532697590,0.731323000765,1.32878387815,0.232120471582
1421851261532811923,0.722863235841,1.32437628316,0.225790758265
1421851261577344340,0.716438469071,1.32124311003,0.218964299972
1421851261611518923,0.697989426799,1.31503269068,0.206285757689
1421851261636557298,0.691406366388,1.31152919836,0.200459953981
1421851261653939381,0.682084647101,1.31125654031,0.193315297191
1421851261809060715,0.628894800097,1.29192743712,0.165080813623
1421851261809523506,0.622098460979,1.28946290499,0.161653168435
1421851261902071715,0.613640119665,1.28927634879,0.157594177234
1421851261902458090,0.603481838183,1.284293551,0.155079233849
1421851261902873423,0.587953201557,1.27632252873,0.149881645884
1421851261987903631,0.577710473233,1.27408764226,0.147277727862
1421851261988249881,0.569032983319,1.27001636194,0.14582776434
1421851262040818840,0.558911364922,1.26665729071,0.143241048608
1421851262041299715,0.549883501879,1.26329135785,0.141919387594
1421851262055947340,0.529341706597,1.25812073761,0.139632654895
1421851262115081798,0.513137088242,1.25297122635,0.137405757117
1421851262127728673,0.503336919204,1.25114862667,0.136903912257
1421851262244000881,0.469768884957,1.24083774804,0.137825774028
1421851262265275548,0.462782542753,1.2375060772,0.1378642477
1421851262397504215,0.437255096378,1.2331633033,0.139361956971
1421851262397998298,0.410646542012,1.22560100828,0.142030376067
1421851262410820298,0.404439465804,1.22346728035,0.14316102323
1421851262465435715,0.396648007977,1.22271419648,0.143917255902
1421851262512110006,0.38757986571,1.21967119238,0.145724473501
1421851262524459215,0.379291507724,1.219315702,0.146547177464
1421851262584059965,0.370328124214,1.21711759951,0.148351534308
1421851262596160881,0.353973317064,1.21279728387,0.15099428367
1421851262638493631,0.336957317963,1.21174015609,0.15432531921
1421851262650149131,0.3213815695,1.20768082703,0.15677851015
1421851262692259965,0.313500102036,1.20724706319,0.158154553813
1421851262747428798,0.297830123483,1.20499609642,0.160464258726
1421851262774793298,0.288561675916,1.2040177194,0.161468049924
1421851262789761798,0.280931741502,1.20095332417,0.16347114881
1421851262831829506,0.27383759007,1.20076725802,0.164466401858
1421851262857758590,0.262402459522,1.2000555682,0.165286875394
1421851262890510381,0.253597455206,1.19913617697,0.16629279388
1421851262913094048,0.246443741916,1.19624997952,0.168044907519
1421851262949763131,0.240215734767,1.19684925351,0.16865652597
1421851262950392048,0.229869522395,1.19581575503,0.170022385744
1421851263035555298,0.223319830739,1.19355461498,0.170895370056
1421851263035739923,0.215115741182,1.19176357065,0.171677009168
1421851263036151715,0.208796035219,1.18990767062,0.172329446499
1421851263120088840,0.192958630145,1.18871413015,0.173667780465
1421851263120658673,0.185442156226,1.18890991408,0.1739112054
1421851263121138548,0.179617760143,1.18595228121,0.175013700159
1421851263290481340,0.172975669889,1.18487331838,0.175596646396
1421851263290857465,0.16409941714,1.18463419465,0.176488822659
1421851263290994506,0.155866330163,1.1830341908,0.176506485713
1421851263291200131,0.14094924271,1.1811509922,0.17698673594
1421851263291709215,0.134694959219,1.17918353598,0.177744202361
1421851263334449548,0.126886396368,1.17723451116,0.178066090274
1421851263334886965,0.118623707366,1.17592822195,0.178326033815
1421851263366722673,0.111002907649,1.17338334863,0.178505003741
1421851263374169881,0.104631470674,1.17249955734,0.17853651148
1421851263435681174,0.0962678270143,1.16877863551,0.179393143394
1421851263480709591,0.0871428035292,1.17014198194,0.178577608172
1421851263502646008,0.0808488700538,1.16734776936,0.178891096312
1421851263503043008,0.0677754028371,1.16201347501,0.17949609564
1421851263535406966,0.0529867480231,1.15979371934,0.17950788987
1421851263569879591,0.0448109797358,1.15718469887,0.179355108947
1421851263615005258,0.0394592804175,1.15517361033,0.179812776986
1421851263655123175,0.031323450112,1.15350264069,0.179301174503
1421851263702196008,0.0226081949357,1.15151908235,0.179179631711
1421851263702626800,0.0142753274657,1.1481194327,0.179290037716
1421851263732935966,0.00733974806231,1.14619963718,0.178975620649
1421851263777755508,-5.97623643823e-05,1.14421305725,0.17904785837
1421851263778080800,-0.00575727142675,1.14367855382,0.178197881218
1421851263825534508,-0.0143570932716,1.14186604622,0.17749995166
1421851263826011758,-0.0207616734984,1.13984910508,0.177063213397
1421851263885921591,-0.0272359349329,1.13884969652,0.176216960082
1421851263886025716,-0.0329203419518,1.13919391108,0.175131200919
1421851263923674508,-0.0418805101746,1.13691660829,0.17443578926
1421851263924051133,-0.0478501392404,1.13583148745,0.173846925328
1421851263959561883,-0.0617115821982,1.13572759549,0.171878390763
1421851263977422342,-0.0736527310014,1.13377635388,0.169883636552
1421851264012535008,-0.0791724793155,1.13485468261,0.168630829139
1421851264095540550,-0.0868600087648,1.13571732812,0.167472546519
1421851264095750091,-0.0946175815541,1.13561586175,0.166642585072
1421851264138662300,-0.102355848452,1.1356683794,0.165742505474
1421851264160016800,-0.113361407461,1.1399706525,0.163604442256
1421851264207063175,-0.1214313953,1.14061008382,0.162662435416
1421851264207484467,-0.126216883603,1.14344005205,0.161314975753
1421851264235399800,-0.133121310113,1.14477343438,0.160279689766
1421851264280500341,-0.137790023673,1.14638173721,0.159267900559
1421851264280959300,-0.145729338344,1.15037439395,0.157296798427
1421851264314039550,-0.152170086054,1.1526723881,0.155916844576
1421851264314435383,-0.157081702561,1.15556163519,0.154783840515
1421851264344651175,-0.160727679503,1.16002375691,0.153126705697
1421851264365140050,-0.166776633018,1.16214252046,0.151720482736
1421851264381570467,-0.173217581587,1.16875219045,0.149670374087
1421851264418101092,-0.176966600213,1.17239808149,0.148588360829
1421851264440401216,-0.18277132832,1.17631097454,0.147116723825
1421851264473316800,-0.187392739819,1.18128586686,0.145872679113
1421851264473928925,-0.191303155986,1.18475329031,0.144908688963
1421851264617780508,-0.193946548497,1.1911357094,0.143614556618
1421851264618334342,-0.198252741314,1.19648700305,0.142770640691
1421851264618467925,-0.210414185502,1.20761437739,0.140320556022
1421851264701492300,-0.213427234853,1.21319980032,0.139446306556
1421851264810943508,-0.218265015089,1.2185814879,0.138810523921
1421851264811397175,-0.225001858725,1.2299714546,0.137640269642
1421851264811716508,-0.23010443076,1.24489210889,0.136662818957
1421851264812183383,-0.235242364925,1.25008233786,0.136847233202
1421851264813107092,-0.240717261642,1.26462643231,0.137202403477
1421851264889677841,-0.24173057987,1.27174989417,0.137869429287
1421851264889816216,-0.244250787159,1.28069274614,0.137211875606
1421851264890238633,-0.248250312664,1.28812347771,0.137719139005
1421851264919209300,-0.251161944757,1.29697339977,0.137430325588
1421851264979856675,-0.2523775651,1.30585201343,0.136557983395
1421851265013465342,-0.254009455271,1.31245665217,0.137062049995
1421851265014046175,-0.258235643799,1.33133885484,0.136014815164
1421851265062003967,-0.259541648825,1.33958588717,0.135952740441
1421851265062637050,-0.26056766439,1.34780948387,0.136355838923
1421851265106837008,-0.261269931414,1.35695872984,0.136995380862
1421851265187107175,-0.263652179271,1.36665027727,0.137267766082
1421851265202622383,-0.272205223179,1.39281435552,0.139794825602
1421851265464926300,-0.272988755687,1.40273480412,0.139801241113
1421851265465339050,-0.280490010438,1.42876007685,0.143896990493
1421851265465747175,-0.282466409792,1.43826468246,0.144896049968
1421851265466099716,-0.284412076605,1.44764829644,0.146466016785
1421851265466505675,-0.286642746914,1.45771123738,0.14777646294
1421851265466881508,-0.289980669049,1.46405833123,0.149917103551
1421851265467387175,-0.292453551785,1.47408353694,0.151552605142
1421851265467779925,-0.293692471178,1.48379679455,0.153129356513
1421851265561258175,-0.298308241302,1.49332083244,0.154482251581
1421851265600884883,-0.305379821337,1.52131987525,0.160009878021
1421851265679436258,-0.311147985096,1.54094794678,0.163285342209
1421851265679856550,-0.32284392564,1.57617424237,0.169756675892
1421851265712658383,-0.323693200761,1.58610175563,0.170512959503
1421851265738340633,-0.327022261167,1.59304420909,0.172490211395
1421851265783213883,-0.329256302382,1.60204217412,0.173655846504
1421851265903811717,-0.334098043179,1.61118757552,0.174993096999
1421851265904193967,-0.333439222309,1.6194890469,0.176155886076
1421851265904544925,-0.339165181043,1.63681261382,0.177571991611
1421851265904978175,-0.343360429629,1.64589136261,0.177775862739
1421851265953954592,-0.34470290181,1.65501240317,0.178239750451
1421851265984546633,-0.347893704661,1.66514143738,0.178462591804
1421851265984985717,-0.354910056298,1.68088955545,0.179754722233
1421851266036837300,-0.3573748291,1.68906503947,0.180200157706
1421851266051016342,-0.360943169978,1.70555765194,0.181712405772
1421851266102670717,-0.366988774109,1.71997636381,0.18285951979
1421851266167117967,-0.366287630427,1.72756217588,0.183805813691
1421851266250943217,-0.375605075304,1.74080156451,0.185918346698
1421851266251075342,-0.379307784506,1.75627394293,0.186939562067
1421851266287185008,-0.385278158668,1.761737256,0.188269567531
1421851266320896633,-0.385308876106,1.76756501538,0.189802184531
1421851266355593383,-0.387716637259,1.77552880924,0.190398657164
1421851266356044883,-0.393526725637,1.79075781115,0.191900017428
1421851266388409508,-0.394986181137,1.79757192867,0.193103229085
1421851266552645633,-0.399255105216,1.80448612533,0.193766841777
1421851266553037342,-0.405052650593,1.81902434638,0.196538212208
1421851266553997133,-0.411643336973,1.83362389443,0.198091420376
1421851266554442217,-0.413879354511,1.84139869306,0.199364629976
1421851266747707967,-0.417160845144,1.84975108672,0.200307271476
1421851266747895967,-0.418535438207,1.85632558827,0.201808974587
1421851266748280300,-0.422354935692,1.86492474789,0.202660208435
1421851266748417508,-0.424530598947,1.87175595458,0.204090897977
1421851266748533300,-0.428755231375,1.87740207255,0.206000452204
1421851266833255133,-0.435975698963,1.90064248238,0.209150474899
1421851266833673217,-0.446211756121,1.92524186036,0.211834814836
1421851266919749092,-0.449171134118,1.93152281217,0.213762354782
1421851266920175925,-0.451172936245,1.93896620978,0.21468235008
1421851266994406050,-0.454105590421,1.94723349572,0.215987973338
1421851266994818800,-0.462917623059,1.9734196122,0.21844047649
1421851267053041550,-0.470109806731,1.99061669343,0.220239366988
1421851267109657592,-0.468302036789,1.99986260205,0.220804076391
1421851267110132175,-0.471224821368,2.00880036065,0.220782961492
1421851267153583175,-0.47615658405,2.01831453413,0.220442301486
1421851267153992800,-0.481624234781,2.03473688307,0.220834042015
1421851267227137425,-0.485708165427,2.04584906953,0.220431805024
1421851267227554217,-0.487497029185,2.05640913593,0.219701789611
1421851267238086383,-0.493430281814,2.07676362443,0.218986546708
1421851267274398550,-0.498008166538,2.0852861364,0.219213195493
1421851267284810717,-0.501702524735,2.09364370914,0.219496573617
1421851267317999175,-0.506902984568,2.10414891006,0.218915932682
1421851267398281300,-0.515452508132,2.12510837057,0.217995058575
1421851267398771217,-0.517570651898,2.1356349593,0.217012426031
1421851267463778217,-0.520988472668,2.14682293739,0.216651891268
1421851267464191675,-0.527186267497,2.16548741803,0.215402668635
1421851267530832967,-0.53121872377,2.17583316062,0.214831450647
1421851267531243217,-0.537734324625,2.19560320929,0.213624552634
1421851267599034633,-0.54294269225,2.20671891593,0.211852731358
1421851267599475008,-0.545571405298,2.21458835931,0.211571339208
1421851267707197927,-0.549114333024,2.22216057923,0.211278119419
1421851267764727927,-0.551840288374,2.23431116548,0.209570049407
1421851267770932676,-0.559151998213,2.25345187376,0.20774777296
1421851267933799927,-0.563124963557,2.26363857099,0.206725011851
1421851267933935260,-0.564043979199,2.2744666676,0.205721867246
1421851267934304302,-0.579833407384,2.31614907287,0.203569320301
1421851267934438218,-0.581869340266,2.3275565112,0.20248195261
1421851268025805135,-0.580512395369,2.33744448962,0.200649623985
1421851268025927426,-0.584799892336,2.35914324956,0.199357622019
1421851268110109843,-0.592359328049,2.38594831677,0.197391788902
1421851268110523218,-0.597980249356,2.42018380079,0.19358862477
1421851268158804177,-0.601479053989,2.4437995194,0.191236086189
1421851268176310302,-0.603833343,2.46790867176,0.188639904616
1421851268228095885,-0.607046909563,2.49177517353,0.186522650794
1421851268253115218,-0.608493838906,2.50443664404,0.185737410494
1421851268290706843,-0.609992043025,2.51661621189,0.184427034391
1421851268338843510,-0.610393581096,2.52755255459,0.183401667283
1421851268340442968,-0.611268729587,2.54027063477,0.182134267892
1421851268405236927,-0.612439131302,2.5520963196,0.180892344617
1421851268405661677,-0.612837310741,2.55878936215,0.180110352874
1421851268441442635,-0.61660579382,2.56978178043,0.179762415561
1421851268479302760,-0.619538727868,2.5909466195,0.179048441427
1421851268510352385,-0.618111216511,2.60591340375,0.177379952559
1421851268561252052,-0.616674299386,2.61544553365,0.176803156586
1421851268599002843,-0.620641822981,2.62278882082,0.177236197133
1421851268630711468,-0.620935974043,2.65444202687,0.174549784856
1421851268673644635,-0.61739886733,2.67317198295,0.172658394734
1421851268712770969,-0.621270066323,2.6879338884,0.170698956198
1421851268713167219,-0.619420529277,2.70996889716,0.16799730835
1421851268831592844,-0.619947984711,2.72033801787,0.165766952984
1421851268831736260,-0.618331556154,2.74826981656,0.161080336554
1421851268832594344,-0.619666803848,2.75550702734,0.159880166294
1421851268867429344,-0.619222420149,2.76852822108,0.156771990496
1421851268947729302,-0.624044252486,2.77619992037,0.15425962118
1421851268947864802,-0.622223120773,2.78654256265,0.151565077954
1421851268948332094,-0.625465598851,2.7992743286,0.146216299287
1421851269122899094,-0.628228767895,2.80409928439,0.143662897529
1421851269124408718,-0.625148617593,2.81209661774,0.139956816297
1421851269124746802,-0.626516580288,2.81955475494,0.137062656766
1421851269125254802,-0.627739987692,2.84512600231,0.133134975883
1421851269382260969,-0.636909218726,2.87480774496,0.123572922459
1421851269382646302,-0.635017851649,2.88726706255,0.120464626501
1421851269383021635,-0.635685888154,2.90327400202,0.11664183448
1421851269383429510,-0.639776830252,2.90908948353,0.114988854088
1421851269383861969,-0.64296453914,2.91276770666,0.111791564133
1421851269384337260,-0.645300660184,2.92008071193,0.108999790651
1421851269489050760,-0.650255585711,2.96102009196,0.0934635195255
1421851269489500510,-0.649241333268,2.99666121794,0.0855288747936
1421851269528657510,-0.647811009204,3.00622222335,0.0825213281212
1421851269529100094,-0.649296561344,3.01336209285,0.080341007011
1421851269583787552,-0.650433318418,3.01979715011,0.0784237891294
1421851269583920177,-0.650208159409,3.02570962388,0.0759448648913
1421851269645206177,-0.650461326953,3.03176457508,0.0744620483321
1421851269645546677,-0.652079493765,3.03921469486,0.0716503492788
1421851269698975802,-0.651743954725,3.04448116772,0.0694268888085
1421851269746736344,-0.652675192045,3.04776004432,0.0676564761364
1421851269747062094,-0.651481807592,3.05055478419,0.066198173545
1421851269814397302,-0.648441350323,3.05518094316,0.063808299426
1421851269814761594,-0.649198041108,3.05852216514,0.061540575305
1421851269814987469,-0.647295462986,3.06062168175,0.0606483898812
1421851269872440844,-0.649839919114,3.06387941576,0.058413731793
1421851269912149177,-0.646236887143,3.06429516176,0.05721818074
1421851269912701385,-0.646156766136,3.06493666629,0.0559372509164
1421851269968184302,-0.64687399251,3.06322671171,0.0558852870327
1421851269981643219,-0.64346969218,3.05925731326,0.0539098454035
1421851270039819469,-0.64069761943,3.0586387673,0.0526067465205
1421851270049488719,-0.639287518426,3.05476522709,0.0518138285615
1421851270074136219,-0.63912293427,3.04276484347,0.0521410481986
1421851270119728552,-0.636370427312,3.0387659661,0.0511965120503
1421851270138282635,-0.638749553669,3.02901837855,0.0518134868254
1421851270209783469,-0.637056540356,3.024309519,0.051634608689
1421851270244107510,-0.636340509979,3.01911293306,0.0515449311464
1421851270282441260,-0.637841542184,3.00684192921,0.0522287322951
1421851270317180177,-0.638574598592,2.99640470337,0.0523919064162
1421851270376390885,-0.644168318764,2.94204402519,0.0574645083351
1421851270408307802,-0.644699951568,2.93578798491,0.0590280462299
1421851270539086635,-0.648545821258,2.92377522555,0.060639168579
1421851270539435302,-0.650732567095,2.91811668227,0.0614799701035
1421851270706513885,-0.652101135703,2.90311633946,0.0642183122516
1421851270706851177,-0.658404077351,2.88404470693,0.068444636377
1421851270707356719,-0.658618196256,2.87369690791,0.0705453962424
1421851270708669177,-0.661126007343,2.86256887633,0.0731881632662
1421851270709246594,-0.662715633786,2.8531570256,0.0755092730773
1421851270709660094,-0.668524707633,2.83324171871,0.0805684180472
1421851270946980177,-0.671937919473,2.82438340367,0.0825707295392
1421851270947100719,-0.674329815626,2.81695523998,0.0845246152504
1421851270947219885,-0.675353172741,2.80559295255,0.0878414078477
1421851270947338344,-0.681971807384,2.78837960329,0.092305270049
1421851270947687094,-0.684348151156,2.78105949801,0.0942705786536
1421851270947819635,-0.691249747907,2.76396980114,0.0998682887822
1421851271217721260,-0.704043362077,2.73671542316,0.108329379519
1421851271218101344,-0.708285743494,2.72961055337,0.11060729778
1421851271218447219,-0.715318131489,2.71215829185,0.11630645448
1421851271218795719,-0.718701014558,2.70865009014,0.117590847787
1421851271219165927,-0.726748740047,2.69376743554,0.122681499295
1421851271219616302,-0.733805136433,2.67976261605,0.127832408546
1421851271220033677,-0.740856164341,2.6659461067,0.13202492678
1421851271353052094,-0.744764379318,2.65917003442,0.134310783367
1421851271353402719,-0.745629238415,2.65482314915,0.135014967992
1421851271353787719,-0.749121689261,2.64817847919,0.136411933747
1421851271354218719,-0.751794167566,2.64359175822,0.137369691973
1421851271420774677,-0.752663894386,2.63840082767,0.138304297766
1421851271421216010,-0.756959681013,2.63240985663,0.139554729891
1421851271452346135,-0.759318428928,2.62307724025,0.140724623267
1421851271452463344,-0.762852538395,2.61448866633,0.141506673723
1421851271465756302,-0.764225698747,2.60932554725,0.141843217976
1421851271525379677,-0.764053280989,2.60639110513,0.141622006397
1421851271525658052,-0.766162869383,2.60471937599,0.140545366713
1421851271571080510,-0.766496059472,2.59938468356,0.139849546145
1421851271608785427,-0.767039881735,2.59575280328,0.139574393873
1421851271609196594,-0.765840223079,2.59217327233,0.138531502501
1421851271648765177,-0.767410356905,2.58748776972,0.13752082086
1421851271664916427,-0.768560342796,2.58712247577,0.135342067087
1421851271688211885,-0.765062441645,2.57898850987,0.133526845442
1421851271722244594,-0.766078710417,2.57432491933,0.132448945476
1421851271767554802,-0.76097977646,2.5740799903,0.1297250712
1421851271836076387,-0.761724866438,2.56745855699,0.128396011233
1421851271836873929,-0.755353504099,2.56586407639,0.126745175776
1421851271903176512,-0.755279609911,2.56031038316,0.125483841809
1421851271946559387,-0.753262717364,2.55957681647,0.123047144686
1421851271984240387,-0.747918245896,2.55762353013,0.120770086868
1421851271985035804,-0.743228066212,2.5472630706,0.117483278653
1421851272128843804,-0.732095852459,2.54230629909,0.112458540233
1421851272129277720,-0.720548824426,2.50662426971,0.106483343347
1421851272129706762,-0.713295139234,2.50723099317,0.102074150263
1421851272190266220,-0.706234561283,2.50392874155,0.0996716485179
1421851272260906345,-0.7041461141,2.47752221631,0.0999329658469
1421851272261344054,-0.692943250842,2.46351217541,0.0969460933191
1421851272323912429,-0.684151082594,2.45034894992,0.0944863480264
1421851272430752220,-0.674893735134,2.43451063878,0.0922804214297
1421851272431222971,-0.671030505525,2.42913847924,0.0909705108362
1421851272431671637,-0.660594568328,2.41770957876,0.0883970099298
1421851272554742054,-0.653867120138,2.42467872776,0.0861353886689
1421851272555178595,-0.651230209838,2.41703167102,0.0853246462932
1421851272637872637,-0.648218100625,2.40136358006,0.0845908371384
1421851272638351179,-0.638011923956,2.37388091911,0.0837562006702
1421851272638734262,-0.633703055679,2.36584152183,0.0829829689105
1421851272639168554,-0.632058330699,2.3533098227,0.0836396069539
1421851272676211596,-0.628415014098,2.34237292095,0.0834555703041
1421851272693955345,-0.626835288509,2.33306904589,0.0826676887031
1421851272751041512,-0.624658323693,2.30265937075,0.0845627998526
1421851272762492596,-0.621350331835,2.30459642632,0.0813935896747
1421851272823396887,-0.61432566514,2.29652136127,0.0805943167282
1421851272824264429,-0.613319406264,2.28274262465,0.0813599714708
1421851272873680929,-0.613302701008,2.27259200548,0.0817162086131
1421851272923447262,-0.614021044275,2.25543622948,0.0829666420412
1421851272923831054,-0.610611756685,2.24633989753,0.0828846869408
1421851272949218637,-0.611530225443,2.23462891295,0.0830258659065
1421851272963537262,-0.609048402229,2.22448819043,0.0831314237464
1421851273010712845,-0.60490476794,2.20953588932,0.0813672694305
1421851273018289054,-0.603909212407,2.19666485639,0.0812395615336
1421851273053724679,-0.604554308534,2.18030442926,0.0818490240788
1421851273064901554,-0.603837931594,2.17096356678,0.081145053861
1421851273077650596,-0.604438533078,2.15587230469,0.0812904840298
1421851273097743512,-0.600541800827,2.14255515359,0.0804596659623
1421851273134066929,-0.601609106994,2.1314372316,0.0803506169027
1421851273179412512,-0.603404719639,2.12136734296,0.0803289350846
1421851273184933095,-0.601525791634,2.1096085434,0.0791634984817
1421851273244049762,-0.604158600958,2.09660453264,0.0789918363355
1421851273258073179,-0.604753260602,2.08231756992,0.0795242657986
1421851273311478929,-0.601427765987,2.06920103983,0.0795241271638
1421851273312038679,-0.604299959622,2.04188309956,0.0796925391988
1421851273345506262,-0.602586597511,2.02819305582,0.0795437912196
1421851273384931679,-0.601783811739,2.01426211767,0.0793027501372
1421851273418498887,-0.603582710399,2.00145727187,0.0785610700675
1421851273438180512,-0.603079993495,1.97318640974,0.0778893417593
1421851273471222846,-0.603040383202,1.96065846335,0.0767426569285
1421851273488093929,-0.602052724539,1.94597162544,0.0766091435868
1421851273517854846,-0.602166853983,1.93236697373,0.0761097247462
1421851273568194929,-0.599709127263,1.90329487081,0.0750721332406
1421851273587862096,-0.60048644702,1.88994780493,0.0745758829057
1421851273607032512,-0.599521343787,1.87615053655,0.0740390994769
1421851273647203596,-0.598599836713,1.85940638171,0.0743060330162
1421851273698516346,-0.597570782249,1.84648397294,0.0737775558713
1421851273758624762,-0.595431314788,1.8156179769,0.0728342040275
1421851273758732804,-0.593218472702,1.79051349827,0.0706867901232
1421851273799677221,-0.591908001221,1.77617960584,0.0693205415077
1421851273860054804,-0.591045557649,1.75809494773,0.0693199013207
1421851273860439137,-0.590525951946,1.74550256275,0.0686817579766
1421851273924894554,-0.587399327595,1.72984204073,0.0672798115539
1421851273925293679,-0.58585882379,1.71135935656,0.0671945457814
1421851273990619845,-0.583305216353,1.67430141035,0.0666322110907
1421851273990853262,-0.583669276769,1.65690385489,0.0671331012078
1421851273991004054,-0.583580764461,1.64261807946,0.0659069281922
1421851274058464179,-0.57905118159,1.61471753731,0.0637989420962
1421851274058923762,-0.574404520191,1.6047179165,0.0619751752664
1421851274218186596,-0.568722282442,1.56607353648,0.0607863709356
1421851274219062221,-0.564548486557,1.47505836333,0.0624114192342
1421851274237827887,-0.560838816401,1.45627556437,0.0614954267753
1421851274272061387,-0.558651550773,1.43671367908,0.0615786205382
1421851274315077887,-0.557825770307,1.41989399964,0.0610058348239
1421851274347868096,-0.554634411514,1.40420311129,0.0596969758863
1421851274364145304,-0.550624553042,1.38547358235,0.05635800159
1421851274420353137,-0.54725463803,1.360161306,0.0569919185993
1421851274542336054,-0.542603077947,1.32847572518,0.057853882909
1421851274544171804,-0.539307036506,1.26375415313,0.0629017854715
1421851274544317762,-0.535514817733,1.22691702684,0.0632297644386
1421851274544451804,-0.532803898936,1.2021001908,0.0649891052114
1421851274610112929,-0.530079829804,1.18404800875,0.0649311892582
1421851274610556762,-0.53037150824,1.16093248071,0.0660487559368
1421851274674233596,-0.526709160208,1.11879257751,0.0676228201266
1421851274754979804,-0.527972652419,1.09856245158,0.0685411123054
1421851274755423221,-0.527271579401,1.07601013167,0.0696631681432
1421851274755847304,-0.525139618098,1.05441412486,0.0714686214919
1421851274829510887,-0.523629383363,1.03008834828,0.07380047186
1421851274829884387,-0.523132729148,1.00813087505,0.0757527709349
1421851274830305346,-0.523713550884,0.985695865996,0.0775286955653
1421851274877657512,-0.522084580272,0.943860789428,0.0796685827518
1421851274887330721,-0.523621017097,0.901161528669,0.0822416111841
1421851274930402387,-0.525187267749,0.882720702565,0.0828713053697
1421851274979937304,-0.524897265991,0.862588910874,0.0841772869979
1421851274980181471,-0.525715356903,0.840868370093,0.085699115422
1421851275030621346,-0.524920986377,0.803875501297,0.0881769397724
1421851275071129637,-0.525297985472,0.786302040895,0.0892974777523
1421851275122204512,-0.526442454564,0.764348118023,0.0916699259753
1421851275122343221,-0.526025935577,0.747997821751,0.0928710663443
1421851275155588304,-0.527381643241,0.709386240091,0.0959689547088
1421851275189731387,-0.52644179146,0.693708029758,0.097136235239
1421851275214114387,-0.526615417225,0.674111848725,0.0989903797526
1421851275254413054,-0.526221631059,0.658847110923,0.0995918753606
1421851275273914221,-0.524809350882,0.64081651869,0.101242590535
1421851275280256846,-0.526444597087,0.624742313137,0.102429000233
1421851275343913137,-0.527038603338,0.593157689588,0.103732056171
1421851275381717887,-0.526391998609,0.558758778854,0.107902904098
1421851275419766471,-0.522139796987,0.543110051269,0.109488514556
1421851275435363846,-0.521574669864,0.528118076508,0.111054792367
1421851275446826679,-0.523334327605,0.511870122562,0.11246167603
1421851275480876887,-0.523005965413,0.49553229571,0.114338769286
1421851275531094262,-0.522949827946,0.479188129047,0.115830934284
1421851275563249137,-0.520706955255,0.447211737738,0.118928944369
1421851275563686054,-0.520758106372,0.431879947788,0.120625814898
1421851275605108304,-0.521174127686,0.414899936029,0.121852079664
1421851275638296512,-0.520191813219,0.402110744575,0.122361389899
1421851275698827471,-0.518722693482,0.370632547804,0.124610306231
1421851275756790721,-0.517524699364,0.355683125818,0.125610054763
1421851275757187554,-0.516436959616,0.343333992641,0.126018493881
1421851275788675929,-0.518172386724,0.327945783192,0.126558552241
1421851275789203137,-0.512605718992,0.297829703431,0.128037660583
1421851275827400304,-0.513138906791,0.284877059756,0.127893188062
1421851275851064512,-0.513319117085,0.271373800374,0.127819667115
1421851275869642304,-0.509864801597,0.257511540732,0.128107531836
1421851275886377262,-0.508423366963,0.242475929658,0.128707195381
1421851275908724221,-0.506899781973,0.230911306234,0.128412099312
1421851275954701304,-0.504814620111,0.214621924073,0.128955165862
1421851276059542889,-0.50416318363,0.20267455678,0.128275582454
1421851276059941056,-0.503059260662,0.190761107708,0.128308995647
1421851276060095181,-0.501817181816,0.173867241324,0.129285231119
1421851276060477222,-0.499791200336,0.160835105447,0.129070635421
1421851276118299681,-0.498316586086,0.148282634554,0.12986837795
1421851276118432764,-0.493775716038,0.119694039868,0.130237161078
1421851276144157431,-0.491800105133,0.108363476646,0.129736052038
1421851276182666889,-0.490116588091,0.0962552033781,0.129904735947
1421851276222861722,-0.48728563316,0.08308347286,0.129715510454
1421851276233591264,-0.483333209495,0.0582237916197,0.12922613481
1421851276278103972,-0.482113236288,0.0460933980395,0.129245784393
1421851276292834556,-0.480705946404,0.0345630472997,0.128938392091
1421851276327017431,-0.474622431826,0.0227282226269,0.128899799129
1421851276366319723,-0.472175935228,0.0121032623333,0.128198014568
1421851276380859472,-0.471768528295,7.11548080258e-05,0.128568089859
1421851276424615514,-0.470534112308,-0.0118268993118,0.128342613572
1421851276450091681,-0.466135880512,-0.0241955685968,0.128993522754
1421851276498973014,-0.464458387161,-0.0340873065807,0.128476182833
1421851276499109639,-0.459569424488,-0.0568504024567,0.128403655261
1421851276558702014,-0.457058411125,-0.0677578630683,0.128129674356
1421851276581374806,-0.456487928328,-0.078092393963,0.128250166735
1421851276598384931,-0.454569783253,-0.0883294587865,0.127924273169
1421851276641050222,-0.450748454327,-0.108585991869,0.127617758308
1421851276680798014,-0.451143515565,-0.11786756316,0.127446824378
1421851276710612806,-0.447060636126,-0.130513136329,0.12811057767
1421851276711047930,-0.447442781917,-0.139564869627,0.127921756605
1421851276754368222,-0.446222866062,-0.148872254794,0.127810616175
1421851276770117222,-0.442698461019,-0.168640302666,0.127642912632
1421851276824818056,-0.442172464471,-0.176293391652,0.127077200534
1421851276903272056,-0.439726162192,-0.186465885985,0.127997566109
1421851276903414014,-0.439217691314,-0.196052655405,0.128327343171
1421851276903548556,-0.437439505169,-0.204235276513,0.128493643843
1421851276989829514,-0.43676824994,-0.222770406143,0.128966255939
1421851276990244264,-0.43561858708,-0.232521448924,0.129664986097
1421851276990675056,-0.43690893323,-0.24918270511,0.130364539438
1421851277037951848,-0.436587462577,-0.257327394238,0.131066407388
1421851277154908222,-0.437396170743,-0.276301147258,0.132728407653
1421851277155321264,-0.436466922665,-0.30273274261,0.135015167333
1421851277202676848,-0.438084091154,-0.307442082773,0.135600776572
1421851277239674222,-0.439811173074,-0.313566763459,0.136353337145
1421851277295952097,-0.43986920995,-0.31912986485,0.136885301835
1421851277296356806,-0.44071272166,-0.323336963691,0.137524725323
1421851277330243681,-0.441016514073,-0.330950928242,0.138711837761
1421851277373041806,-0.443414085728,-0.335386321384,0.139828926297
1421851277384902556,-0.444879367683,-0.339944387064,0.140746973708
1421851277437117514,-0.446730615781,-0.343098761726,0.141819522733
1421851277492079889,-0.446669493836,-0.345848157732,0.142448431959
1421851277493438306,-0.446596757834,-0.348430616543,0.14385364757
1421851277494043681,-0.45094258389,-0.350400577177,0.145082675436
1421851277527847514,-0.450039476003,-0.354398320842,0.146879969811
1421851277571198098,-0.451167251111,-0.353666146426,0.147171958432
1421851277617225306,-0.45075379645,-0.356388858654,0.148297932527
1421851277618425723,-0.452421143779,-0.355503620186,0.148812327823
1421851277618949931,-0.451483151255,-0.357455121727,0.150063975165
1421851277638822431,-0.451815345454,-0.357651257323,0.151191984825
1421851277671637181,-0.450025759692,-0.357622431385,0.152076592388
1421851277709743264,-0.453326238244,-0.355583829907,0.152458896042
1421851277723198681,-0.451595854573,-0.356229420999,0.153972095303
1421851277755804597,-0.452539895295,-0.353843922175,0.154195385212
1421851277772684223,-0.450300750552,-0.353143252202,0.1558462329
1421851277796720348,-0.449072587935,-0.351255180756,0.156275065079
1421851277916597139,-0.441772822196,-0.348463167635,0.159459492718
1421851277917524931,-0.440579281809,-0.344035924299,0.161432522396
1421851277917694223,-0.437443687816,-0.341590578354,0.16300039355
1421851277996747806,-0.43279058791,-0.339399812199,0.164490748241
1421851277997186056,-0.432365972479,-0.336480767288,0.165730745635
1421851278111910598,-0.428242932103,-0.333752496359,0.167849023926
1421851278112420806,-0.427182638654,-0.331761361711,0.169568274896
1421851278112906556,-0.423531818603,-0.328393380587,0.170899875935
1421851278113346723,-0.420420368897,-0.326450900373,0.172739747999
1421851278153099556,-0.415324435934,-0.323598652665,0.17444574942
1421851278179029223,-0.416500838356,-0.320620351582,0.175064461127
1421851278212187514,-0.408885397239,-0.318076309342,0.178782733928
1421851278234768098,-0.407958233732,-0.313149923062,0.18123375579
1421851278281286306,-0.403296271555,-0.309135827458,0.183741996365
1421851278293044431,-0.405471040824,-0.307643302402,0.184152084175
1421851278342457389,-0.404146072472,-0.306734534989,0.185914657131
1421851278353435514,-0.404308369083,-0.303446211171,0.186440814254
1421851278359464098,-0.405652308869,-0.305520891988,0.187932489045
1421851278484456014,-0.405803396423,-0.304406725734,0.190607848269
1421851278508626889,-0.405106674352,-0.303220314002,0.194105659864
1421851278658974889,-0.406057980961,-0.300093364899,0.195023403088
1421851278659431473,-0.404266492758,-0.299395719706,0.197285414226
1421851278659851598,-0.406695006304,-0.299399786727,0.197265593875
1421851278708397264,-0.404976627373,-0.29943449317,0.19829742996
1421851278723720181,-0.40748177728,-0.30061522832,0.198510880738
1421851278745495931,-0.406785694675,-0.30089123148,0.199298018966
1421851278794243848,-0.405744850445,-0.301136437477,0.199640246668
1421851278823788306,-0.405723940984,-0.300599571831,0.199102642251
1421851278833577848,-0.405893786987,-0.300532093912,0.199532701421
1421851278912531306,-0.406045090964,-0.303345307288,0.198636234779
1421851278951892389,-0.405441518295,-0.303256160362,0.198449510585
1421851278980858098,-0.404754498366,-0.303316679188,0.198212315729
1421851278981309431,-0.407266418511,-0.303940903471,0.197544149261
1421851279003175598,-0.406267710266,-0.305796287573,0.197519245131
1421851279016625681,-0.40404264269,-0.305673966047,0.197314242692
1421851279053940014,-0.402588700618,-0.306391837757,0.196534576517
1421851279054190431,-0.404172510578,-0.308043530147,0.196099501779
1421851279094682889,-0.404107607107,-0.310072850694,0.196388627128
1421851279134136764,-0.401920472827,-0.311788527379,0.195320119641
1421851279185571681,-0.406959607092,-0.313411578966,0.194641657225
1421851279220577514,-0.401595568697,-0.316277060357,0.195495226961
1421851279220729681,-0.402989354539,-0.315582080578,0.195047408369
1421851279256025806,-0.404150540389,-0.316849084014,0.194925271041
1421851279292892556,-0.404332249879,-0.3165309769,0.193895339961
1421851279293329306,-0.403927051217,-0.31686281699,0.193146855973
1421851279350819431,-0.402111140502,-0.318709225691,0.193695985305
1421851279374634598,-0.403454630353,-0.320442710211,0.193248980889
1421851279385711181,-0.402412520188,-0.321294303731,0.193081189231
1421851279440710806,-0.401802952115,-0.320857089459,0.192680099509
1421851279441142014,-0.401165354548,-0.321313635745,0.192234238041
1421851279479552681,-0.401048464499,-0.321605927614,0.19206932928
1421851279522753014,-0.400967040514,-0.324504430934,0.192189993277
1421851279569972514,-0.400582405143,-0.325286525791,0.191783198805
1421851279570095181,-0.399141804239,-0.326757121639,0.192018956144
1421851279596978306,-0.400900100167,-0.326394692014,0.191229223472
1421851279635994723,-0.402342729271,-0.326866644583,0.191133469362
1421851279704456431,-0.399868123959,-0.328009639574,0.191076939733
1421851279704600431,-0.403520257033,-0.3286847867,0.191163320101
1421851279704999348,-0.401672617518,-0.328819108929,0.190978938973
1421851279753254806,-0.402798253373,-0.330959973306,0.191514790289
1421851279783349014,-0.4045584881,-0.330244559875,0.190757826038
1421851279854178348,-0.404798367767,-0.334569029145,0.191983988995
1421851279854298473,-0.404988327439,-0.334878796437,0.192052149487
1421851279855144098,-0.40454520649,-0.333347531896,0.191543329563
1421851279910678889,-0.406042241199,-0.337437616587,0.192400579421
1421851279957143389,-0.408181257649,-0.337338814585,0.192807727489
1421851279992931139,-0.409032819946,-0.339460709931,0.194078911169
1421851280039935931,-0.410597966601,-0.340448962221,0.192974180347
1421851280096422348,-0.40840265464,-0.341715920744,0.193238847619
1421851280096930181,-0.408433422788,-0.342988468439,0.193326942107
1421851280195855764,-0.408390697668,-0.34362975142,0.192273063839
1421851280196285306,-0.411758592013,-0.343637158652,0.192010658268
1421851280287652141,-0.411550190336,-0.345118478155,0.191812823917
1421851280287998058,-0.411492970148,-0.345290531991,0.191541569291
1421851280384967058,-0.416524900429,-0.348399578724,0.190267491317
1421851280385340641,-0.418267279136,-0.34970050675,0.188332414206
1421851280385480724,-0.421401081582,-0.347281609768,0.186914618333
1421851280472570475,-0.423408987009,-0.351036464931,0.186615871673
1421851280485731807,-0.432057838459,-0.352631764024,0.184568658474
1421851280522868891,-0.436433076908,-0.354362966938,0.184312973527
1421851280559998183,-0.436530826034,-0.35486908143,0.184335448212
1421851280570497308,-0.439872955456,-0.353353380045,0.18367191991
1421851280589577141,-0.442722736968,-0.354552641885,0.183290015392
1421851280616443141,-0.447232411298,-0.355210496876,0.182987807848
1421851280737181516,-0.452297324226,-0.357553001448,0.184048937122
1421851280737673975,-0.452485286901,-0.358641402966,0.184260870897
1421851280738079308,-0.457844555119,-0.360204917974,0.185597386297
1421851280738505766,-0.461815956106,-0.361965869494,0.185852548207
1421851280803969224,-0.463657353119,-0.360475568167,0.185868206996
1421851280851399975,-0.464888731642,-0.364131157095,0.187654514133
1421851280970013224,-0.464666386626,-0.363562290414,0.188755865383
1421851280970464599,-0.464335788997,-0.363053827365,0.189153468337
1421851280970940641,-0.466169935477,-0.362394384557,0.192763252381
1421851280971990766,-0.467518210537,-0.363412954022,0.194052017409
1421851281071992141,-0.465666185596,-0.36299842546,0.196810672937
1421851281072375391,-0.463721885612,-0.362541401116,0.197966889811
1421851281072787350,-0.460284938325,-0.362714120551,0.199734583878
1421851281148242183,-0.459557610528,-0.362134011553,0.201104839516
1421851281148403891,-0.456687818019,-0.361634178357,0.203625071497
1421851281148534599,-0.454786757275,-0.360629266728,0.204812240599
1421851281303109266,-0.44474841297,-0.351269350868,0.208276831644
1421851281303508016,-0.441020777811,-0.350579682613,0.211865144206
1421851281349422099,-0.43600336234,-0.348233731141,0.213436943737
1421851281362566766,-0.432071143671,-0.343099922753,0.215234666109
1421851281454244099,-0.428054482613,-0.340847850613,0.216568417841
1421851281454764558,-0.427144311237,-0.338804313166,0.217264760248
1421851281538520225,-0.424620563207,-0.335798978152,0.217976333856
1421851281538888641,-0.415355852797,-0.332520924907,0.220385541869
1421851281539334849,-0.409660876106,-0.329003068175,0.22194769433
1421851281625359933,-0.401399907532,-0.327221298981,0.223348454982
1421851281625470599,-0.395131581006,-0.324329428599,0.224760811513
1421851281667817183,-0.390040565438,-0.322458740464,0.225700111836
1421851281668257641,-0.38823935934,-0.321909107692,0.226208712819
1421851281696567933,-0.383358111135,-0.321371368571,0.227689043011
1421851281704149516,-0.379601339465,-0.32062828927,0.228509421513
1421851281729335933,-0.378002191161,-0.321083910409,0.229086583988
1421851281787833808,-0.370683416847,-0.320636060638,0.22995061787
1421851281863670308,-0.367813443136,-0.320631314667,0.230643691393
1421851281864149683,-0.365508790058,-0.318891164498,0.23138687292
1421851281864264558,-0.361643832002,-0.318422471147,0.232006245688
1421851281940204724,-0.356420845189,-0.32048233075,0.233130195066
1421851281941378433,-0.353804763205,-0.319057087533,0.23360308525
1421851281941915225,-0.352827146886,-0.317052210372,0.233324936545
1421851282042270850,-0.348595750942,-0.319180374843,0.234795095764
1421851282042687558,-0.345804155433,-0.319689486059,0.236319236201
1421851282086867391,-0.345528979346,-0.319959499943,0.236511582366
1421851282123523725,-0.344466080208,-0.320825770894,0.23745321645
1421851282156481600,-0.343771308357,-0.317918905159,0.236637374271
1421851282180091349,-0.346077863919,-0.31942039904,0.23783644561
1421851282240164683,-0.345122353243,-0.317423926963,0.237620986523
1421851282287205225,-0.345274626293,-0.320701359484,0.238862929123
1421851282287442141,-0.346839556102,-0.32018583787,0.239772613735
1421851282339851183,-0.34757796445,-0.318404310959,0.239553646453
1421851282396797433,-0.348886634859,-0.318871081807,0.239850840999
1421851282397211308,-0.349234140189,-0.318028330976,0.239491415395
1421851282444265641,-0.352164268935,-0.316137972902,0.239638901888
1421851282474560891,-0.355483327905,-0.313585896889,0.238604595038
1421851282500387141,-0.35991722803,-0.313056099429,0.238574991702
1421851282525167100,-0.360829089516,-0.306957450643,0.237725201732
1421851282525548725,-0.364449000435,-0.305058763857,0.236999516537
1421851282567662016,-0.364636363635,-0.302565363539,0.237055100505
1421851282603386391,-0.365842118037,-0.298993618095,0.236882844344
1421851282633535891,-0.366992229841,-0.296792077043,0.236629506998
1421851282665036891,-0.371882499688,-0.288422505711,0.235266750043
1421851282682395266,-0.372430079689,-0.282997001739,0.234780310249
1421851282738517558,-0.37846647011,-0.276800927612,0.233640824808
1421851282783368475,-0.380112562688,-0.270441495333,0.23306505471
1421851282799448058,-0.382372241861,-0.266907734298,0.23278647461
1421851282809176058,-0.384068321851,-0.260831921875,0.232176512234
1421851282891985891,-0.390457521653,-0.25090258035,0.230149590449
1421851283013245600,-0.392084902567,-0.243226159879,0.229040210526
1421851283013697350,-0.395557364238,-0.237680495998,0.228282758746
1421851283013854475,-0.397604537773,-0.232388975427,0.227276246377
1421851283013982808,-0.401608999404,-0.218860043266,0.225519120188
1421851283014395016,-0.407507069236,-0.205401667281,0.22310666952
1421851283064877225,-0.410537552182,-0.198195949191,0.222136764476
1421851283103982933,-0.411385036466,-0.190229470349,0.22177937117
1421851283104121766,-0.414664303027,-0.183036616893,0.220666015385
1421851283143619391,-0.421156283136,-0.167754605322,0.219436874733
1421851283184385850,-0.424662562627,-0.16025590079,0.218522036697
1421851283262129558,-0.426441626948,-0.151907903442,0.217419792252
1421851283294401016,-0.431414347974,-0.14367418179,0.216769483787
1421851283294851725,-0.434458815158,-0.134514416048,0.215465553736
1421851283303753266,-0.439552813085,-0.117346969961,0.213944575909
1421851283352040725,-0.443679109559,-0.105854992694,0.212151463461
1421851283376769016,-0.44821786948,-0.0966020207772,0.21125227477
1421851283439801725,-0.450023099015,-0.0881725408558,0.210712700618
1421851283470577058,-0.451885537298,-0.0789485738388,0.209111930531
1421851283485460391,-0.461651473726,-0.0441555738848,0.203774446918
1421851283586030308,-0.464939309056,-0.0333062060224,0.202387444547
1421851283586139725,-0.46929744208,-0.0244168563844,0.200688371232
1421851283586551891,-0.476595430565,-0.00034725049072,0.196920759401
1421851283627149433,-0.479783595256,0.0109043195033,0.195050633078
1421851283662646808,-0.486054150689,0.0358437447616,0.191290878049
1421851283691481183,-0.490168257534,0.0472035462497,0.189121630222
1421851283725961391,-0.491754647549,0.0602131603491,0.187287916553
1421851283757921808,-0.495517058411,0.0735490171647,0.185049537687
1421851283812160350,-0.501966702814,0.0870327929579,0.183150446471
1421851283812556141,-0.502272947816,0.0975517915665,0.181896289296
1421851283911600808,-0.506136146599,0.1152672906,0.178495615274
1421851283911726933,-0.509134764666,0.125203708348,0.176936756362
1421851283912090975,-0.513391604181,0.139456494493,0.174662892316
1421851283912218016,-0.520258030307,0.160463805482,0.171296637839
1421851284028974391,-0.524913019624,0.170168290432,0.169812483872
1421851284029352850,-0.528689512709,0.182953076691,0.16800585607
1421851284029775891,-0.528761244575,0.198410508064,0.165793096222
1421851284152050850,-0.53688897483,0.223169394536,0.164142122711
1421851284152172850,-0.540854215463,0.234736469162,0.163477086186
1421851284152561308,-0.545102808855,0.246102782933,0.163012769516
1421851284153080266,-0.547806251628,0.256445422825,0.162518696019
1421851284153214600,-0.551020641028,0.266643440641,0.16201270952
1421851284279231808,-0.555805419147,0.276271588578,0.161841278185
1421851284279466558,-0.561452255585,0.301624434559,0.16282018738
1421851284368509308,-0.564049809092,0.31613436997,0.164199970304
1421851284368653141,-0.567976668279,0.327539037659,0.16437625919
1421851284492687185,-0.571898708447,0.338428948459,0.164780839516
1421851284495258684,-0.573177015687,0.344308701678,0.166948046742
1421851284495411726,-0.576248336715,0.362635143794,0.167179287796
1421851284495827976,-0.576631418144,0.365511088175,0.169194852445
1421851284581454435,-0.579028811214,0.370484549456,0.16974339283
1421851284581673893,-0.579939416247,0.373946100339,0.171287042536
1421851284672335727,-0.579468977796,0.381509632705,0.172042137514
1421851284672712102,-0.583626850224,0.411030640287,0.172806402485
1421851284673173976,-0.58445706862,0.417952475713,0.174581714424
1421851284673589851,-0.584654048604,0.420906226369,0.175004614765
1421851284704026310,-0.586723075101,0.433026174962,0.176838943779
1421851284878451435,-0.586403879096,0.447764315061,0.179825953911
1421851284878823935,-0.586860486253,0.451701667982,0.180827421467
