%time,field.header.seq,field.header.stamp,field.header.frame_id,field.pose.position.x,field.pose.position.y,field.pose.position.z,field.pose.orientation.x,field.pose.orientation.y,field.pose.orientation.z,field.pose.orientation.w
1421851407832453966,87281,1421851407832453966,fcu,0.029296875,-0.119140625,0.00390625,-0.00837367451112,-0.0219310881751,-0.0694144609705,0.997311657184
1421851407837453842,87282,1421851407837453842,fcu,0.029296875,-0.119140625,0.00390625,-0.00837367451112,-0.0219310881751,-0.0694144609705,0.997311657184
1421851407842455864,87283,1421851407842455864,fcu,0.029296875,-0.119140625,0.00390625,-0.00837367451112,-0.0219310881751,-0.0694144609705,0.997311657184
1421851407847455978,87284,1421851407847455978,fcu,0.029296875,-0.119140625,0.00390625,-0.00837367451112,-0.0219310881751,-0.0694144609705,0.997311657184
1421851407852455854,87285,1421851407852455854,fcu,0.029296875,-0.1171875,0.00390625,-0.00830618210725,-0.0209571199329,-0.0694092893919,0.997333523456
1421851407857455969,87286,1421851407857455969,fcu,0.029296875,-0.1171875,0.00390625,-0.00830618210725,-0.0209571199329,-0.0694092893919,0.997333523456
1421851407862455845,87287,1421851407862455845,fcu,0.029296875,-0.1171875,0.00390625,-0.00733221978237,-0.0210248924381,-0.0693887903608,0.997341159395
1421851407872455835,87289,1421851407872455835,fcu,0.029296875,-0.1171875,0.00390625,-0.00733221978237,-0.0210248924381,-0.0693887903608,0.997341159395
1421851407877455950,87290,1421851407877455950,fcu,0.029296875,-0.1171875,0.00390625,-0.00733221978237,-0.0210248924381,-0.0693887903608,0.997341159395
1421851407882455826,87291,1421851407882455826,fcu,0.029296875,-0.1171875,0.00390625,-0.00733221978237,-0.0210248924381,-0.0693887903608,0.997341159395
1421851407887455940,87292,1421851407887455940,fcu,0.029296875,-0.1171875,0.00390625,-0.00735274840435,-0.021017722043,-0.0703627230948,0.997272921346
1421851407892456055,87293,1421851407892456055,fcu,0.029296875,-0.1171875,0.00390625,-0.00735274840435,-0.021017722043,-0.0703627230948,0.997272921346
1421851407897455931,87294,1421851407897455931,fcu,0.029296875,-0.1171875,0.00390625,-0.00728427655377,-0.0200437955665,-0.0703584568476,0.997293774735
1421851407902457952,87295,1421851407902457952,fcu,0.029296875,-0.1171875,0.005859375,-0.00735274840435,-0.021017722043,-0.0703627230948,0.997272921346
1421851407907457829,87296,1421851407907457829,fcu,0.029296875,-0.1171875,0.005859375,-0.00728427655377,-0.0200437955665,-0.0703584568476,0.997293774735
1421851407912457943,87297,1421851407912457943,fcu,0.029296875,-0.1171875,0.005859375,-0.00735274840435,-0.021017722043,-0.0703627230948,0.997272921346
1421851407917457819,87298,1421851407917457819,fcu,0.029296875,-0.1171875,0.005859375,-0.00728427655377,-0.0200437955665,-0.0703584568476,0.997293774735
1421851407922457933,87299,1421851407922457933,fcu,0.029296875,-0.115234375,0.005859375,-0.00730384709635,-0.0200366724586,-0.0713323428451,0.997224589768
1421851407927458048,87300,1421851407927458048,fcu,0.029296875,-0.115234375,0.005859375,-0.00730384709635,-0.0200366724586,-0.0713323428451,0.997224589768
1421851407942457914,87303,1421851407942457914,fcu,0.029296875,-0.115234375,0.005859375,-0.00632999162995,-0.0201063233844,-0.0713127417714,0.997231246917
1421851407947458029,87304,1421851407947458029,fcu,0.029296875,-0.115234375,0.005859375,-0.00632999162995,-0.0201063233844,-0.0713127417714,0.997231246917
1421851407952457905,87305,1421851407952457905,fcu,0.029296875,-0.115234375,0.005859375,-0.00632999162995,-0.0201063233844,-0.0713127417714,0.997231246917
1421851407957458019,87306,1421851407957458019,fcu,0.029296875,-0.115234375,0.005859375,-0.00632999162995,-0.0201063233844,-0.0713127417714,0.997231246917
1421851407962460041,87307,1421851407962460041,fcu,0.029296875,-0.11328125,0.005859375,-0.00626054233975,-0.0191324413825,-0.0713093789179,0.997251085622
1421851407967459917,87308,1421851407967459917,fcu,0.029296875,-0.11328125,0.005859375,-0.00626054233975,-0.0191324413825,-0.0713093789179,0.997251085622
1421851407972460032,87309,1421851407972460032,fcu,0.029296875,-0.11328125,0.005859375,-0.00626054233975,-0.0191324413825,-0.0713093789179,0.997251085622
1421851407977459908,87310,1421851407977459908,fcu,0.029296875,-0.11328125,0.005859375,-0.00626054233975,-0.0191324413825,-0.0713093789179,0.997251085622
1421851407982460022,87311,1421851407982460022,fcu,0.029296875,-0.11328125,0.005859375,-0.00626054233975,-0.0191324413825,-0.0713093789179,0.997251085622
1421851407987459898,87312,1421851407987459898,fcu,0.029296875,-0.11328125,0.005859375,-0.00632999162995,-0.0201063233844,-0.0713127417714,0.997231246917
1421851407992460012,87313,1421851407992460012,fcu,0.029296875,-0.11328125,0.005859375,-0.00632999162995,-0.0201063233844,-0.0713127417714,0.997231246917
1421851407997459888,87314,1421851407997459888,fcu,0.029296875,-0.111328125,0.005859375,-0.00632999162995,-0.0201063233844,-0.0713127417714,0.997231246917
1421851408007459879,87316,1421851408007459879,fcu,0.029296875,-0.111328125,0.005859375,-0.00632999162995,-0.0201063233844,-0.0713127417714,0.997231246917
1421851408012459993,87317,1421851408012459993,fcu,0.029296875,-0.111328125,0.0078125,-0.0053561301268,-0.0201759551353,-0.0712930726885,0.997236953031
1421851408017459869,87318,1421851408017459869,fcu,0.029296875,-0.111328125,0.0078125,-0.0053561301268,-0.0201759551353,-0.0712930726885,0.997236953031
1421851408022461891,87319,1421851408022461891,fcu,0.029296875,-0.111328125,0.0078125,-0.0053561301268,-0.0201759551353,-0.0712930726885,0.997236953031
1421851408027462006,87320,1421851408027462006,fcu,0.029296875,-0.109375,0.0078125,-0.0053561301268,-0.0201759551353,-0.0712930726885,0.997236953031
1421851408032461882,87321,1421851408032461882,fcu,0.029296875,-0.109375,0.0078125,-0.0053561301268,-0.0201759551353,-0.0712930726885,0.997236953031
1421851408037461996,87322,1421851408037461996,fcu,0.02734375,-0.109375,0.0078125,-0.0053561301268,-0.0201759551353,-0.0712930726885,0.997236953031
1421851408042461872,87323,1421851408042461872,fcu,0.02734375,-0.109375,0.0078125,-0.0053561301268,-0.0201759551353,-0.0712930726885,0.997236953031
1421851408047461987,87324,1421851408047461987,fcu,0.02734375,-0.109375,0.0078125,-0.00438226351564,-0.0202455676449,-0.0712733356153,0.997241708107
1421851408052461863,87325,1421851408052461863,fcu,0.02734375,-0.107421875,0.0078125,-0.0053561301268,-0.0201759551353,-0.0712930726885,0.997236953031
1421851408057461977,87326,1421851408057461977,fcu,0.02734375,-0.107421875,0.0078125,-0.00438226351564,-0.0202455676449,-0.0712733356153,0.997241708107
1421851408072461843,87329,1421851408072461843,fcu,0.02734375,-0.107421875,0.0078125,-0.00438226351564,-0.0202455676449,-0.0712733356153,0.997241708107
1421851408077461958,87330,1421851408077461958,fcu,0.02734375,-0.107421875,0.0078125,-0.00340839272523,-0.0203151608468,-0.0712535305705,0.997245512138
1421851408082463980,87331,1421851408082463980,fcu,0.02734375,-0.107421875,0.0078125,-0.00340839272523,-0.0203151608468,-0.0712535305705,0.997245512138
1421851408087463856,87332,1421851408087463856,fcu,0.02734375,-0.10546875,0.0078125,-0.00347789658802,-0.0212890291473,-0.071253972291,0.997224925935
1421851408092463970,87333,1421851408092463970,fcu,0.02734375,-0.10546875,0.0078125,-0.00340839272523,-0.0203151608468,-0.0712535305705,0.997245512138
1421851408102463961,87335,1421851408102463961,fcu,0.02734375,-0.10546875,0.0078125,-0.00340839272523,-0.0203151608468,-0.0712535305705,0.997245512138
1421851408107463837,87336,1421851408107463837,fcu,0.02734375,-0.10546875,0.0078125,-0.00340839272523,-0.0203151608468,-0.0712535305705,0.997245512138
1421851408112463951,87337,1421851408112463951,fcu,0.02734375,-0.10546875,0.0078125,-0.00243451868433,-0.0203847346746,-0.0712336575731,0.997248365123
1421851408117463827,87338,1421851408117463827,fcu,0.02734375,-0.10546875,0.0078125,-0.00340839272523,-0.0203151608468,-0.0712535305705,0.997245512138
1421851408122463942,87339,1421851408122463942,fcu,0.02734375,-0.10546875,0.0078125,-0.00243451868433,-0.0203847346746,-0.0712336575731,0.997248365123
1421851408127463818,87340,1421851408127463818,fcu,0.02734375,-0.103515625,0.0078125,-0.00243451868433,-0.0203847346746,-0.0712336575731,0.997248365123
1421851408132463932,87341,1421851408132463932,fcu,0.02734375,-0.103515625,0.0078125,-0.00243451868433,-0.0203847346746,-0.0712336575731,0.997248365123
1421851408137464046,87342,1421851408137464046,fcu,0.02734375,-0.103515625,0.009765625,-0.00245442448775,-0.0203823474952,-0.072207498808,0.99717832549
1421851408142465830,87343,1421851408142465830,fcu,0.02734375,-0.103515625,0.009765625,-0.00245442448775,-0.0203823474952,-0.072207498808,0.99717832549
1421851408147465944,87344,1421851408147465944,fcu,0.02734375,-0.103515625,0.009765625,-0.00245442448775,-0.0203823474952,-0.072207498808,0.99717832549
1421851408152465820,87345,1421851408152465820,fcu,0.02734375,-0.103515625,0.009765625,-0.00252489943103,-0.0213561474039,-0.072206969448,0.997157807678
1421851408157465935,87346,1421851408157465935,fcu,0.02734375,-0.1015625,0.009765625,-0.00155111146028,-0.0214266518279,-0.0721860794077,0.997159797918
1421851408162466049,87347,1421851408162466049,fcu,0.02734375,-0.1015625,0.009765625,-0.00252489943103,-0.0213561474039,-0.072206969448,0.997157807678
1421851408167465925,87348,1421851408167465925,fcu,0.02734375,-0.1015625,0.009765625,-0.00155111146028,-0.0214266518279,-0.0721860794077,0.997159797918
1421851408172466040,87349,1421851408172466040,fcu,0.02734375,-0.1015625,0.009765625,-0.00252489943103,-0.0213561474039,-0.072206969448,0.997157807678
1421851408182466030,87351,1421851408182466030,fcu,0.02734375,-0.1015625,0.009765625,-0.00155111146028,-0.0214266518279,-0.0721860794077,0.997159797918
1421851408187465906,87352,1421851408187465906,fcu,0.02734375,-0.1015625,0.009765625,-0.00155111146028,-0.0214266518279,-0.0721860794077,0.997159797918
1421851408192466021,87353,1421851408192466021,fcu,0.02734375,-0.1015625,0.009765625,-0.00148061651369,-0.0204528529005,-0.0721875597437,0.997180246897
1421851408197465897,87354,1421851408197465897,fcu,0.02734375,-0.099609375,0.009765625,-0.00153018625931,-0.0214281563679,-0.0712122562763,0.997229816642
1421851408202467918,87355,1421851408202467918,fcu,0.02734375,-0.099609375,0.009765625,-0.00146064232169,-0.0204542890621,-0.0712137166419,0.997250267057
1421851408207468033,87356,1421851408207468033,fcu,0.02734375,-0.099609375,0.009765625,-0.00146064232169,-0.0204542890621,-0.0712137166419,0.997250267057
1421851408212467909,87357,1421851408212467909,fcu,0.02734375,-0.099609375,0.009765625,-0.00146064232169,-0.0204542890621,-0.0712137166419,0.997250267057
1421851408217468023,87358,1421851408217468023,fcu,0.02734375,-0.099609375,0.009765625,-0.00146064232169,-0.0204542890621,-0.0712137166419,0.997250267057
1421851408222467899,87359,1421851408222467899,fcu,0.02734375,-0.099609375,0.009765625,-0.000486764566073,-0.0205238239428,-0.0711937077961,0.997251217939
1421851408227468014,87360,1421851408227468014,fcu,0.02734375,-0.099609375,0.009765625,-0.00146064232169,-0.0204542890621,-0.0712137166419,0.997250267057
1421851408232467890,87361,1421851408232467890,fcu,0.02734375,-0.09765625,0.009765625,-0.000486764566073,-0.0205238239428,-0.0711937077961,0.997251217939
1421851408237468004,87362,1421851408237468004,fcu,0.02734375,-0.09765625,0.009765625,-0.000486764566073,-0.0205238239428,-0.0711937077961,0.997251217939
1421851408242467880,87363,1421851408242467880,fcu,0.02734375,-0.09765625,0.009765625,-0.000486764566073,-0.0205238239428,-0.0711937077961,0.997251217939
1421851408247467995,87364,1421851408247467995,fcu,0.02734375,-0.09765625,0.009765625,-0.000486764566073,-0.0205238239428,-0.0711937077961,0.997251217939
1421851408252467871,87365,1421851408252467871,fcu,0.02734375,-0.095703125,0.009765625,-0.000486764566073,-0.0205238239428,-0.0711937077961,0.997251217939
1421851408257467985,87366,1421851408257467985,fcu,0.02734375,-0.095703125,0.009765625,-0.000486764566073,-0.0205238239428,-0.0711937077961,0.997251217939
1421851408262470007,87367,1421851408262470007,fcu,0.02734375,-0.095703125,0.009765625,-0.000486764566073,-0.0205238239428,-0.0711937077961,0.997251217939
1421851408267469883,87368,1421851408267469883,fcu,0.02734375,-0.095703125,0.009765625,-0.000486764566073,-0.0205238239428,-0.0711937077961,0.997251217939
1421851408292469978,87373,1421851408292469978,fcu,0.02734375,-0.09375,0.009765625,0.000487113653759,-0.0205933392505,-0.0711736310546,0.997251217769
1421851408297469854,87374,1421851408297469854,fcu,0.02734375,-0.09375,0.009765625,0.000487113653759,-0.0205933392505,-0.0711736310546,0.997251217769
1421851408302469969,87375,1421851408302469969,fcu,0.02734375,-0.09375,0.009765625,0.000487113653759,-0.0205933392505,-0.0711736310546,0.997251217769
1421851408307469845,87376,1421851408307469845,fcu,0.02734375,-0.09375,0.009765625,0.000487113653759,-0.0205933392505,-0.0711736310546,0.997251217769
1421851408312469959,87377,1421851408312469959,fcu,0.029296875,-0.09375,0.009765625,0.000487113653759,-0.0205933392505,-0.0711736310546,0.997251217769
1421851408317469835,87378,1421851408317469835,fcu,0.029296875,-0.09375,0.009765625,0.000507224101151,-0.020592853734,-0.0701997191289,0.99732024773
1421851408322471857,87379,1421851408322471857,fcu,0.029296875,-0.09375,0.009765625,0.000507224101151,-0.020592853734,-0.0701997191289,0.99732024773
1421851408327471972,87380,1421851408327471972,fcu,0.029296875,-0.091796875,0.009765625,0.000507224101151,-0.020592853734,-0.0701997191289,0.99732024773
1421851408332471848,87381,1421851408332471848,fcu,0.029296875,-0.091796875,0.009765625,0.000507224101151,-0.020592853734,-0.0701997191289,0.99732024773
1421851408337471962,87382,1421851408337471962,fcu,0.029296875,-0.091796875,0.009765625,0.000507224101151,-0.020592853734,-0.0701997191289,0.99732024773
1421851408342471838,87383,1421851408342471838,fcu,0.029296875,-0.08984375,0.009765625,0.000507224101151,-0.020592853734,-0.0701997191289,0.99732024773
1421851408357471943,87386,1421851408357471943,fcu,0.029296875,-0.08984375,0.009765625,0.000507224101151,-0.020592853734,-0.0701997191289,0.99732024773
1421851408362471819,87387,1421851408362471819,fcu,0.029296875,-0.087890625,0.009765625,0.000507224101151,-0.020592853734,-0.0701997191289,0.99732024773
1421851408367471933,87388,1421851408367471933,fcu,0.03125,-0.087890625,0.009765625,0.00148116925891,-0.0206613983169,-0.0701795754495,0.997319276835
1421851408372472048,87389,1421851408372472048,fcu,0.03125,-0.087890625,0.009765625,0.00148116925891,-0.0206613983169,-0.0701795754495,0.997319276835
1421851408377471924,87390,1421851408377471924,fcu,0.03125,-0.087890625,0.009765625,0.00148116925891,-0.0206613983169,-0.0701795754495,0.997319276835
1421851408382473946,87391,1421851408382473946,fcu,0.03125,-0.087890625,0.009765625,0.00148116925891,-0.0206613983169,-0.0701795754495,0.997319276835
1421851408387473822,87392,1421851408387473822,fcu,0.03125,-0.087890625,0.009765625,0.00148116925891,-0.0206613983169,-0.0701795754495,0.997319276835
1421851408392473936,87393,1421851408392473936,fcu,0.03125,-0.087890625,0.009765625,0.00141251677357,-0.0216353246727,-0.0701752817415,0.997299026047
1421851408397474051,87394,1421851408397474051,fcu,0.03125,-0.0859375,0.009765625,0.00141251677357,-0.0216353246727,-0.0701752817415,0.997299026047
1421851408402473927,87395,1421851408402473927,fcu,0.03125,-0.0859375,0.009765625,0.00141251677357,-0.0216353246727,-0.0701752817415,0.997299026047
1421851408407474041,87396,1421851408407474041,fcu,0.03125,-0.0859375,0.009765625,0.00141251677357,-0.0216353246727,-0.0701752817415,0.997299026047
1421851408412473917,87397,1421851408412473917,fcu,0.03125,-0.0859375,0.009765625,0.00141251677357,-0.0216353246727,-0.0701752817415,0.997299026047
1421851408422473907,87399,1421851408422473907,fcu,0.03125,-0.0859375,0.009765625,0.00141251677357,-0.0216353246727,-0.0701752817415,0.997299026047
1421851408427474022,87400,1421851408427474022,fcu,0.03125,-0.0859375,0.009765625,0.00141251677357,-0.0216353246727,-0.0701752817415,0.997299026047
1421851408432473898,87401,1421851408432473898,fcu,0.03125,-0.0859375,0.009765625,0.00141251677357,-0.0216353246727,-0.0701752817415,0.997299026047
1421851408437474012,87402,1421851408437474012,fcu,0.03125,-0.083984375,0.009765625,0.00143364434342,-0.0216339349455,-0.069201323604,0.997367081036
1421851408442476034,87403,1421851408442476034,fcu,0.03125,-0.083984375,0.009765625,0.00145477054605,-0.0216325245866,-0.0682272994709,0.997434184861
1421851408447475910,87404,1421851408447475910,fcu,0.03125,-0.083984375,0.009765625,0.00145477054605,-0.0216325245866,-0.0682272994709,0.997434184861
1421851408452476025,87405,1421851408452476025,fcu,0.03125,-0.083984375,0.009765625,0.00145477054605,-0.0216325245866,-0.0682272994709,0.997434184861
1421851408457475901,87406,1421851408457475901,fcu,0.03125,-0.08203125,0.009765625,0.00145477054605,-0.0216325245866,-0.0682272994709,0.997434184861
1421851408462476015,87407,1421851408462476015,fcu,0.03125,-0.08203125,0.009765625,0.00145477054605,-0.0216325245866,-0.0682272994709,0.997434184861
1421851408467475891,87408,1421851408467475891,fcu,0.03125,-0.08203125,0.009765625,0.000480713186027,-0.0215658860598,-0.0682483924466,0.997435129922
1421851408477475882,87410,1421851408477475882,fcu,0.03125,-0.08203125,0.009765625,0.000480713186027,-0.0215658860598,-0.0682483924466,0.997435129922
1421851408482475996,87411,1421851408482475996,fcu,0.03125,-0.080078125,0.009765625,0.000480713186027,-0.0215658860598,-0.0682483924466,0.997435129922
1421851408487475872,87412,1421851408487475872,fcu,0.03125,-0.080078125,0.009765625,0.000480713186027,-0.0215658860598,-0.0682483924466,0.997435129922
1421851408492475986,87413,1421851408492475986,fcu,0.033203125,-0.080078125,0.009765625,0.000480713186027,-0.0215658860598,-0.0682483924466,0.997435129922
1421851408497475863,87414,1421851408497475863,fcu,0.033203125,-0.080078125,0.009765625,0.000480713186027,-0.0215658860598,-0.0682483924466,0.997435129922
1421851408502477884,87415,1421851408502477884,fcu,0.033203125,-0.080078125,0.009765625,0.000480713186027,-0.0215658860598,-0.0682483924466,0.997435129922
1421851408507477999,87416,1421851408507477999,fcu,0.033203125,-0.080078125,0.009765625,0.000480713186027,-0.0215658860598,-0.0682483924466,0.997435129922
1421851408512477875,87417,1421851408512477875,fcu,0.033203125,-0.080078125,0.009765625,0.000413982388036,-0.0225399277679,-0.0682450244432,0.997413854382
1421851408517477989,87418,1421851408517477989,fcu,0.033203125,-0.080078125,0.009765625,0.000413982388036,-0.0225399277679,-0.0682450244432,0.997413854382
1421851408522477865,87419,1421851408522477865,fcu,0.033203125,-0.078125,0.009765625,0.000413982388036,-0.0225399277679,-0.0682450244432,0.997413854382
1421851408527477980,87420,1421851408527477980,fcu,0.033203125,-0.078125,0.009765625,0.000413982388036,-0.0225399277679,-0.0682450244432,0.997413854382
1421851408532477856,87421,1421851408532477856,fcu,0.033203125,-0.078125,0.009765625,0.000413982388036,-0.0225399277679,-0.0682450244432,0.997413854382
1421851408537477970,87422,1421851408537477970,fcu,0.033203125,-0.078125,0.009765625,0.00138801900298,-0.0226065625412,-0.0682229802567,0.997412974499
1421851408542477846,87423,1421851408542477846,fcu,0.033203125,-0.078125,0.009765625,0.000413982388036,-0.0225399277679,-0.0682450244432,0.997413854382
1421851408547477961,87424,1421851408547477961,fcu,0.033203125,-0.078125,0.009765625,0.00138801900298,-0.0226065625412,-0.0682229802567,0.997412974499
1421851408567479849,87428,1421851408567479849,fcu,0.033203125,-0.078125,0.009765625,0.00141009505885,-0.0226051962744,-0.0672489117724,0.997479122889
1421851408572479963,87429,1421851408572479963,fcu,0.033203125,-0.078125,0.009765625,0.00238419493758,-0.0226708582504,-0.0672268043222,0.997477270208
1421851408577479839,87430,1421851408577479839,fcu,0.033203125,-0.078125,0.009765625,0.00238419493758,-0.0226708582504,-0.0672268043222,0.997477270208
1421851408582479954,87431,1421851408582479954,fcu,0.033203125,-0.078125,0.009765625,0.00238419493758,-0.0226708582504,-0.0672268043222,0.997477270208
1421851408587479830,87432,1421851408587479830,fcu,0.033203125,-0.078125,0.009765625,0.00238419493758,-0.0226708582504,-0.0672268043222,0.997477270208
1421851408592479944,87433,1421851408592479944,fcu,0.033203125,-0.078125,0.009765625,0.00329244772823,-0.0237105693463,-0.0671983676343,0.997452428979
1421851408597479820,87434,1421851408597479820,fcu,0.033203125,-0.078125,0.009765625,0.00238419493758,-0.0226708582504,-0.0672268043222,0.997477270208
1421851408602479935,87435,1421851408602479935,fcu,0.033203125,-0.078125,0.009765625,0.00231837167542,-0.0236449346447,-0.0672214904409,0.997455168637
1421851408607480049,87436,1421851408607480049,fcu,0.033203125,-0.078125,0.009765625,0.00329244772823,-0.0237105693463,-0.0671983676343,0.997452428979
1421851408612479925,87437,1421851408612479925,fcu,0.033203125,-0.076171875,0.009765625,0.00231837167542,-0.0236449346447,-0.0672214904409,0.997455168637
1421851408617480040,87438,1421851408617480040,fcu,0.033203125,-0.076171875,0.0078125,0.00329244772823,-0.0237105693463,-0.0671983676343,0.997452428979
1421851408622481823,87439,1421851408622481823,fcu,0.033203125,-0.076171875,0.0078125,0.00329244772823,-0.0237105693463,-0.0671983676343,0.997452428979
1421851408627481937,87440,1421851408627481937,fcu,0.033203125,-0.076171875,0.0078125,0.00329244772823,-0.0237105693463,-0.0671983676343,0.997452428979
1421851408632482052,87441,1421851408632482052,fcu,0.033203125,-0.076171875,0.0078125,0.00333875112469,-0.0237040935641,-0.0652500914269,0.997581773219
1421851408637481928,87442,1421851408637481928,fcu,0.03515625,-0.07421875,0.0078125,0.00333875112469,-0.0237040935641,-0.0652500914269,0.997581773219
1421851408642482042,87443,1421851408642482042,fcu,0.03515625,-0.07421875,0.0078125,0.00333875112469,-0.0237040935641,-0.0652500914269,0.997581773219
1421851408647481918,87444,1421851408647481918,fcu,0.03515625,-0.07421875,0.0078125,0.00327480573257,-0.0246782684438,-0.065243807128,0.997558772377
1421851408652482033,87445,1421851408652482033,fcu,0.03515625,-0.07421875,0.0078125,0.00327480573257,-0.0246782684438,-0.065243807128,0.997558772377
1421851408657481909,87446,1421851408657481909,fcu,0.03515625,-0.072265625,0.0078125,0.00327480573257,-0.0246782684438,-0.065243807128,0.997558772377
1421851408662482023,87447,1421851408662482023,fcu,0.03515625,-0.072265625,0.0078125,0.00327480573257,-0.0246782684438,-0.065243807128,0.997558772377
1421851408667481899,87448,1421851408667481899,fcu,0.03515625,-0.072265625,0.0078125,0.00327480573257,-0.0246782684438,-0.065243807128,0.997558772377
1421851408672482014,87449,1421851408672482014,fcu,0.03515625,-0.072265625,0.0078125,0.00327480573257,-0.0246782684438,-0.065243807128,0.997558772377
1421851408677481890,87450,1421851408677481890,fcu,0.03515625,-0.072265625,0.0078125,0.00327480573257,-0.0246782684438,-0.065243807128,0.997558772377
1421851408682483912,87451,1421851408682483912,fcu,0.037109375,-0.072265625,0.0078125,0.00327480573257,-0.0246782684438,-0.065243807128,0.997558772377
1421851408687484026,87452,1421851408687484026,fcu,0.037109375,-0.0703125,0.0078125,0.00329890403872,-0.0246750586243,-0.0642695976835,0.997622011349
1421851408692483902,87453,1421851408692483902,fcu,0.037109375,-0.0703125,0.0078125,0.00232466237507,-0.0246122835893,-0.0642936637705,0.997624757231
1421851408697484016,87454,1421851408697484016,fcu,0.037109375,-0.0703125,0.0078125,0.00329890403872,-0.0246750586243,-0.0642695976835,0.997622011349
1421851408707484007,87456,1421851408707484007,fcu,0.037109375,-0.0703125,0.0078125,0.00232466237507,-0.0246122835893,-0.0642936637705,0.997624757231
1421851408712483883,87457,1421851408712483883,fcu,0.0390625,-0.0703125,0.0078125,0.00232466237507,-0.0246122835893,-0.0642936637705,0.997624757231
1421851408717483997,87458,1421851408717483997,fcu,0.0390625,-0.0703125,0.0078125,0.00329890403872,-0.0246750586243,-0.0642695976835,0.997622011349
1421851408722483873,87459,1421851408722483873,fcu,0.0390625,-0.0703125,0.0078125,0.00232466237507,-0.0246122835893,-0.0642936637705,0.997624757231
1421851408727483988,87460,1421851408727483988,fcu,0.0390625,-0.0703125,0.0078125,0.00232466237507,-0.0246122835893,-0.0642936637705,0.997624757231
1421851408732483864,87461,1421851408732483864,fcu,0.0390625,-0.068359375,0.0078125,0.00232466237507,-0.0246122835893,-0.0642936637705,0.997624757231
1421851408737483978,87462,1421851408737483978,fcu,0.0390625,-0.068359375,0.0078125,0.00232466237507,-0.0246122835893,-0.0642936637705,0.997624757231
1421851408742486000,87463,1421851408742486000,fcu,0.0390625,-0.068359375,0.0078125,0.00232466237507,-0.0246122835893,-0.0642936637705,0.997624757231
1421851408747485876,87464,1421851408747485876,fcu,0.0390625,-0.068359375,0.0078125,0.00234869669596,-0.0246100016756,-0.0633193903407,0.997687068298
1421851408752485991,87465,1421851408752485991,fcu,0.0390625,-0.068359375,0.0078125,0.00228667437329,-0.0255842817491,-0.0633140420568,0.997663043179
1421851408757485867,87466,1421851408757485867,fcu,0.0390625,-0.068359375,0.0078125,0.00234869669596,-0.0246100016756,-0.0633193903407,0.997687068298
1421851408762485981,87467,1421851408762485981,fcu,0.041015625,-0.068359375,0.0078125,0.00228667437329,-0.0255842817491,-0.0633140420568,0.997663043179
1421851408767485857,87468,1421851408767485857,fcu,0.041015625,-0.068359375,0.0078125,0.00228667437329,-0.0255842817491,-0.0633140420568,0.997663043179
1421851408772485971,87469,1421851408772485971,fcu,0.041015625,-0.068359375,0.0078125,0.00228667437329,-0.0255842817491,-0.0633140420568,0.997663043179
1421851408777485847,87470,1421851408777485847,fcu,0.041015625,-0.068359375,0.0078125,0.00228667437329,-0.0255842817491,-0.0633140420568,0.997663043179
1421851408782485962,87471,1421851408782485962,fcu,0.041015625,-0.068359375,0.0078125,0.00228667437329,-0.0255842817491,-0.0633140420568,0.997663043179
1421851408787485838,87472,1421851408787485838,fcu,0.041015625,-0.068359375,0.0078125,0.00228667437329,-0.0255842817491,-0.0633140420568,0.997663043179
1421851408792485952,87473,1421851408792485952,fcu,0.041015625,-0.068359375,0.0078125,0.00228667437329,-0.0255842817491,-0.0633140420568,0.997663043179
1421851408797485828,87474,1421851408797485828,fcu,0.041015625,-0.068359375,0.0078125,0.00228667437329,-0.0255842817491,-0.0633140420568,0.997663043179
1421851408802487850,87475,1421851408802487850,fcu,0.041015625,-0.068359375,0.0078125,0.00233663928033,-0.0255797667929,-0.0613653619026,0.997784800449
1421851408807487965,87476,1421851408807487965,fcu,0.041015625,-0.06640625,0.0078125,0.00233663928033,-0.0255797667929,-0.0613653619026,0.997784800449
1421851408812487841,87477,1421851408812487841,fcu,0.041015625,-0.06640625,0.0078125,0.00233663928033,-0.0255797667929,-0.0613653619026,0.997784800449
1421851408817487955,87478,1421851408817487955,fcu,0.041015625,-0.06640625,0.005859375,0.00233663928033,-0.0255797667929,-0.0613653619026,0.997784800449
1421851408822487831,87479,1421851408822487831,fcu,0.041015625,-0.06640625,0.005859375,0.00233663928033,-0.0255797667929,-0.0613653619026,0.997784800449
1421851408827487946,87480,1421851408827487946,fcu,0.041015625,-0.06640625,0.005859375,0.00233663928033,-0.0255797667929,-0.0613653619026,0.997784800449
1421851408832487822,87481,1421851408832487822,fcu,0.041015625,-0.06640625,0.005859375,0.00227651773713,-0.0265541417506,-0.0613600020303,0.997759813369
1421851408837487936,87482,1421851408837487936,fcu,0.041015625,-0.06640625,0.005859375,0.00227651773713,-0.0265541417506,-0.0613600020303,0.997759813369
1421851408842488050,87483,1421851408842488050,fcu,0.041015625,-0.06640625,0.005859375,0.00227651773713,-0.0265541417506,-0.0613600020303,0.997759813369
1421851408847487926,87484,1421851408847487926,fcu,0.04296875,-0.06640625,0.005859375,0.00230244842653,-0.0265519059271,-0.0603855981087,0.997819259467
1421851408852488041,87485,1421851408852488041,fcu,0.04296875,-0.06640625,0.005859375,0.00230244842653,-0.0265519059271,-0.0603855981087,0.997819259467
1421851408862489939,87487,1421851408862489939,fcu,0.04296875,-0.06640625,0.005859375,0.00230244842653,-0.0265519059271,-0.0603855981087,0.997819259467
1421851408867490053,87488,1421851408867490053,fcu,0.04296875,-0.064453125,0.005859375,0.00230244842653,-0.0265519059271,-0.0603855981087,0.997819259467
1421851408872489929,87489,1421851408872489929,fcu,0.04296875,-0.064453125,0.005859375,0.00224327625411,-0.0275263138108,-0.0603802050523,0.997793315571
1421851408877490044,87490,1421851408877490044,fcu,0.04296875,-0.064453125,0.005859375,0.00224327625411,-0.0275263138108,-0.0603802050523,0.997793315571
1421851408882489920,87491,1421851408882489920,fcu,0.04296875,-0.064453125,0.005859375,0.00321768256429,-0.0275852657199,-0.0603532950992,0.997790649087
1421851408887490034,87492,1421851408887490034,fcu,0.04296875,-0.064453125,0.005859375,0.00224327625411,-0.0275263138108,-0.0603802050523,0.997793315571
1421851408892489910,87493,1421851408892489910,fcu,0.04296875,-0.064453125,0.005859375,0.00321768256429,-0.0275852657199,-0.0603532950992,0.997790649087
1421851408897490025,87494,1421851408897490025,fcu,0.04296875,-0.064453125,0.005859375,0.00224327625411,-0.0275263138108,-0.0603802050523,0.997793315571
1421851408902489901,87495,1421851408902489901,fcu,0.04296875,-0.064453125,0.005859375,0.00321768256429,-0.0275852657199,-0.0603532950992,0.997790649087
1421851408907490015,87496,1421851408907490015,fcu,0.04296875,-0.064453125,0.005859375,0.00321768256429,-0.0275852657199,-0.0603532950992,0.997790649087
1421851408912489891,87497,1421851408912489891,fcu,0.04296875,-0.064453125,0.005859375,0.00321768256429,-0.0275852657199,-0.0603532950992,0.997790649087
1421851408917490005,87498,1421851408917490005,fcu,0.04296875,-0.064453125,0.005859375,0.00321768256429,-0.0275852657199,-0.0603532950992,0.997790649087
1421851408922492027,87499,1421851408922492027,fcu,0.044921875,-0.064453125,0.005859375,0.00321768256429,-0.0275852657199,-0.0603532950992,0.997790649087
1421851408927491903,87500,1421851408927491903,fcu,0.044921875,-0.064453125,0.005859375,0.00321768256429,-0.0275852657199,-0.0603532950992,0.997790649087
1421851408932492018,87501,1421851408932492018,fcu,0.044921875,-0.064453125,0.005859375,0.00321768256429,-0.0275852657199,-0.0603532950992,0.997790649087
1421851408937491894,87502,1421851408937491894,fcu,0.044921875,-0.064453125,0.005859375,0.00315848201563,-0.0285596415649,-0.0603468929179,0.99776381142
1421851408942492008,87503,1421851408942492008,fcu,0.044921875,-0.064453125,0.005859375,0.00321768256429,-0.0275852657199,-0.0603532950992,0.997790649087
1421851408947491884,87504,1421851408947491884,fcu,0.044921875,-0.064453125,0.005859375,0.00315848201563,-0.0285596415649,-0.0603468929179,0.99776381142
1421851408952491999,87505,1421851408952491999,fcu,0.044921875,-0.064453125,0.005859375,0.00419208580585,-0.0276441913216,-0.0603263275888,0.997787031035
1421851408957491875,87506,1421851408957491875,fcu,0.044921875,-0.064453125,0.005859375,0.00315848201563,-0.0285596415649,-0.0603468929179,0.99776381142
1421851408962491989,87507,1421851408962491989,fcu,0.044921875,-0.064453125,0.005859375,0.00413285907677,-0.0286185604499,-0.0603189738718,0.997760251195
1421851408967491865,87508,1421851408967491865,fcu,0.044921875,-0.064453125,0.005859375,0.00413285907677,-0.0286185604499,-0.0603189738718,0.997760251195
1421851408972491980,87509,1421851408972491980,fcu,0.044921875,-0.064453125,0.005859375,0.00413285907677,-0.0286185604499,-0.0603189738718,0.997760251195
1421851408977491856,87510,1421851408977491856,fcu,0.044921875,-0.064453125,0.005859375,0.00413285907677,-0.0286185604499,-0.0603189738718,0.997760251195
1421851408982493877,87511,1421851408982493877,fcu,0.044921875,-0.064453125,0.005859375,0.00413285907677,-0.0286185604499,-0.0603189738718,0.997760251195
1421851408987493992,87512,1421851408987493992,fcu,0.044921875,-0.064453125,0.005859375,0.00413285907677,-0.0286185604499,-0.0603189738718,0.997760251195
1421851408992493868,87513,1421851408992493868,fcu,0.044921875,-0.064453125,0.00390625,0.00413285907677,-0.0286185604499,-0.0603189738718,0.997760251195
1421851408997493982,87514,1421851408997493982,fcu,0.044921875,-0.064453125,0.00390625,0.00413285907677,-0.0286185604499,-0.0603189738718,0.997760251195
1421851409002493858,87515,1421851409002493858,fcu,0.044921875,-0.064453125,0.00390625,0.00413285907677,-0.0286185604499,-0.0603189738718,0.997760251195
1421851409007493973,87516,1421851409007493973,fcu,0.044921875,-0.064453125,0.00390625,0.00413285907677,-0.0286185604499,-0.0603189738718,0.997760251195
1421851409037493944,87522,1421851409037493944,fcu,0.044921875,-0.064453125,0.00390625,0.00413285907677,-0.0286185604499,-0.0603189738718,0.997760251195
1421851409042495966,87523,1421851409042495966,fcu,0.044921875,-0.064453125,0.00390625,0.00413285907677,-0.0286185604499,-0.0603189738718,0.997760251195
1421851409047495842,87524,1421851409047495842,fcu,0.044921875,-0.064453125,0.00390625,0.00413285907677,-0.0286185604499,-0.0603189738718,0.997760251195
1421851409052495956,87525,1421851409052495956,fcu,0.044921875,-0.064453125,0.00390625,0.00419208580585,-0.0276441913216,-0.0603263275888,0.997787031035
1421851409057495832,87526,1421851409057495832,fcu,0.044921875,-0.06640625,0.00390625,0.00419208580585,-0.0276441913216,-0.0603263275888,0.997787031035
1421851409062495947,87527,1421851409062495947,fcu,0.044921875,-0.06640625,0.00390625,0.00419208580585,-0.0276441913216,-0.0603263275888,0.997787031035
1421851409082495928,87531,1421851409082495928,fcu,0.044921875,-0.06640625,0.00390625,0.00419208580585,-0.0276441913216,-0.0603263275888,0.997787031035
1421851409087496042,87532,1421851409087496042,fcu,0.044921875,-0.06640625,0.00390625,0.00419208580585,-0.0276441913216,-0.0603263275888,0.997787031035
1421851409092495918,87533,1421851409092495918,fcu,0.044921875,-0.06640625,0.00390625,0.00419208580585,-0.0276441913216,-0.0603263275888,0.997787031035
1421851409097496033,87534,1421851409097496033,fcu,0.044921875,-0.06640625,0.00390625,0.00321768256429,-0.0275852657199,-0.0603532950992,0.997790649087
1421851409102498055,87535,1421851409102498055,fcu,0.044921875,-0.06640625,0.00390625,0.00419208580585,-0.0276441913216,-0.0603263275888,0.997787031035
1421851409107497931,87536,1421851409107497931,fcu,0.044921875,-0.06640625,0.00390625,0.00327688004433,-0.0266108635675,-0.0603596397231,0.997816535186
1421851409112498045,87537,1421851409112498045,fcu,0.044921875,-0.06640625,0.00390625,0.00327688004433,-0.0266108635675,-0.0603596397231,0.997816535186
1421851409117497921,87538,1421851409117497921,fcu,0.044921875,-0.06640625,0.00390625,0.00327688004433,-0.0266108635675,-0.0603596397231,0.997816535186
1421851409122498035,87539,1421851409122498035,fcu,0.04296875,-0.06640625,0.00390625,0.00327688004433,-0.0266108635675,-0.0603596397231,0.997816535186
1421851409127497911,87540,1421851409127497911,fcu,0.04296875,-0.06640625,0.00390625,0.0033360743993,-0.025636436037,-0.0603659267836,0.997841469693
1421851409132498026,87541,1421851409132498026,fcu,0.04296875,-0.06640625,0.00390625,0.0033360743993,-0.025636436037,-0.0603659267836,0.997841469693
1421851409137497902,87542,1421851409137497902,fcu,0.04296875,-0.06640625,0.00390625,0.00236161840317,-0.0255774727216,-0.060390933577,0.997844251769
1421851409142498016,87543,1421851409142498016,fcu,0.04296875,-0.06640625,0.00390625,0.00236161840317,-0.0255774727216,-0.060390933577,0.997844251769
1421851409147497892,87544,1421851409147497892,fcu,0.04296875,-0.06640625,0.00390625,0.00236161840317,-0.0255774727216,-0.060390933577,0.997844251769
1421851409152498007,87545,1421851409152498007,fcu,0.04296875,-0.06640625,0.00390625,0.00236161840317,-0.0255774727216,-0.060390933577,0.997844251769
1421851409157497883,87546,1421851409157497883,fcu,0.04296875,-0.06640625,0.00390625,0.00236161840317,-0.0255774727216,-0.060390933577,0.997844251769
1421851409162499905,87547,1421851409162499905,fcu,0.04296875,-0.06640625,0.00390625,0.00236161840317,-0.0255774727216,-0.060390933577,0.997844251769
1421851409167500019,87548,1421851409167500019,fcu,0.04296875,-0.06640625,0.00390625,0.00236161840317,-0.0255774727216,-0.060390933577,0.997844251769
1421851409172499895,87549,1421851409172499895,fcu,0.04296875,-0.06640625,0.00390625,0.00236161840317,-0.0255774727216,-0.060390933577,0.997844251769
1421851409177500010,87550,1421851409177500010,fcu,0.04296875,-0.06640625,0.00390625,0.00144630437382,-0.0245440227259,-0.0604202090309,0.997870180681
1421851409192499876,87553,1421851409192499876,fcu,0.04296875,-0.06640625,0.00390625,0.00144630437382,-0.0245440227259,-0.0604202090309,0.997870180681
1421851409197499990,87554,1421851409197499990,fcu,0.04296875,-0.06640625,0.00390625,0.00144630437382,-0.0245440227259,-0.0604202090309,0.997870180681
1421851409202499866,87555,1421851409202499866,fcu,0.04296875,-0.06640625,0.00390625,0.00144630437382,-0.0245440227259,-0.0604202090309,0.997870180681
1421851409207499981,87556,1421851409207499981,fcu,0.04296875,-0.06640625,0.00390625,0.00144630437382,-0.0245440227259,-0.0604202090309,0.997870180681
1421851409212499857,87557,1421851409212499857,fcu,0.04296875,-0.06640625,0.00390625,0.0015054472135,-0.0235695370313,-0.0604244776636,0.997893327491
1421851409217499971,87558,1421851409217499971,fcu,0.04296875,-0.06640625,0.00390625,0.00144630437382,-0.0245440227259,-0.0604202090309,0.997870180681
1421851409222501993,87559,1421851409222501993,fcu,0.04296875,-0.06640625,0.00390625,0.0015054472135,-0.0235695370313,-0.0604244776636,0.997893327491
1421851409227501869,87560,1421851409227501869,fcu,0.04296875,-0.06640625,0.00390625,0.00144630437382,-0.0245440227259,-0.0604202090309,0.997870180681
1421851409242501974,87563,1421851409242501974,fcu,0.04296875,-0.06640625,0.00390625,0.0015054472135,-0.0235695370313,-0.0604244776636,0.997893327491
1421851409247501850,87564,1421851409247501850,fcu,0.04296875,-0.06640625,0.00390625,0.0015054472135,-0.0235695370313,-0.0604244776636,0.997893327491
1421851409252501965,87565,1421851409252501965,fcu,0.04296875,-0.06640625,0.00390625,0.00144630437382,-0.0245440227259,-0.0604202090309,0.997870180681
1421851409257501841,87566,1421851409257501841,fcu,0.04296875,-0.06640625,0.00390625,0.0015054472135,-0.0235695370313,-0.0604244776636,0.997893327491
1421851409262501955,87567,1421851409262501955,fcu,0.04296875,-0.06640625,0.00390625,0.0015054472135,-0.0235695370313,-0.0604244776636,0.997893327491
1421851409267501831,87568,1421851409267501831,fcu,0.04296875,-0.06640625,0.00390625,0.0015054472135,-0.0235695370313,-0.0604244776636,0.997893327491
1421851409272501945,87569,1421851409272501945,fcu,0.04296875,-0.06640625,0.00390625,0.000530941447909,-0.0235105175229,-0.0604474659733,0.997894321822
1421851409277501822,87570,1421851409277501822,fcu,0.04296875,-0.06640625,0.00390625,0.0015054472135,-0.0235695370313,-0.0604244776636,0.997893327491
1421851409282503843,87571,1421851409282503843,fcu,0.04296875,-0.06640625,0.00390625,0.0015054472135,-0.0235695370313,-0.0604244776636,0.997893327491
1421851409287503958,87572,1421851409287503958,fcu,0.04296875,-0.06640625,0.00390625,0.0015054472135,-0.0235695370313,-0.0604244776636,0.997893327491
1421851409292503834,87573,1421851409292503834,fcu,0.04296875,-0.06640625,0.00390625,0.0015054472135,-0.0235695370313,-0.0604244776636,0.997893327491
1421851409297503948,87574,1421851409297503948,fcu,0.04296875,-0.06640625,0.00390625,0.0015054472135,-0.0235695370313,-0.0604244776636,0.997893327491
1421851409302503824,87575,1421851409302503824,fcu,0.04296875,-0.06640625,0.00390625,0.0015054472135,-0.0235695370313,-0.0604244776636,0.997893327491
1421851409307503939,87576,1421851409307503939,fcu,0.04296875,-0.06640625,0.00390625,0.000530941447909,-0.0235105175229,-0.0604474659733,0.997894321822
1421851409312504053,87577,1421851409312504053,fcu,0.04296875,-0.06640625,0.00390625,0.000530941447909,-0.0235105175229,-0.0604474659733,0.997894321822
1421851409317503929,87578,1421851409317503929,fcu,0.04296875,-0.06640625,0.00390625,0.000530941447909,-0.0235105175229,-0.0604474659733,0.997894321822
1421851409322504044,87579,1421851409322504044,fcu,0.04296875,-0.06640625,0.00390625,0.000530941447909,-0.0235105175229,-0.0604474659733,0.997894321822
1421851409327503920,87580,1421851409327503920,fcu,0.04296875,-0.06640625,0.00390625,0.000530941447909,-0.0235105175229,-0.0604474659733,0.997894321822
1421851409332504034,87581,1421851409332504034,fcu,0.04296875,-0.06640625,0.00390625,0.000471821240733,-0.0244850069214,-0.0604441489887,0.997871117266
1421851409337503910,87582,1421851409337503910,fcu,0.04296875,-0.06640625,0.00390625,0.000471821240733,-0.0244850069214,-0.0604441489887,0.997871117266
1421851409342505932,87583,1421851409342505932,fcu,0.04296875,-0.06640625,0.00390625,0.000530941447909,-0.0235105175229,-0.0604474659733,0.997894321822
1421851409352505922,87585,1421851409352505922,fcu,0.04296875,-0.06640625,0.00390625,0.000530941447909,-0.0235105175229,-0.0604474659733,0.997894321822
1421851409357506037,87586,1421851409357506037,fcu,0.04296875,-0.06640625,0.00390625,0.000471821240733,-0.0244850069214,-0.0604441489887,0.997871117266
1421851409362505913,87587,1421851409362505913,fcu,0.04296875,-0.06640625,0.00390625,0.000530941447909,-0.0235105175229,-0.0604474659733,0.997894321822
1421851409367506027,87588,1421851409367506027,fcu,0.04296875,-0.06640625,0.00390625,0.000471821240733,-0.0244850069214,-0.0604441489887,0.997871117266
1421851409372505903,87589,1421851409372505903,fcu,0.04296875,-0.06640625,0.00390625,0.000530941447909,-0.0235105175229,-0.0604474659733,0.997894321822
1421851409377506018,87590,1421851409377506018,fcu,0.04296875,-0.06640625,0.00390625,0.000530941447909,-0.0235105175229,-0.0604474659733,0.997894321822
1421851409382505894,87591,1421851409382505894,fcu,0.04296875,-0.06640625,0.00390625,0.000530941447909,-0.0235105175229,-0.0604474659733,0.997894321822
1421851409387506008,87592,1421851409387506008,fcu,0.04296875,-0.06640625,0.00390625,0.000530941447909,-0.0235105175229,-0.0604474659733,0.997894321822
1421851409392505884,87593,1421851409392505884,fcu,0.04296875,-0.06640625,0.00390625,0.000530941447909,-0.0235105175229,-0.0604474659733,0.997894321822
1421851409397505999,87594,1421851409397505999,fcu,0.04296875,-0.06640625,0.00390625,0.000530941447909,-0.0235105175229,-0.0604474659733,0.997894321822
1421851409402508020,87595,1421851409402508020,fcu,0.04296875,-0.06640625,0.00390625,0.000530941447909,-0.0235105175229,-0.0604474659733,0.997894321822
1421851409407507896,87596,1421851409407507896,fcu,0.04296875,-0.06640625,0.00390625,0.000530941447909,-0.0235105175229,-0.0604474659733,0.997894321822
1421851409412508011,87597,1421851409412508011,fcu,0.04296875,-0.06640625,0.00390625,0.000530941447909,-0.0235105175229,-0.0604474659733,0.997894321822
1421851409417507887,87598,1421851409417507887,fcu,0.04296875,-0.06640625,0.00390625,0.000530941447909,-0.0235105175229,-0.0604474659733,0.997894321822
1421851409427507877,87600,1421851409427507877,fcu,0.04296875,-0.06640625,0.00390625,0.000530941447909,-0.0235105175229,-0.0604474659733,0.997894321822
1421851409432507992,87601,1421851409432507992,fcu,0.04296875,-0.06640625,0.00390625,0.000530941447909,-0.0235105175229,-0.0604474659733,0.997894321822
1421851409437507868,87602,1421851409437507868,fcu,0.04296875,-0.06640625,0.00390625,0.000530941447909,-0.0235105175229,-0.0604474659733,0.997894321822
1421851409442507982,87603,1421851409442507982,fcu,0.04296875,-0.06640625,0.00390625,0.000471821240733,-0.0244850069214,-0.0604441489887,0.997871117266
1421851409447507858,87604,1421851409447507858,fcu,0.04296875,-0.06640625,0.00390625,0.000530941447909,-0.0235105175229,-0.0604474659733,0.997894321822
1421851409467509985,87608,1421851409467509985,fcu,0.04296875,-0.06640625,0.00390625,0.000530941447909,-0.0235105175229,-0.0604474659733,0.997894321822
1421851409472509861,87609,1421851409472509861,fcu,0.04296875,-0.06640625,0.00390625,0.000530941447909,-0.0235105175229,-0.0604474659733,0.997894321822
1421851409477509975,87610,1421851409477509975,fcu,0.04296875,-0.06640625,0.00390625,0.000530941447909,-0.0235105175229,-0.0604474659733,0.997894321822
1421851409482509851,87611,1421851409482509851,fcu,0.04296875,-0.06640625,0.00390625,0.000530941447909,-0.0235105175229,-0.0604474659733,0.997894321822
1421851409487509966,87612,1421851409487509966,fcu,0.04296875,-0.06640625,0.00390625,-0.000443564824024,-0.0234514755931,-0.0604703966358,0.997894364486
1421851409492509842,87613,1421851409492509842,fcu,0.04296875,-0.06640625,0.00390625,-0.000443564824024,-0.0234514755931,-0.0604703966358,0.997894364486
1421851409497509956,87614,1421851409497509956,fcu,0.04296875,-0.06640625,0.00390625,-0.000443564824024,-0.0234514755931,-0.0604703966358,0.997894364486
1421851409502509832,87615,1421851409502509832,fcu,0.04296875,-0.06640625,0.00390625,-0.000443564824024,-0.0234514755931,-0.0604703966358,0.997894364486
1421851409507509947,87616,1421851409507509947,fcu,0.04296875,-0.06640625,0.00390625,-0.000443564824024,-0.0234514755931,-0.0604703966358,0.997894364486
1421851409517509937,87618,1421851409517509937,fcu,0.04296875,-0.06640625,0.00390625,-0.000443564824024,-0.0234514755931,-0.0604703966358,0.997894364486
1421851409522511959,87619,1421851409522511959,fcu,0.04296875,-0.06640625,0.00390625,-0.000384466882718,-0.0224769610549,-0.0604727043001,0.997916675099
1421851409527511835,87620,1421851409527511835,fcu,0.04296875,-0.06640625,0.00390625,-0.000443564824024,-0.0234514755931,-0.0604703966358,0.997894364486
1421851409532511950,87621,1421851409532511950,fcu,0.04296875,-0.06640625,0.00390625,-0.000384466882718,-0.0224769610549,-0.0604727043001,0.997916675099
1421851409537511826,87622,1421851409537511826,fcu,0.04296875,-0.06640625,0.00390625,-0.000384466882718,-0.0224769610549,-0.0604727043001,0.997916675099
1421851409542511940,87623,1421851409542511940,fcu,0.04296875,-0.06640625,0.00390625,-0.000384466882718,-0.0224769610549,-0.0604727043001,0.997916675099
1421851409547512054,87624,1421851409547512054,fcu,0.04296875,-0.06640625,0.00390625,-0.000384466882718,-0.0224769610549,-0.0604727043001,0.997916675099
1421851409552511930,87625,1421851409552511930,fcu,0.04296875,-0.06640625,0.00390625,-0.000384466882718,-0.0224769610549,-0.0604727043001,0.997916675099
1421851409557512045,87626,1421851409557512045,fcu,0.04296875,-0.06640625,0.00390625,-0.00135899454752,-0.0224178949711,-0.0604946256183,0.9979158238
1421851409567512035,87628,1421851409567512035,fcu,0.04296875,-0.06640625,0.00390625,-0.000384466882718,-0.0224769610549,-0.0604727043001,0.997916675099
1421851409572511911,87629,1421851409572511911,fcu,0.04296875,-0.06640625,0.00390625,-0.000443564824024,-0.0234514755931,-0.0604703966358,0.997894364486
1421851409577512026,87630,1421851409577512026,fcu,0.04296875,-0.06640625,0.00390625,-0.000384466882718,-0.0224769610549,-0.0604727043001,0.997916675099
1421851409582514048,87631,1421851409582514048,fcu,0.04296875,-0.06640625,0.00390625,-0.000443564824024,-0.0234514755931,-0.0604703966358,0.997894364486
1421851409587513924,87632,1421851409587513924,fcu,0.04296875,-0.06640625,0.00390625,-0.000384466882718,-0.0224769610549,-0.0604727043001,0.997916675099
1421851409592514038,87633,1421851409592514038,fcu,0.04296875,-0.06640625,0.00390625,-0.000384466882718,-0.0224769610549,-0.0604727043001,0.997916675099
1421851409597513914,87634,1421851409597513914,fcu,0.04296875,-0.06640625,0.00390625,-0.000384466882718,-0.0224769610549,-0.0604727043001,0.997916675099
1421851409602514029,87635,1421851409602514029,fcu,0.04296875,-0.06640625,0.00390625,-0.000384466882718,-0.0224769610549,-0.0604727043001,0.997916675099
1421851409607513905,87636,1421851409607513905,fcu,0.04296875,-0.06640625,0.00390625,-0.000384466882718,-0.0224769610549,-0.0604727043001,0.997916675099
1421851409612514019,87637,1421851409612514019,fcu,0.04296875,-0.06640625,0.00390625,-0.000384466882718,-0.0224769610549,-0.0604727043001,0.997916675099
1421851409617513895,87638,1421851409617513895,fcu,0.04296875,-0.06640625,0.00390625,-0.000443564824024,-0.0234514755931,-0.0604703966358,0.997894364486
1421851409622514009,87639,1421851409622514009,fcu,0.04296875,-0.06640625,0.00390625,-0.000384466882718,-0.0224769610549,-0.0604727043001,0.997916675099
1421851409627513885,87640,1421851409627513885,fcu,0.04296875,-0.06640625,0.00390625,-0.000384466882718,-0.0224769610549,-0.0604727043001,0.997916675099
1421851409632514000,87641,1421851409632514000,fcu,0.04296875,-0.06640625,0.00390625,-0.000443564824024,-0.0234514755931,-0.0604703966358,0.997894364486
1421851409637513876,87642,1421851409637513876,fcu,0.04296875,-0.06640625,0.00390625,-0.000443564824024,-0.0234514755931,-0.0604703966358,0.997894364486
1421851409642515898,87643,1421851409642515898,fcu,0.04296875,-0.06640625,0.00390625,-0.000443564824024,-0.0234514755931,-0.0604703966358,0.997894364486
1421851409647516012,87644,1421851409647516012,fcu,0.04296875,-0.06640625,0.00390625,-0.000443564824024,-0.0234514755931,-0.0604703966358,0.997894364486
1421851409652515888,87645,1421851409652515888,fcu,0.04296875,-0.06640625,0.00390625,-0.000443564824024,-0.0234514755931,-0.0604703966358,0.997894364486
1421851409657516003,87646,1421851409657516003,fcu,0.04296875,-0.06640625,0.00390625,-0.000443564824024,-0.0234514755931,-0.0604703966358,0.997894364486
1421851409662515879,87647,1421851409662515879,fcu,0.04296875,-0.06640625,0.00390625,-0.000443564824024,-0.0234514755931,-0.0604703966358,0.997894364486
1421851409667515993,87648,1421851409667515993,fcu,0.04296875,-0.06640625,0.00390625,0.000530941447909,-0.0235105175229,-0.0604474659733,0.997894321822
1421851409672515869,87649,1421851409672515869,fcu,0.04296875,-0.06640625,0.00390625,0.000530941447909,-0.0235105175229,-0.0604474659733,0.997894321822
1421851409677515984,87650,1421851409677515984,fcu,0.04296875,-0.06640625,0.00390625,0.000530941447909,-0.0235105175229,-0.0604474659733,0.997894321822
1421851409682515860,87651,1421851409682515860,fcu,0.04296875,-0.06640625,0.00390625,0.000530941447909,-0.0235105175229,-0.0604474659733,0.997894321822
1421851409687515974,87652,1421851409687515974,fcu,0.04296875,-0.06640625,0.00390625,0.000530941447909,-0.0235105175229,-0.0604474659733,0.997894321822
1421851409692515850,87653,1421851409692515850,fcu,0.04296875,-0.06640625,0.00390625,0.000530941447909,-0.0235105175229,-0.0604474659733,0.997894321822
1421851409697515965,87654,1421851409697515965,fcu,0.04296875,-0.06640625,0.00390625,0.000530941447909,-0.0235105175229,-0.0604474659733,0.997894321822
1421851409702517986,87655,1421851409702517986,fcu,0.04296875,-0.06640625,0.00390625,0.000530941447909,-0.0235105175229,-0.0604474659733,0.997894321822
1421851409707517862,87656,1421851409707517862,fcu,0.04296875,-0.06640625,0.00390625,0.000530941447909,-0.0235105175229,-0.0604474659733,0.997894321822
1421851409712517977,87657,1421851409712517977,fcu,0.04296875,-0.06640625,0.00390625,0.000530941447909,-0.0235105175229,-0.0604474659733,0.997894321822
1421851409717517853,87658,1421851409717517853,fcu,0.04296875,-0.06640625,0.00390625,0.000530941447909,-0.0235105175229,-0.0604474659733,0.997894321822
1421851409722517967,87659,1421851409722517967,fcu,0.04296875,-0.06640625,0.00390625,0.000530941447909,-0.0235105175229,-0.0604474659733,0.997894321822
1421851409727517843,87660,1421851409727517843,fcu,0.04296875,-0.06640625,0.00390625,0.000530941447909,-0.0235105175229,-0.0604474659733,0.997894321822
1421851409732517958,87661,1421851409732517958,fcu,0.04296875,-0.06640625,0.00390625,0.000530941447909,-0.0235105175229,-0.0604474659733,0.997894321822
1421851409737517834,87662,1421851409737517834,fcu,0.04296875,-0.06640625,0.00390625,-0.000443564824024,-0.0234514755931,-0.0604703966358,0.997894364486
1421851409742517948,87663,1421851409742517948,fcu,0.04296875,-0.06640625,0.00390625,-0.000443564824024,-0.0234514755931,-0.0604703966358,0.997894364486
1421851409747517824,87664,1421851409747517824,fcu,0.04296875,-0.06640625,0.00390625,-0.000443564824024,-0.0234514755931,-0.0604703966358,0.997894364486
1421851409752517939,87665,1421851409752517939,fcu,0.04296875,-0.06640625,0.00390625,-0.000443564824024,-0.0234514755931,-0.0604703966358,0.997894364486
1421851409757518053,87666,1421851409757518053,fcu,0.04296875,-0.06640625,0.00390625,-0.000384466882718,-0.0224769610549,-0.0604727043001,0.997916675099
1421851409762519836,87667,1421851409762519836,fcu,0.04296875,-0.06640625,0.00390625,-0.000443564824024,-0.0234514755931,-0.0604703966358,0.997894364486
1421851409767519951,87668,1421851409767519951,fcu,0.04296875,-0.06640625,0.00390625,-0.000384466882718,-0.0224769610549,-0.0604727043001,0.997916675099
1421851409772519827,87669,1421851409772519827,fcu,0.04296875,-0.06640625,0.00390625,-0.000443564824024,-0.0234514755931,-0.0604703966358,0.997894364486
1421851409777519941,87670,1421851409777519941,fcu,0.04296875,-0.06640625,0.00390625,-0.000384466882718,-0.0224769610549,-0.0604727043001,0.997916675099
1421851409782519817,87671,1421851409782519817,fcu,0.04296875,-0.06640625,0.00390625,-0.000443564824024,-0.0234514755931,-0.0604703966358,0.997894364486
1421851409787519932,87672,1421851409787519932,fcu,0.04296875,-0.06640625,0.00390625,-0.000443564824024,-0.0234514755931,-0.0604703966358,0.997894364486
1421851409792520046,87673,1421851409792520046,fcu,0.04296875,-0.06640625,0.00390625,-0.000384466882718,-0.0224769610549,-0.0604727043001,0.997916675099
1421851409797519922,87674,1421851409797519922,fcu,0.04296875,-0.06640625,0.00390625,-0.000384466882718,-0.0224769610549,-0.0604727043001,0.997916675099
1421851409802520037,87675,1421851409802520037,fcu,0.04296875,-0.06640625,0.00390625,-0.000384466882718,-0.0224769610549,-0.0604727043001,0.997916675099
1421851409807519913,87676,1421851409807519913,fcu,0.04296875,-0.06640625,0.00390625,-0.000384466882718,-0.0224769610549,-0.0604727043001,0.997916675099
1421851409812520027,87677,1421851409812520027,fcu,0.04296875,-0.06640625,0.00390625,-0.000384466882718,-0.0224769610549,-0.0604727043001,0.997916675099
1421851409817517996,87678,1421851409817517996,fcu,0.04296875,-0.06640625,0.00390625,-0.000384466882718,-0.0224769610549,-0.0604727043001,0.997916675099
1421851409822517872,87679,1421851409822517872,fcu,0.04296875,-0.06640625,0.00390625,-0.000384466882718,-0.0224769610549,-0.0604727043001,0.997916675099
1421851409827517986,87680,1421851409827517986,fcu,0.04296875,-0.06640625,0.00390625,-0.000325368574756,-0.021502425081,-0.0604749542931,0.997938034025
1421851409842514038,87683,1421851409842514038,fcu,0.04296875,-0.06640625,0.00390625,-0.000325368574756,-0.021502425081,-0.0604749542931,0.997938034025
1421851409847513914,87684,1421851409847513914,fcu,0.04296875,-0.06640625,0.00390625,-0.000325368574756,-0.021502425081,-0.0604749542931,0.997938034025
1421851409857511997,87686,1421851409857511997,fcu,0.04296875,-0.06640625,0.00390625,-0.000266269956498,-0.0205278686008,-0.0604771466127,0.997958441243
1421851409862511873,87687,1421851409862511873,fcu,0.04296875,-0.06640625,0.00390625,-0.0012408384649,-0.0204687991082,-0.0604971645185,0.99795770535
1421851409867509842,87688,1421851409867509842,fcu,0.04296875,-0.06640625,0.00390625,-0.0012408384649,-0.0204687991082,-0.0604971645185,0.99795770535
1421851409872509956,87689,1421851409872509956,fcu,0.04296875,-0.06640625,0.00390625,-0.00118175862039,-0.0194942214312,-0.0604983474273,0.997977218546
1421851409877509832,87690,1421851409877509832,fcu,0.04296875,-0.06640625,0.00390625,-0.00118175862039,-0.0194942214312,-0.0604983474273,0.997977218546
1421851409882508039,87691,1421851409882508039,fcu,0.04296875,-0.06640625,0.00390625,-0.00118175862039,-0.0194942214312,-0.0604983474273,0.997977218546
1421851409887507915,87692,1421851409887507915,fcu,0.04296875,-0.06640625,0.00390625,-0.00118175862039,-0.0194942214312,-0.0604983474273,0.997977218546
1421851409892508030,87693,1421851409892508030,fcu,0.04296875,-0.06640625,0.00390625,-0.00118175862039,-0.0194942214312,-0.0604983474273,0.997977218546
1421851409897505999,87694,1421851409897505999,fcu,0.04296875,-0.06640625,0.00390625,-0.00118175862039,-0.0194942214312,-0.0604983474273,0.997977218546
1421851409902505875,87695,1421851409902505875,fcu,0.04296875,-0.06640625,0.00390625,-0.00118175862039,-0.0194942214312,-0.0604983474273,0.997977218546
1421851409907503843,87696,1421851409907503843,fcu,0.04296875,-0.06640625,0.00390625,-0.00112267764887,-0.0185196251631,-0.0604994726404,0.997995779996
1421851409912503958,87697,1421851409912503958,fcu,0.04296875,-0.06640625,0.00390625,-0.00209728221252,-0.0184605348253,-0.0605175293606,0.997994207749
1421851409917503834,87698,1421851409917503834,fcu,0.04296875,-0.06640625,0.00390625,-0.00112267764887,-0.0185196251631,-0.0604994726404,0.997995779996
1421851409922502041,87699,1421851409922502041,fcu,0.04296875,-0.06640625,0.00390625,-0.00209728221252,-0.0184605348253,-0.0605175293606,0.997994207749
1421851409927501917,87700,1421851409927501917,fcu,0.04296875,-0.06640625,0.00390625,-0.00209728221252,-0.0184605348253,-0.0605175293606,0.997994207749
1421851409932499886,87701,1421851409932499886,fcu,0.04296875,-0.06640625,0.00390625,-0.00209728221252,-0.0184605348253,-0.0605175293606,0.997994207749
1421851409937500000,87702,1421851409937500000,fcu,0.04296875,-0.06640625,0.00390625,-0.00209728221252,-0.0184605348253,-0.0605175293606,0.997994207749
1421851409942499876,87703,1421851409942499876,fcu,0.04296875,-0.06640625,0.00390625,-0.00209728221252,-0.0184605348253,-0.0605175293606,0.997994207749
1421851409947497845,87704,1421851409947497845,fcu,0.04296875,-0.06640625,0.00390625,-0.00209728221252,-0.0184605348253,-0.0605175293606,0.997994207749
1421851409952497959,87705,1421851409952497959,fcu,0.04296875,-0.06640625,0.00390625,-0.00209728221252,-0.0184605348253,-0.0605175293606,0.997994207749
1421851409957497835,87706,1421851409957497835,fcu,0.04296875,-0.06640625,0.00390625,-0.00203821739546,-0.0174859203177,-0.0605176451052,0.998011875125
1421851409962496042,87707,1421851409962496042,fcu,0.04296875,-0.06640625,0.00390625,-0.00209728221252,-0.0184605348253,-0.0605175293606,0.997994207749
1421851409967495918,87708,1421851409967495918,fcu,0.04296875,-0.06640625,0.00390625,-0.00203821739546,-0.0174859203177,-0.0605176451052,0.998011875125
1421851409987491846,87712,1421851409987491846,fcu,0.04296875,-0.06640625,0.00390625,-0.00203821739546,-0.0174859203177,-0.0605176451052,0.998011875125
1421851409992491961,87713,1421851409992491961,fcu,0.04296875,-0.06640625,0.00390625,-0.00209728221252,-0.0184605348253,-0.0605175293606,0.997994207749
1421851409997489929,87714,1421851409997489929,fcu,0.04296875,-0.06640625,0.00390625,-0.00307188477606,-0.0184014268823,-0.0605355283668,0.997991683742
1421851410002490044,87715,1421851410002490044,fcu,0.04296875,-0.06640625,0.00390625,-0.00307188477606,-0.0184014268823,-0.0605355283668,0.997991683742
1421851410007489920,87716,1421851410007489920,fcu,0.04296875,-0.06640625,0.00390625,-0.00307188477606,-0.0184014268823,-0.0605355283668,0.997991683742
1421851410012487888,87717,1421851410012487888,fcu,0.04296875,-0.06640625,0.00390625,-0.00307188477606,-0.0184014268823,-0.0605355283668,0.997991683742
1421851410017488003,87718,1421851410017488003,fcu,0.04296875,-0.06640625,0.00390625,-0.00307188477606,-0.0184014268823,-0.0605355283668,0.997991683742
1421851410022487879,87719,1421851410022487879,fcu,0.04296875,-0.06640625,0.00390625,-0.00307188477606,-0.0184014268823,-0.0605355283668,0.997991683742
1421851410027485847,87720,1421851410027485847,fcu,0.04296875,-0.06640625,0.00390625,-0.00307188477606,-0.0184014268823,-0.0605355283668,0.997991683742
1421851410032485962,87721,1421851410032485962,fcu,0.04296875,-0.068359375,0.00390625,-0.00262176037054,-0.018470932839,-0.0361548773045,0.999172045175
1421851410037483931,87722,1421851410037483931,fcu,0.0390625,-0.076171875,0.00390625,-0.00262176037054,-0.018470932839,-0.0361548773045,0.999172045175
