%time,field.header.seq,field.header.stamp,field.header.frame_id,field.pose.position.x,field.pose.position.y,field.pose.position.z,field.pose.orientation.x,field.pose.orientation.y,field.pose.orientation.z,field.pose.orientation.w
1421851253636469841,56445,1421851253636469841,fcu,-1.755859375,0.857421875,0.001953125,0.00282735581558,0.0129777560947,-0.0838199895169,-0.996392389204
1421851253641469955,56446,1421851253641469955,fcu,-1.755859375,0.857421875,0.001953125,0.00290930642628,0.0120047187423,-0.0838247903356,-0.996403947799
1421851253651471853,56448,1421851253651471853,fcu,-1.75390625,0.857421875,0.001953125,0.00290930642628,0.0120047187423,-0.0838247903356,-0.996403947799
1421851253656471968,56449,1421851253656471968,fcu,-1.75390625,0.857421875,0.001953125,0.00290930642628,0.0120047187423,-0.0838247903356,-0.996403947799
1421851253661471844,56450,1421851253661471844,fcu,-1.75390625,0.857421875,0.001953125,0.00299125426244,0.0110316699414,-0.0838295112127,-0.996414556149
1421851253666471958,56451,1421851253666471958,fcu,-1.75390625,0.857421875,0.001953125,0.00299125426244,0.0110316699414,-0.0838295112127,-0.996414556149
1421851253671471834,56452,1421851253671471834,fcu,-1.75390625,0.857421875,0.001953125,0.00300202594956,0.0110287435348,-0.0828564103043,-0.996495945766
1421851253676471949,56453,1421851253676471949,fcu,-1.75390625,0.857421875,0.001953125,0.00308302064088,0.0100556046529,-0.0828610418015,-0.996505608389
1421851253681471825,56454,1421851253681471825,fcu,-1.75390625,0.857421875,0.001953125,0.00308302064088,0.0100556046529,-0.0828610418015,-0.996505608389
1421851253686471939,56455,1421851253686471939,fcu,-1.75390625,0.857421875,0.001953125,0.00308302064088,0.0100556046529,-0.0828610418015,-0.996505608389
1421851253691472054,56456,1421851253691472054,fcu,-1.75390625,0.857421875,0.001953125,0.003164012392,0.00908245618116,-0.0828655942762,-0.99651432067
1421851253696471930,56457,1421851253696471930,fcu,-1.751953125,0.857421875,0.001953125,0.003164012392,0.00908245618116,-0.0828655942762,-0.99651432067
1421851253701472044,56458,1421851253701472044,fcu,-1.751953125,0.85546875,-0.0,0.003164012392,0.00908245618116,-0.0828655942762,-0.99651432067
1421851253706473827,56459,1421851253706473827,fcu,-1.751953125,0.85546875,-0.0,0.003164012392,0.00908245618116,-0.0828655942762,-0.99651432067
1421851253711473942,56460,1421851253711473942,fcu,-1.751953125,0.85546875,-0.0,0.00421816551995,0.00819022296857,-0.0828621089724,-0.996518438477
1421851253716473818,56461,1421851253716473818,fcu,-1.751953125,0.85546875,-0.0,0.00324500112568,0.00810929904774,-0.0828700677241,-0.996522082601
1421851253721473932,56462,1421851253721473932,fcu,-1.751953125,0.85546875,-0.0,0.00324500112568,0.00810929904774,-0.0828700677241,-0.996522082601
1421851253726474047,56463,1421851253726474047,fcu,-1.751953125,0.85546875,-0.0,0.00332598676468,0.00713613418069,-0.0828744621409,-0.996528894175
1421851253731473923,56464,1421851253731473923,fcu,-1.751953125,0.85546875,-0.0,0.00332598676468,0.00713613418069,-0.0828744621409,-0.996528894175
1421851253736474037,56465,1421851253736474037,fcu,-1.751953125,0.857421875,-0.0,0.00340696923178,0.0061629625081,-0.0828787775225,-0.996534755385
1421851253741473913,56466,1421851253741473913,fcu,-1.751953125,0.857421875,-0.0,0.00340696923178,0.0061629625081,-0.0828787775225,-0.996534755385
1421851253746474028,56467,1421851253746474028,fcu,-1.751953125,0.857421875,-0.0,0.00340696923178,0.0061629625081,-0.0828787775225,-0.996534755385
1421851253751473904,56468,1421851253751473904,fcu,-1.751953125,0.857421875,-0.0,0.00349301493513,0.00518637628425,-0.08190979123,-0.996620131469
1421851253756474018,56469,1421851253756474018,fcu,-1.75,0.857421875,-0.0,0.00349301493513,0.00518637628425,-0.08190979123,-0.996620131469
1421851253761473894,56470,1421851253761473894,fcu,-1.75,0.857421875,-0.0,0.00349301493513,0.00518637628425,-0.08190979123,-0.996620131469
1421851253766475916,56471,1421851253766475916,fcu,-1.75,0.857421875,-0.0,0.00357304041473,0.00421311517088,-0.0819139446592,-0.996624095993
1421851253771476030,56472,1421851253771476030,fcu,-1.75,0.857421875,-0.0,0.00357304041473,0.00421311517088,-0.0819139446592,-0.996624095993
1421851253776475906,56473,1421851253776475906,fcu,-1.75,0.857421875,-0.0,0.00357304041473,0.00421311517088,-0.0819139446592,-0.996624095993
1421851253781476021,56474,1421851253781476021,fcu,-1.748046875,0.857421875,-0.0,0.00365306248681,0.00323985003956,-0.0819180199692,-0.996627110062
1421851253786475897,56475,1421851253786475897,fcu,-1.748046875,0.857421875,-0.0,0.00365306248681,0.00323985003956,-0.0819180199692,-0.996627110062
1421851253791476011,56476,1421851253791476011,fcu,-1.748046875,0.857421875,-0.0,0.00373308107506,0.00226658181849,-0.0819220171562,-0.996629173674
1421851253796475887,56477,1421851253796475887,fcu,-1.748046875,0.857421875,-0.0,0.00373308107506,0.00226658181849,-0.0819220171562,-0.996629173674
1421851253801476002,56478,1421851253801476002,fcu,-1.748046875,0.857421875,-0.0,0.00275980877227,0.00218657878054,-0.0819241915511,-0.99663234403
1421851253806475878,56479,1421851253806475878,fcu,-1.748046875,0.857421875,-0.0,0.00283982267516,0.00121330503477,-0.0819271601501,-0.996633535322
1421851253811477900,56480,1421851253811477900,fcu,-1.74609375,0.859375,-0.0,0.00283982267516,0.00121330503477,-0.0819271601501,-0.996633535322
1421851253816478014,56481,1421851253816478014,fcu,-1.74609375,0.859375,-0.001953125,0.00283982267516,0.00121330503477,-0.0819271601501,-0.996633535322
1421851253821477890,56482,1421851253821477890,fcu,-1.74609375,0.859375,-0.001953125,0.00283982267516,0.00121330503477,-0.0819271601501,-0.996633535322
1421851253826478004,56483,1421851253826478004,fcu,-1.74609375,0.859375,-0.001953125,0.00283982267516,0.00121330503477,-0.0819271601501,-0.996633535322
1421851253831477880,56484,1421851253831477880,fcu,-1.74609375,0.859375,-0.001953125,0.00291983386978,0.0002400301319,-0.0819300506172,-0.996633776149
1421851253836477995,56485,1421851253836477995,fcu,-1.74609375,0.859375,-0.001953125,0.00291983386978,0.0002400301319,-0.0819300506172,-0.996633776149
1421851253841477871,56486,1421851253841477871,fcu,-1.744140625,0.859375,-0.001953125,0.00299984227983,-0.000733244999879,-0.0819328629497,-0.996633066513
1421851253846477985,56487,1421851253846477985,fcu,-1.744140625,0.859375,-0.001953125,0.00299984227983,-0.000733244999879,-0.0819328629497,-0.996633066513
1421851253851477861,56488,1421851253851477861,fcu,-1.744140625,0.859375,-0.001953125,0.00307984782901,-0.00170651943238,-0.0819355971449,-0.996631406413
1421851253856477976,56489,1421851253856477976,fcu,-1.744140625,0.859375,-0.001953125,0.00299984227983,-0.000733244999879,-0.0819328629497,-0.996633066513
1421851253861477852,56490,1421851253861477852,fcu,-1.744140625,0.859375,-0.001953125,0.00307984782901,-0.00170651943238,-0.0819355971449,-0.996631406413
1421851253866479874,56491,1421851253866479874,fcu,-1.744140625,0.859375,-0.001953125,0.00307984782901,-0.00170651943238,-0.0819355971449,-0.996631406413
1421851253871479988,56492,1421851253871479988,fcu,-1.744140625,0.859375,-0.001953125,0.00218657878054,-0.00275980877227,-0.0819355971449,-0.996631406413
1421851253876479864,56493,1421851253876479864,fcu,-1.7421875,0.859375,-0.001953125,0.00218657878054,-0.00275980877227,-0.0819355971449,-0.996631406413
1421851253881479979,56494,1421851253881479979,fcu,-1.7421875,0.859375,-0.001953125,0.00226658181849,-0.00373308107506,-0.0819372245976,-0.996627923519
1421851253886479855,56495,1421851253886479855,fcu,-1.7421875,0.859375,-0.001953125,0.00226658181849,-0.00373308107506,-0.0819372245976,-0.996627923519
1421851253891479969,56496,1421851253891479969,fcu,-1.7421875,0.859375,-0.001953125,0.00226658181849,-0.00373308107506,-0.0819372245976,-0.996627923519
1421851253896479845,56497,1421851253896479845,fcu,-1.7421875,0.859375,-0.001953125,0.00234658269486,-0.0047063498177,-0.0819387739089,-0.996623490166
1421851253901479959,56498,1421851253901479959,fcu,-1.740234375,0.859375,-0.001953125,0.00234658269486,-0.0047063498177,-0.0819387739089,-0.996623490166
1421851253906479836,56499,1421851253906479836,fcu,-1.740234375,0.859375,-0.001953125,0.00234658269486,-0.0047063498177,-0.0819387739089,-0.996623490166
1421851253911479950,56500,1421851253911479950,fcu,-1.740234375,0.859375,-0.001953125,0.00234658269486,-0.0047063498177,-0.0819387739089,-0.996623490166
1421851253916481972,56501,1421851253916481972,fcu,-1.740234375,0.859375,-0.001953125,0.00242658133336,-0.00567961407203,-0.0819402450773,-0.99661810636
1421851253921481848,56502,1421851253921481848,fcu,-1.73828125,0.859375,-0.001953125,0.00242658133336,-0.00567961407203,-0.0819402450773,-0.99661810636
1421851253926481962,56503,1421851253926481962,fcu,-1.73828125,0.859375,-0.001953125,0.00242658133336,-0.00567961407203,-0.0819402450773,-0.99661810636
1421851253931481838,56504,1421851253931481838,fcu,-1.73828125,0.859375,-0.001953125,0.00242658133336,-0.00567961407203,-0.0819402450773,-0.99661810636
1421851253936481953,56505,1421851253936481953,fcu,-1.73828125,0.859375,-0.001953125,0.00250657765769,-0.00665287290985,-0.0819416381013,-0.996611772104
1421851253941481829,56506,1421851253941481829,fcu,-1.73828125,0.859375,-0.001953125,0.00250657765769,-0.00665287290985,-0.0819416381013,-0.996611772104
1421851253946481943,56507,1421851253946481943,fcu,-1.736328125,0.859375,-0.001953125,0.00250657765769,-0.00665287290985,-0.0819416381013,-0.996611772104
1421851253951481819,56508,1421851253951481819,fcu,-1.736328125,0.859375,-0.001953125,0.00250657765769,-0.00665287290985,-0.0819416381013,-0.996611772104
1421851253956481934,56509,1421851253956481934,fcu,-1.736328125,0.859375,-0.001953125,0.00258657159156,-0.00762612540299,-0.0819429529798,-0.996604487405
1421851253961482048,56510,1421851253961482048,fcu,-1.736328125,0.859375,-0.001953125,0.00258657159156,-0.00762612540299,-0.0819429529798,-0.996604487405
1421851253966483831,56511,1421851253966483831,fcu,-1.734375,0.859375,-0.001953125,0.00258657159156,-0.00762612540299,-0.0819429529798,-0.996604487405
1421851253971483946,56512,1421851253971483946,fcu,-1.734375,0.859375,-0.001953125,0.00258657159156,-0.00762612540299,-0.0819429529798,-0.996604487405
1421851253976483822,56513,1421851253976483822,fcu,-1.734375,0.859375,-0.001953125,0.00258657159156,-0.00762612540299,-0.0819429529798,-0.996604487405
1421851253981483936,56514,1421851253981483936,fcu,-1.732421875,0.859375,-0.001953125,0.00266656305868,-0.0085993706233,-0.0819441897113,-0.99659625227
1421851253986484051,56515,1421851253986484051,fcu,-1.732421875,0.861328125,-0.001953125,0.00266656305868,-0.0085993706233,-0.0819441897113,-0.99659625227
1421851253991483927,56516,1421851253991483927,fcu,-1.732421875,0.861328125,-0.001953125,0.00266656305868,-0.0085993706233,-0.0819441897113,-0.99659625227
1421851253996484041,56517,1421851253996484041,fcu,-1.73046875,0.861328125,-0.001953125,0.00266656305868,-0.0085993706233,-0.0819441897113,-0.99659625227
1421851254001483917,56518,1421851254001483917,fcu,-1.728515625,0.861328125,-0.001953125,0.00274655198278,-0.00957260764261,-0.0819453482948,-0.996587066707
1421851254006484032,56519,1421851254006484032,fcu,-1.728515625,0.861328125,-0.001953125,0.00274655198278,-0.00957260764261,-0.0819453482948,-0.996587066707
1421851254011483908,56520,1421851254011483908,fcu,-1.7265625,0.861328125,-0.001953125,0.00274655198278,-0.00957260764261,-0.0819453482948,-0.996587066707
1421851254016485929,56521,1421851254016485929,fcu,-1.7265625,0.86328125,-0.001953125,0.00274655198278,-0.00957260764261,-0.0819453482948,-0.996587066707
1421851254021486044,56522,1421851254021486044,fcu,-1.724609375,0.86328125,-0.001953125,0.00274655198278,-0.00957260764261,-0.0819453482948,-0.996587066707
1421851254026485920,56523,1421851254026485920,fcu,-1.724609375,0.86328125,-0.001953125,0.00282653828755,-0.0105458355328,-0.0819464287291,-0.996576930725
1421851254031486034,56524,1421851254031486034,fcu,-1.72265625,0.86328125,-0.001953125,0.00274655198278,-0.00957260764261,-0.0819453482948,-0.996587066707
1421851254051486015,56528,1421851254051486015,fcu,-1.71875,0.865234375,-0.001953125,0.00282653828755,-0.0105458355328,-0.0819464287291,-0.996576930725
1421851254056485891,56529,1421851254056485891,fcu,-1.71875,0.865234375,-0.001953125,0.00282653828755,-0.0105458355328,-0.0819464287291,-0.996576930725
1421851254061486006,56530,1421851254061486006,fcu,-1.716796875,0.865234375,-0.001953125,0.00282653828755,-0.0105458355328,-0.0819464287291,-0.996576930725
1421851254066488028,56531,1421851254066488028,fcu,-1.716796875,0.8671875,-0.001953125,0.00282653828755,-0.0105458355328,-0.0819464287291,-0.996576930725
1421851254081487894,56534,1421851254081487894,fcu,-1.71484375,0.8671875,-0.001953125,0.00185331743553,-0.0106258563007,-0.0819360909881,-0.996579215811
1421851254086488008,56535,1421851254086488008,fcu,-1.71484375,0.8671875,-0.001953125,0.00185331743553,-0.0106258563007,-0.0819360909881,-0.996579215811
1421851254091487885,56536,1421851254091487885,fcu,-1.712890625,0.8671875,-0.001953125,0.00185331743553,-0.0106258563007,-0.0819360909881,-0.996579215811
1421851254096487999,56537,1421851254096487999,fcu,-1.712890625,0.8671875,-0.001953125,0.00193331183312,-0.0115990746483,-0.0819361428639,-0.996568207533
1421851254101487875,56538,1421851254101487875,fcu,-1.712890625,0.8671875,-0.001953125,0.00193331183312,-0.0115990746483,-0.0819361428639,-0.996568207533
1421851254111487865,56540,1421851254111487865,fcu,-1.7109375,0.8671875,-0.001953125,0.00193331183312,-0.0115990746483,-0.0819361428639,-0.996568207533
1421851254116487980,56541,1421851254116487980,fcu,-1.7109375,0.8671875,-0.001953125,0.000960099925768,-0.0116790848692,-0.0819247765742,-0.996569620332
1421851254121490002,56542,1421851254121490002,fcu,-1.708984375,0.8671875,-0.001953125,0.000960099925768,-0.0116790848692,-0.0819247765742,-0.996569620332
1421851254126489878,56543,1421851254126489878,fcu,-1.708984375,0.8671875,-0.001953125,0.000971504822461,-0.0116781417028,-0.0828979498746,-0.996489140478
1421851254136489868,56545,1421851254136489868,fcu,-1.70703125,0.8671875,-0.001953125,0.000971504822461,-0.0116781417028,-0.0828979498746,-0.996489140478
1421851254141489983,56546,1421851254141489983,fcu,-1.70703125,0.8671875,-0.001953125,-1.62941236129e-06,-0.0117590911505,-0.0828865059123,-0.99648961405
1421851254146489859,56547,1421851254146489859,fcu,-1.705078125,0.8671875,-0.001953125,-1.62941236129e-06,-0.0117590911505,-0.0828865059123,-0.99648961405
1421851254151489973,56548,1421851254151489973,fcu,-1.705078125,0.8671875,-0.001953125,-1.62941236129e-06,-0.0117590911505,-0.0828865059123,-0.99648961405
1421851254156489849,56549,1421851254156489849,fcu,-1.705078125,0.8671875,-0.001953125,-1.62941236129e-06,-0.0117590911505,-0.0828865059123,-0.99648961405
1421851254161489964,56550,1421851254161489964,fcu,-1.703125,0.8671875,-0.001953125,-1.62941236129e-06,-0.0117590911505,-0.0828865059123,-0.99648961405
1421851254166489840,56551,1421851254166489840,fcu,-1.703125,0.8671875,-0.001953125,-1.62941236129e-06,-0.0117590911505,-0.0828865059123,-0.99648961405
1421851254171491861,56552,1421851254171491861,fcu,-1.703125,0.869140625,-0.0,-1.62941236129e-06,-0.0117590911505,-0.0828865059123,-0.99648961405
1421851254176491976,56553,1421851254176491976,fcu,-1.701171875,0.869140625,-0.0,-0.00097476364563,-0.0118400293839,-0.0828749829033,-0.996489137296
1421851254181491852,56554,1421851254181491852,fcu,-1.69921875,0.869140625,-0.0,-1.62941236129e-06,-0.0117590911505,-0.0828865059123,-0.99648961405
1421851254186491966,56555,1421851254186491966,fcu,-1.69921875,0.869140625,-0.0,-0.000893786044659,-0.0128131538006,-0.0828720940015,-0.996477415836
1421851254201491833,56558,1421851254201491833,fcu,-1.6953125,0.87109375,-0.0,-0.000893786044659,-0.0128131538006,-0.0828720940015,-0.996477415836
1421851254206491947,56559,1421851254206491947,fcu,-1.6953125,0.87109375,-0.0,-0.000893786044659,-0.0128131538006,-0.0828720940015,-0.996477415836
1421851254221493959,56562,1421851254221493959,fcu,-1.69140625,0.87109375,-0.0,-0.000893786044659,-0.0128131538006,-0.0828720940015,-0.996477415836
1421851254226493835,56563,1421851254226493835,fcu,-1.69140625,0.87109375,-0.0,-0.000893786044659,-0.0128131538006,-0.0828720940015,-0.996477415836
1421851254231493950,56564,1421851254231493950,fcu,-1.689453125,0.873046875,-0.0,-0.000893786044659,-0.0128131538006,-0.0828720940015,-0.996477415836
1421851254236493826,56565,1421851254236493826,fcu,-1.689453125,0.873046875,0.001953125,7.93367032605e-05,-0.0127322179244,-0.0828845673286,-0.996477813517
1421851254241493940,56566,1421851254241493940,fcu,-1.6875,0.873046875,0.001953125,-0.000893786044659,-0.0128131538006,-0.0828720940015,-0.996477415836
1421851254246494055,56567,1421851254246494055,fcu,-1.6875,0.873046875,0.001953125,-0.000893786044659,-0.0128131538006,-0.0828720940015,-0.996477415836
1421851254251493931,56568,1421851254251493931,fcu,-1.685546875,0.873046875,0.001953125,-0.000893786044659,-0.0128131538006,-0.0828720940015,-0.996477415836
1421851254256494045,56569,1421851254256494045,fcu,-1.685546875,0.873046875,0.001953125,-0.000812807591307,-0.0137862659977,-0.0828691260668,-0.996464744062
1421851254261493921,56570,1421851254261493921,fcu,-1.68359375,0.875,0.001953125,-0.000893786044659,-0.0128131538006,-0.0828720940015,-0.996477415836
1421851254266494036,56571,1421851254266494036,fcu,-1.68359375,0.875,0.001953125,-0.000812807591307,-0.0137862659977,-0.0828691260668,-0.996464744062
1421851254271495819,56572,1421851254271495819,fcu,-1.681640625,0.875,0.001953125,-0.000812807591307,-0.0137862659977,-0.0828691260668,-0.996464744062
1421851254276495934,56573,1421851254276495934,fcu,-1.681640625,0.875,0.001953125,-0.000812807591307,-0.0137862659977,-0.0828691260668,-0.996464744062
1421851254281496048,56574,1421851254281496048,fcu,-1.681640625,0.875,0.001953125,-0.000812807591307,-0.0137862659977,-0.0828691260668,-0.996464744062
1421851254286495924,56575,1421851254286495924,fcu,-1.6796875,0.875,0.001953125,-0.000812807591307,-0.0137862659977,-0.0828691260668,-0.996464744062
1421851254291496038,56576,1421851254291496038,fcu,-1.6796875,0.875,0.001953125,-0.000799344055482,-0.0137870531812,-0.0838421964987,-0.996383342043
1421851254326498032,56583,1421851254326498032,fcu,-1.666015625,0.87890625,0.00390625,-0.000717414573701,-0.0147600726855,-0.0838391362324,-0.996369722947
1421851254331497908,56584,1421851254331497908,fcu,-1.6640625,0.880859375,0.00390625,-0.000717414573701,-0.0147600726855,-0.0838391362324,-0.996369722947
1421851254341497898,56586,1421851254341497898,fcu,-1.662109375,0.880859375,0.00390625,-0.000717414573701,-0.0147600726855,-0.0838391362324,-0.996369722947
1421851254346498013,56587,1421851254346498013,fcu,-1.66015625,0.880859375,0.00390625,-0.00070300010042,-0.0147607662474,-0.0848121134077,-0.996287373698
1421851254356498003,56589,1421851254356498003,fcu,-1.65234375,0.8828125,0.00390625,-0.00159304198627,-0.0158165049349,-0.0847935535894,-0.996271726819
1421851254361497879,56590,1421851254361497879,fcu,-1.6484375,0.884765625,0.00390625,-0.00159304198627,-0.0158165049349,-0.0847935535894,-0.996271726819
1421851254366497993,56591,1421851254366497993,fcu,-1.646484375,0.884765625,0.00390625,-0.00159304198627,-0.0158165049349,-0.0847935535894,-0.996271726819
1421851254371497869,56592,1421851254371497869,fcu,-1.642578125,0.88671875,0.00390625,-0.0015775954235,-0.0158180530978,-0.0857664346103,-0.996188445568
1421851254376499891,56593,1421851254376499891,fcu,-1.638671875,0.88671875,0.00390625,-0.0015775954235,-0.0158180530978,-0.0857664346103,-0.996188445568
1421851254381500006,56594,1421851254381500006,fcu,-1.6328125,0.888671875,0.005859375,-0.00149374932743,-0.0167908780066,-0.085762234105,-0.996173014255
1421851254386499882,56595,1421851254386499882,fcu,-1.630859375,0.888671875,0.005859375,-0.000520923560548,-0.0167071178316,-0.0857785905496,-0.996173997982
1421851254391499996,56596,1421851254391499996,fcu,-1.626953125,0.890625,0.005859375,-0.00149374932743,-0.0167908780066,-0.085762234105,-0.996173014255
1421851254401499987,56598,1421851254401499987,fcu,-1.62109375,0.892578125,0.005859375,-0.000520923560548,-0.0167071178316,-0.0857785905496,-0.996173997982
1421851254406499863,56599,1421851254406499863,fcu,-1.6171875,0.892578125,0.005859375,-0.0015775954235,-0.0158180530978,-0.0857664346103,-0.996188445568
1421851254411499977,56600,1421851254411499977,fcu,-1.615234375,0.892578125,0.005859375,-0.000604754546997,-0.0157342892847,-0.0857818410287,-0.996189511169
1421851254416499853,56601,1421851254416499853,fcu,-1.61328125,0.89453125,0.005859375,-0.000604754546997,-0.0157342892847,-0.0857818410287,-0.996189511169
1421851254426501989,56603,1421851254426501989,fcu,-1.609375,0.89453125,0.005859375,-0.000688584956706,-0.0147614457323,-0.0857850096999,-0.996204074315
1421851254431501865,56604,1421851254431501865,fcu,-1.607421875,0.896484375,0.005859375,-0.000688584956706,-0.0147614457323,-0.0857850096999,-0.996204074315
1421851254436501980,56605,1421851254436501980,fcu,-1.60546875,0.896484375,0.005859375,-0.00174528302214,-0.0138723589522,-0.0857745902372,-0.996216458062
1421851254441501856,56606,1421851254441501856,fcu,-1.6015625,0.896484375,0.005859375,-0.000745482417451,-0.0137900704243,-0.087733669366,-0.996048232503
1421851254446501970,56607,1421851254446501970,fcu,-1.59765625,0.8984375,0.005859375,-0.00180392657256,-0.0129030394734,-0.0877241403466,-0.996059602946
1421851254451501846,56608,1421851254451501846,fcu,-1.595703125,0.8984375,0.005859375,-0.00180392657256,-0.0129030394734,-0.0877241403466,-0.996059602946
1421851254456501961,56609,1421851254456501961,fcu,-1.591796875,0.8984375,0.005859375,-0.000916939611815,-0.0118446478092,-0.0877396452398,-0.996072596849
1421851254461501837,56610,1421851254461501837,fcu,-1.58984375,0.8984375,0.005859375,-0.00188966616533,-0.011930325395,-0.0877280363652,-0.996071226436
1421851254466501951,56611,1421851254466501951,fcu,-1.587890625,0.900390625,0.005859375,-0.00188966616533,-0.011930325395,-0.0877280363652,-0.996071226436
1421851254471501827,56612,1421851254471501827,fcu,-1.5859375,0.900390625,0.005859375,-0.00197540395598,-0.0109575999389,-0.0877318487199,-0.996081899998
1421851254476503849,56613,1421851254476503849,fcu,-1.583984375,0.900390625,0.0078125,-0.00206113986274,-0.00998486403282,-0.0877355774069,-0.996091623622
1421851254481503963,56614,1421851254481503963,fcu,-1.58203125,0.900390625,0.0078125,-0.00214687380384,-0.00901211860446,-0.0877392224227,-0.996100397299
1421851254486503839,56615,1421851254486503839,fcu,-1.580078125,0.90234375,0.0078125,-0.00214687380384,-0.00901211860446,-0.0877392224227,-0.996100397299
1421851254491503954,56616,1421851254491503954,fcu,-1.578125,0.90234375,0.0078125,-0.00223260569753,-0.00803936458147,-0.087742783764,-0.996108221021
1421851254496503830,56617,1421851254496503830,fcu,-1.576171875,0.90234375,0.0078125,-0.00223260569753,-0.00803936458147,-0.087742783764,-0.996108221021
1421851254501503944,56618,1421851254501503944,fcu,-1.57421875,0.90234375,0.0078125,-0.00231833546203,-0.00706660289155,-0.0877462614272,-0.996115094781
1421851254506503820,56619,1421851254506503820,fcu,-1.572265625,0.90234375,0.0078125,-0.00231833546203,-0.00706660289155,-0.0877462614272,-0.996115094781
1421851254511503935,56620,1421851254511503935,fcu,-1.5703125,0.904296875,0.0078125,-0.00248978827647,-0.00512106022169,-0.0877529657063,-0.996125992386
1421851254516504049,56621,1421851254516504049,fcu,-1.568359375,0.904296875,0.0078125,-0.00248978827647,-0.00512106022169,-0.0877529657063,-0.996125992386
1421851254521503925,56622,1421851254521503925,fcu,-1.56640625,0.904296875,0.0078125,-0.0025755111629,-0.00414828109717,-0.0877561923158,-0.996130016221
1421851254526505947,56623,1421851254526505947,fcu,-1.564453125,0.904296875,0.0078125,-0.0025755111629,-0.00414828109717,-0.0877561923158,-0.996130016221
1421851254531505823,56624,1421851254531505823,fcu,-1.5625,0.904296875,0.0078125,-0.00266123159313,-0.00317549801654,-0.0877593352345,-0.996133090073
1421851254536505938,56625,1421851254536505938,fcu,-1.560546875,0.90625,0.0078125,-0.00266123159313,-0.00317549801654,-0.0877593352345,-0.996133090073
1421851254541506052,56626,1421851254541506052,fcu,-1.55859375,0.90625,0.0078125,-0.00274694948541,-0.00220271190753,-0.0877623944594,-0.996135213938
1421851254546505928,56627,1421851254546505928,fcu,-1.556640625,0.90625,0.0078125,-0.002832664758,-0.00122992369784,-0.0877653699875,-0.996136387815
1421851254551506042,56628,1421851254551506042,fcu,-1.5546875,0.908203125,0.0078125,-0.002832664758,-0.00122992369784,-0.0877653699875,-0.996136387815
1421851254556505919,56629,1421851254556505919,fcu,-1.552734375,0.908203125,0.0078125,-0.002832664758,-0.00122992369784,-0.0877653699875,-0.996136387815
1421851254561506033,56630,1421851254561506033,fcu,-1.55078125,0.908203125,0.0078125,-0.00291837732915,-0.000257134315207,-0.0877682618161,-0.996136611702
1421851254566505909,56631,1421851254566505909,fcu,-1.55078125,0.908203125,0.0078125,-0.00291812482987,-0.000259984170003,-0.0887410094702,-0.996050425528
1421851254571506023,56632,1421851254571506023,fcu,-1.546875,0.91015625,0.0078125,-0.00291812482987,-0.000259984170003,-0.0887410094702,-0.996050425528
1421851254576508045,56633,1421851254576508045,fcu,-1.544921875,0.91015625,0.0078125,-0.00291812482987,-0.000259984170003,-0.0887410094702,-0.996050425528
1421851254581507921,56634,1421851254581507921,fcu,-1.54296875,0.91015625,0.0078125,-0.00291812482987,-0.000259984170003,-0.0887410094702,-0.996050425528
1421851254591507912,56636,1421851254591507912,fcu,-1.5390625,0.91015625,0.0078125,-0.00300478456668,0.000712721293039,-0.088743816886,-0.996049696683
1421851254596508026,56637,1421851254596508026,fcu,-1.5390625,0.91015625,0.0078125,-0.00300478456668,0.000712721293039,-0.088743816886,-0.996049696683
1421851254601507902,56638,1421851254601507902,fcu,-1.537109375,0.912109375,0.009765625,-0.0039774877612,0.000626057083284,-0.0887444705864,-0.99604628737
1421851254606508017,56639,1421851254606508017,fcu,-1.53515625,0.912109375,0.009765625,-0.00309144143791,0.00168542607638,-0.0887465396691,-0.996048017932
1421851254611507893,56640,1421851254611507893,fcu,-1.53515625,0.912109375,0.009765625,-0.0039774877612,0.000626057083284,-0.0887444705864,-0.99604628737
1421851254616508007,56641,1421851254616508007,fcu,-1.533203125,0.912109375,0.009765625,-0.00300478456668,0.000712721293039,-0.088743816886,-0.996049696683
1421851254621507883,56642,1421851254621507883,fcu,-1.533203125,0.912109375,0.009765625,-0.0039774877612,0.000626057083284,-0.0887444705864,-0.99604628737
1421851254626507998,56643,1421851254626507998,fcu,-1.53125,0.912109375,0.009765625,-0.00300478456668,0.000712721293039,-0.088743816886,-0.996049696683
1421851254631510019,56644,1421851254631510019,fcu,-1.53125,0.912109375,0.009765625,-0.0039774877612,0.000626057083284,-0.0887444705864,-0.99604628737
1421851254636509895,56645,1421851254636509895,fcu,-1.53125,0.912109375,0.009765625,-0.00389082877747,-0.000346645174319,-0.0887407132644,-0.996047100843
1421851254641510010,56646,1421851254641510010,fcu,-1.529296875,0.912109375,0.009765625,-0.00291812482987,-0.000259984170003,-0.0887410094702,-0.996050425528
1421851254646509886,56647,1421851254646509886,fcu,-1.529296875,0.912109375,0.009765625,-0.00389082877747,-0.000346645174319,-0.0887407132644,-0.996047100843
1421851254651510000,56648,1421851254651510000,fcu,-1.529296875,0.912109375,0.009765625,-0.00291812482987,-0.000259984170003,-0.0887410094702,-0.996050425528
1421851254656509876,56649,1421851254656509876,fcu,-1.529296875,0.912109375,0.009765625,-0.00380416608315,-0.00131934710134,-0.0887368713127,-0.996046964411
1421851254661509991,56650,1421851254661509991,fcu,-1.52734375,0.912109375,0.009765625,-0.00380416608315,-0.00131934710134,-0.0887368713127,-0.996046964411
1421851254666509867,56651,1421851254666509867,fcu,-1.52734375,0.912109375,0.009765625,-0.0037174997609,-0.00229204777013,-0.0887329447349,-0.996045878076
1421851254671509981,56652,1421851254671509981,fcu,-1.52734375,0.912109375,0.009765625,-0.00363082989337,-0.00326474625305,-0.0887289335347,-0.996043841836
1421851254676509857,56653,1421851254676509857,fcu,-1.52734375,0.912109375,0.009765625,-0.00265812925237,-0.00317809536091,-0.0887320794537,-0.996046912617
1421851254686511993,56655,1421851254686511993,fcu,-1.52734375,0.912109375,0.009765625,-0.00345747985307,-0.00521013295075,-0.0887206572829,-0.996036919657
1421851254691511869,56656,1421851254691511869,fcu,-1.52734375,0.912109375,0.009765625,-0.00345747985307,-0.00521013295075,-0.0887206572829,-0.996036919657
1421851254696511984,56657,1421851254696511984,fcu,-1.52734375,0.912109375,0.009765625,-0.00328411662354,-0.00715549977337,-0.0887120425887,-0.996026197899
1421851254701511860,56658,1421851254701511860,fcu,-1.52734375,0.912109375,0.009765625,-0.00231143337827,-0.00706886352104,-0.0887189880791,-0.996028930101
1421851254706511974,56659,1421851254706511974,fcu,-1.52734375,0.912109375,0.009765625,-0.00319743026948,-0.00812817341247,-0.0887076083359,-0.99601941219
1421851254711511850,56660,1421851254711511850,fcu,-1.52734375,0.912109375,0.009765625,-0.00213807188446,-0.00901421086326,-0.0887119347251,-0.996014239501
1421851254716511965,56661,1421851254716511965,fcu,-1.52734375,0.912109375,0.009765625,-0.0030240484961,-0.0100734965082,-0.0886984860402,-0.996002991147
1421851254721511841,56662,1421851254721511841,fcu,-1.52734375,0.912109375,0.009765625,-0.0028506551869,-0.0120187811765,-0.0886890253868,-0.995982770654
1421851254726511955,56663,1421851254726511955,fcu,-1.52734375,0.912109375,0.009765625,-0.00187801455773,-0.011932165083,-0.0887007201857,-0.995985079575
1421851254731513977,56664,1421851254731513977,fcu,-1.52734375,0.912109375,0.009765625,-0.00267725100331,-0.0139640199969,-0.0886792264117,-0.99595875079
1421851254736513853,56665,1421851254736513853,fcu,-1.52734375,0.912109375,0.009765625,-0.00170463391372,-0.0138774125451,-0.0886928208622,-0.995960890383
1421851254741513968,56666,1421851254741513968,fcu,-1.52734375,0.912109375,0.009765625,-0.00250383660683,-0.0159092055488,-0.0886690891522,-0.995930931646
1421851254746513844,56667,1421851254746513844,fcu,-1.52734375,0.912109375,0.009765625,-0.00144455096192,-0.0167951821605,-0.0886803375065,-0.995917482962
1421851254751513958,56668,1421851254751513958,fcu,-1.52734375,0.912109375,0.009765625,-0.00233041265897,-0.0178543304119,-0.0886586136472,-0.995899313329
1421851254756513834,56669,1421851254756513834,fcu,-1.52734375,0.912109375,0.009765625,-0.00118445561144,-0.0197128076217,-0.0886670930019,-0.995865527518
1421851254761513948,56670,1421851254761513948,fcu,-1.52734375,0.912109375,0.009765625,-0.00109775479187,-0.0206853130796,-0.0886625090423,-0.995846309552
1421851254766513824,56671,1421851254766513824,fcu,-1.52734375,0.912109375,0.009765625,-0.0010110529254,-0.0216577988104,-0.0886578405275,-0.995826141872
1421851254771513939,56672,1421851254771513939,fcu,-1.52734375,0.912109375,0.009765625,-0.000924350094709,-0.0226302638867,-0.088653087462,-0.995805024499
1421851254776514053,56673,1421851254776514053,fcu,-1.52734375,0.912109375,0.009765625,-0.000837646382493,-0.0236027073811,-0.0886482498504,-0.995782957452
1421851254781515837,56674,1421851254781515837,fcu,-1.52734375,0.912109375,0.009765625,-0.000664236644222,-0.0255475259148,-0.0886383210072,-0.995735974422
1421851254786515951,56675,1421851254786515951,fcu,-1.52734375,0.912109375,0.009765625,-0.000577530783544,-0.0265198990992,-0.0886332297851,-0.995711058484
1421851254791515827,56676,1421851254791515827,fcu,-1.52734375,0.912109375,0.009765625,-0.00049082437209,-0.0274922469923,-0.0886280540357,-0.995685192962
1421851254796515942,56677,1421851254796515942,fcu,-1.52734375,0.912109375,0.009765625,-0.000404117492549,-0.0284645686668,-0.0886227937641,-0.995658377881
1421851254801515818,56678,1421851254801515818,fcu,-1.521484375,0.9140625,0.009765625,-0.000111915539239,-0.0304097988277,-0.092500403647,-0.995248163493
1421851254821516037,56682,1421851254821516037,fcu,-1.474609375,0.923828125,0.009765625,0.000250103914149,-0.0342971808967,-0.0924773558529,-0.995123901575
1421851254826515913,56683,1421851254826515913,fcu,-1.46484375,0.92578125,0.009765625,0.000431112554986,-0.0362406793883,-0.092465302774,-0.995056076351
1421851254831517935,56684,1421851254831517935,fcu,-1.455078125,0.927734375,0.009765625,0.000431112554986,-0.0362406793883,-0.092465302774,-0.995056076351
1421851254836518049,56685,1421851254836518049,fcu,-1.447265625,0.9296875,0.009765625,0.00061211955126,-0.0381840396329,-0.0924528969681,-0.99498445529
1421851254846518040,56687,1421851254846518040,fcu,-1.43359375,0.93359375,0.009765625,0.00167424987334,-0.0390653670937,-0.0924847556739,-0.994946060824
1421851254851517916,56688,1421851254851517916,fcu,-1.42578125,0.935546875,0.009765625,0.00176471453793,-0.0400369615243,-0.092479281169,-0.994907789722
1421851254856518030,56689,1421851254856518030,fcu,-1.41796875,0.9375,0.009765625,0.00176471453793,-0.0400369615243,-0.092479281169,-0.994907789722
1421851254861517906,56690,1421851254861517906,fcu,-1.412109375,0.9375,0.009765625,0.00176471453793,-0.0400369615243,-0.092479281169,-0.994907789722
1421851254866518021,56691,1421851254866518021,fcu,-1.404296875,0.939453125,0.009765625,0.00176471453793,-0.0400369615243,-0.092479281169,-0.994907789722
1421851254871517897,56692,1421851254871517897,fcu,-1.396484375,0.94140625,0.009765625,0.00176471453793,-0.0400369615243,-0.092479281169,-0.994907789722
1421851254876518011,56693,1421851254876518011,fcu,-1.390625,0.943359375,0.009765625,0.00176471453793,-0.0400369615243,-0.092479281169,-0.994907789722
1421851254881517887,56694,1421851254881517887,fcu,-1.384765625,0.943359375,0.009765625,0.00167424987334,-0.0390653670937,-0.0924847556739,-0.994946060824
1421851254886519909,56695,1421851254886519909,fcu,-1.375,0.947265625,0.009765625,0.00158378361206,-0.0380937354074,-0.0924901419784,-0.994983383072
1421851254891520023,56696,1421851254891520023,fcu,-1.365234375,0.94921875,0.009765625,0.00149331584036,-0.0371220673922,-0.0924954400774,-0.99501975643
1421851254896519899,56697,1421851254896519899,fcu,-1.357421875,0.94921875,0.009765625,0.00131237611083,-0.0351786260813,-0.092505771639,-0.995089656337
1421851254901520014,56698,1421851254901520014,fcu,-1.349609375,0.951171875,0.009765625,0.000250103914149,-0.0342971808967,-0.0924773558529,-0.995123901575
1421851254906519890,56699,1421851254906519890,fcu,-1.34375,0.953125,0.009765625,0.000950482323077,-0.0312913482863,-0.0925253760798,-0.995218068007
1421851254911520004,56700,1421851254911520004,fcu,-1.337890625,0.955078125,0.009765625,-0.000111915539239,-0.0304097988277,-0.092500403647,-0.995248163493
1421851254916519880,56701,1421851254916519880,fcu,-1.330078125,0.955078125,0.009765625,0.000588574032132,-0.0274035930238,-0.0925435686972,-0.995331293873
1421851254921519995,56702,1421851254921519995,fcu,-1.32421875,0.95703125,0.009765625,-0.000564436807192,-0.0255499256706,-0.0925272285097,-0.995382135008
1421851254926519871,56703,1421851254926519871,fcu,-1.318359375,0.958984375,0.009765625,-0.000835943798991,-0.0226337019651,-0.092542264578,-0.995451126877
1421851254931519985,56704,1421851254931519985,fcu,-1.3125,0.9609375,0.009765625,-0.00101694461795,-0.0206894433571,-0.0925518473557,-0.995492374812
1421851254936522007,56705,1421851254936522007,fcu,-1.306640625,0.9609375,0.009765625,-0.00128843835687,-0.0177729097806,-0.092565559529,-0.995547126355
1421851254941521883,56706,1421851254941521883,fcu,-1.302734375,0.962890625,0.009765625,-0.00155992103704,-0.014856223658,-0.0925784772063,-0.995593333055
1421851254946521997,56707,1421851254946521997,fcu,-1.296875,0.962890625,0.009765625,-0.00174090219604,-0.0129116938577,-0.0925866475494,-0.995619390187
1421851254951521873,56708,1421851254951521873,fcu,-1.29296875,0.96484375,0.009765625,-0.00210284390065,-0.00902249391244,-0.0926019286361,-0.995660110411
1421851254956521988,56709,1421851254956521988,fcu,-1.2890625,0.96484375,0.009765625,-0.00325614046785,-0.00716827372924,-0.0926020832113,-0.995672068297
1421851254961521864,56710,1421851254961521864,fcu,-1.283203125,0.966796875,0.009765625,-0.00370851810983,-0.00230655172972,-0.0926230620735,-0.995691666674
1421851254966521978,56711,1421851254966521978,fcu,-1.27734375,0.96875,0.009765625,-0.00397990294468,0.000610515284799,-0.0926345894359,-0.995692030943
1421851254971521854,56712,1421851254971521854,fcu,-1.271484375,0.96875,0.009765625,-0.00434169585118,0.00449992549213,-0.0926487224321,-0.995679222732
1421851254976521969,56713,1421851254976521969,fcu,-1.265625,0.970703125,0.009765625,-0.00461299735705,0.00741694133286,-0.0926583944459,-0.995659646252
1421851254981521845,56714,1421851254981521845,fcu,-1.26171875,0.97265625,0.009765625,-0.00585655319587,0.0102433932183,-0.092677318671,-0.995626279426
1421851254986523867,56715,1421851254986523867,fcu,-1.255859375,0.97265625,0.009765625,-0.00621812035981,0.0141325082886,-0.0926917150164,-0.995575136871
1421851254991523981,56716,1421851254991523981,fcu,-1.248046875,0.974609375,0.009765625,-0.00648923376886,0.0170492063198,-0.0927015841119,-0.995526810645
1421851254996523857,56717,1421851254996523857,fcu,-1.2421875,0.9765625,0.009765625,-0.00666994524213,0.0189935919222,-0.0927077214785,-0.995489846093
1421851255001523972,56718,1421851255001523972,fcu,-1.236328125,0.9765625,0.009765625,-0.00800336239179,0.022791581614,-0.0927412368573,-0.995397183532
1421851255006523848,56719,1421851255006523848,fcu,-1.23046875,0.978515625,0.009765625,-0.00827422937485,0.0257077568475,-0.0927515665673,-0.995322960282
1421851255011523962,56720,1421851255011523962,fcu,-1.224609375,0.978515625,0.009765625,-0.00863527447772,0.0295956429309,-0.0927641011335,-0.995210707084
1421851255016523838,56721,1421851255016523838,fcu,-1.220703125,0.98046875,0.009765625,-0.00881574796203,0.0315394203327,-0.0927698376279,-0.995148885735
1421851255021523952,56722,1421851255021523952,fcu,-1.216796875,0.98046875,0.009765625,-0.00908639491825,0.034454858531,-0.0927777788217,-0.995049035931
1421851255026523829,56723,1421851255026523829,fcu,-1.212890625,0.982421875,0.009765625,-0.0103285809934,0.037279372919,-0.0928213735906,-0.994931033476
1421851255031523943,56724,1421851255031523943,fcu,-1.208984375,0.982421875,0.009765625,-0.0105088405449,0.0392226194366,-0.0928275921166,-0.994853852853
1421851255036525965,56725,1421851255036525965,fcu,-1.20703125,0.982421875,0.009765625,-0.0107791544924,0.0421372063548,-0.0928362559442,-0.994730966267
1421851255041525841,56726,1421851255041525841,fcu,-1.203125,0.984375,0.009765625,-0.0109593125349,0.0440800649186,-0.0928415891561,-0.994644298565
1421851255046525955,56727,1421851255046525955,fcu,-1.201171875,0.984375,0.009765625,-0.0111394287709,0.0460227553304,-0.0928465682055,-0.994553836598
1421851255051525831,56728,1421851255051525831,fcu,-1.19921875,0.984375,0.009765625,-0.0122906488958,0.0478745723289,-0.0928979898754,-0.994448052314
1421851255056525946,56729,1421851255056525946,fcu,-1.197265625,0.986328125,0.009765625,-0.0124705836206,0.0498168991081,-0.0929041573504,-0.9943498271
1421851255061525822,56730,1421851255061525822,fcu,-1.1953125,0.986328125,0.009765625,-0.0126504707739,0.051759035851,-0.0929099704244,-0.994247808744
1421851255066525936,56731,1421851255066525936,fcu,-1.193359375,0.986328125,0.009765625,-0.0128303096695,0.053700975149,-0.0929154290751,-0.994141997635
1421851255071526051,56732,1421851255071526051,fcu,-1.19140625,0.986328125,0.009765625,-0.0130100996214,0.055642709594,-0.0929205332816,-0.994032394176
1421851255076525927,56733,1421851255076525927,fcu,-1.19140625,0.986328125,0.009765625,-0.0130999760291,0.0566134976819,-0.0929229524622,-0.993976170446
1421851255096528053,56737,1421851255096528053,fcu,-1.1875,0.986328125,0.009765625,-0.0144298002732,0.0604053183803,-0.0929907768813,-0.993728179026
1421851255101527929,56738,1421851255101527929,fcu,-1.1875,0.98828125,0.009765625,-0.0145195537816,0.0613758248644,-0.0929937007108,-0.993667128524
1421851255111527920,56740,1421851255111527920,fcu,-1.185546875,0.98828125,0.0078125,-0.0146092934432,0.062346272816,-0.0929965358547,-0.993605130386
1421851255116528034,56741,1421851255116528034,fcu,-1.185546875,0.98828125,0.0078125,-0.0146092934432,0.062346272816,-0.0929965358547,-0.993605130386
1421851255121527910,56742,1421851255121527910,fcu,-1.185546875,0.98828125,0.0078125,-0.0146092934432,0.062346272816,-0.0929965358547,-0.993605130386
1421851255126528025,56743,1421851255126528025,fcu,-1.185546875,0.98828125,0.0078125,-0.0144596095387,0.0613899748476,-0.092023278467,-0.993757468853
1421851255131527901,56744,1421851255131527901,fcu,-1.173828125,0.990234375,0.0078125,-0.0144596095387,0.0613899748476,-0.092023278467,-0.993757468853
1421851255136528015,56745,1421851255136528015,fcu,-1.1640625,0.9921875,0.0078125,-0.0144596095387,0.0613899748476,-0.092023278467,-0.993757468853
1421851255141530037,56746,1421851255141530037,fcu,-1.15234375,0.994140625,0.0078125,-0.0143708038332,0.0604193811764,-0.0920202950192,-0.993818516471
1421851255146529913,56747,1421851255146529913,fcu,-1.14453125,0.994140625,0.0078125,-0.0142819844225,0.0594487298848,-0.0920172238141,-0.99387861631
1421851255151530027,56748,1421851255151530027,fcu,-1.134765625,0.99609375,0.0078125,-0.0141931513915,0.0584780218984,-0.0920140648544,-0.993937768312
1421851255156529903,56749,1421851255156529903,fcu,-1.126953125,0.998046875,0.0078125,-0.0141043048249,0.057507258143,-0.0920108181434,-0.993995972422
1421851255161530018,56750,1421851255161530018,fcu,-1.12109375,1.0,0.0078125,-0.0139265714236,0.0555655670286,-0.0920040614794,-0.994109536742
1421851255166529894,56751,1421851255166529894,fcu,-1.11328125,1.0,0.0078125,-0.0137843630891,0.0546081288504,-0.0910296436608,-0.994254267063
1421851255176529884,56753,1421851255176529884,fcu,-1.09375,1.00390625,0.0078125,-0.0136084468287,0.0526659498459,-0.0910222552116,-0.994362135722
1421851255181529999,56754,1421851255181529999,fcu,-1.083984375,1.005859375,0.0078125,-0.0134324786562,0.0507235699369,-0.0910145195402,-0.994466211192
1421851255186529875,56755,1421851255186529875,fcu,-1.076171875,1.0078125,0.0078125,-0.0133444753127,0.0497523069586,-0.0910105215053,-0.994516826357
1421851255191531897,56756,1421851255191531897,fcu,-1.068359375,1.009765625,0.0078125,-0.0132564592429,0.0487809965328,-0.091006436676,-0.994566493076
1421851255201531887,56758,1421851255201531887,fcu,-1.0546875,1.01171875,0.005859375,-0.0129923355152,0.0458667898338,-0.0909936614612,-0.994709802094
1421851255206532001,56759,1421851255206532001,fcu,-1.048828125,1.013671875,0.005859375,-0.0120209331833,0.0459556289462,-0.0909488262922,-0.994722015605
1421851255211531878,56760,1421851255211531878,fcu,-1.044921875,1.013671875,0.005859375,-0.0129042693798,0.0448952988816,-0.0909892294942,-0.994755674568
1421851255216531992,56761,1421851255216531992,fcu,-1.0390625,1.015625,0.005859375,-0.0118447000217,0.044012596412,-0.0909417730731,-0.994812639822
1421851255221531868,56762,1421851255221531868,fcu,-1.03515625,1.015625,0.005859375,-0.0118447000217,0.044012596412,-0.0909417730731,-0.994812639822
1421851255226531982,56763,1421851255226531982,fcu,-1.02734375,1.017578125,0.005859375,-0.011756566455,0.043041016721,-0.0909381163686,-0.99485652886
1421851255231531858,56764,1421851255231531858,fcu,-1.01953125,1.01953125,0.005859375,-0.011756566455,0.043041016721,-0.0909381163686,-0.99485652886
1421851255236531973,56765,1421851255236531973,fcu,-1.01171875,1.01953125,0.005859375,-0.0116684216763,0.042069395983,-0.0909343729387,-0.99489946913
1421851255241533995,56766,1421851255241533995,fcu,-1.00390625,1.021484375,0.005859375,-0.0106968347539,0.0421581790072,-0.0908932461898,-0.994910389666
1421851255246533871,56767,1421851255246533871,fcu,-0.998046875,1.021484375,0.005859375,-0.0116684216763,0.042069395983,-0.0909343729387,-0.99489946913
1421851255251533985,56768,1421851255251533985,fcu,-0.9921875,1.0234375,0.005859375,-0.0106968347539,0.0421581790072,-0.0908932461898,-0.994910389666
1421851255256533861,56769,1421851255256533861,fcu,-0.986328125,1.0234375,0.005859375,-0.0116684216763,0.042069395983,-0.0909343729387,-0.99489946913
1421851255266533852,56771,1421851255266533852,fcu,-0.9765625,1.025390625,0.005859375,-0.0106968347539,0.0421581790072,-0.0908932461898,-0.994910389666
1421851255271533966,56772,1421851255271533966,fcu,-0.97265625,1.02734375,0.005859375,-0.0106968347539,0.0421581790072,-0.0908932461898,-0.994910389666
1421851255276533842,56773,1421851255276533842,fcu,-0.96875,1.02734375,0.005859375,-0.0108271352232,0.0431192501259,-0.0918675476003,-0.994778295455
1421851255281533957,56774,1421851255281533957,fcu,-0.9609375,1.02734375,0.005859375,-0.0108271352232,0.0431192501259,-0.0918675476003,-0.994778295455
1421851255286533833,56775,1421851255286533833,fcu,-0.955078125,1.029296875,0.005859375,-0.0109162603775,0.0440907463515,-0.0918702127173,-0.994734489882
1421851255291535854,56776,1421851255291535854,fcu,-0.94921875,1.029296875,0.005859375,-0.0109162603775,0.0440907463515,-0.0918702127173,-0.994734489882
1421851255296535969,56777,1421851255296535969,fcu,-0.9453125,1.03125,0.005859375,-0.0100339933328,0.0451518985491,-0.0918287403635,-0.994700008786
1421851255301535845,56778,1421851255301535845,fcu,-0.94140625,1.03125,0.005859375,-0.0101231421702,0.0461233117201,-0.0918302816048,-0.994654392987
1421851255306535959,56779,1421851255306535959,fcu,-0.935546875,1.033203125,0.005859375,-0.0101231421702,0.0461233117201,-0.0918302816048,-0.994654392987
1421851255311535835,56780,1421851255311535835,fcu,-0.931640625,1.033203125,0.005859375,-0.0102122813533,0.0470946809046,-0.0918317352699,-0.994607828613
1421851255316535950,56781,1421851255316535950,fcu,-0.9296875,1.033203125,0.005859375,-0.0103014107973,0.048066005176,-0.0918331013574,-0.994560315706
1421851255321535826,56782,1421851255321535826,fcu,-0.923828125,1.03515625,0.005859375,-0.0103905304171,0.0490372836082,-0.0918343798661,-0.994511854313
1421851255326535940,56783,1421851255326535940,fcu,-0.919921875,1.03515625,0.005859375,-0.0104796401277,0.0500085152748,-0.0918355707947,-0.994462444479
1421851255331536055,56784,1421851255331536055,fcu,-0.916015625,1.03515625,0.005859375,-0.00959762940593,0.0510693591783,-0.0917868454963,-0.994421933113
1421851255336535931,56785,1421851255336535931,fcu,-0.91015625,1.037109375,0.005859375,-0.0106578294814,0.0519508346062,-0.0918376899072,-0.994360779681
1421851255341537952,56786,1421851255341537952,fcu,-0.904296875,1.037109375,0.005859375,-0.00968676910481,0.0520404950639,-0.0917869128867,-0.994370713567
1421851255351537943,56788,1421851255351537943,fcu,-0.896484375,1.0390625,0.00390625,-0.00986502070351,0.0539826170199,-0.0917867850631,-0.994265429608
1421851255356537819,56789,1421851255356537819,fcu,-0.892578125,1.0390625,0.00390625,-0.00995413243334,0.0549536012382,-0.0917865898492,-0.994211365295
1421851255361537933,56790,1421851255361537933,fcu,-0.888671875,1.0390625,0.00390625,-0.0100432346702,0.0559245330487,-0.0917863071008,-0.994156352829
1421851255366538048,56791,1421851255366538048,fcu,-0.884765625,1.041015625,0.00390625,-0.010132327329,0.0568954115254,-0.0917859368181,-0.994100392261
1421851255371537924,56792,1421851255371537924,fcu,-0.880859375,1.041015625,0.00390625,-0.0102214103249,0.0578662357424,-0.0917854790016,-0.994043483645
1421851255376538038,56793,1421851255376538038,fcu,-0.87890625,1.041015625,0.00390625,-0.0102214103249,0.0578662357424,-0.0917854790016,-0.994043483645
1421851255381537914,56794,1421851255381537914,fcu,-0.876953125,1.041015625,0.00390625,-0.0103104835729,0.0588370047738,-0.0917849336516,-0.993985627035
1421851255386538029,56795,1421851255386538029,fcu,-0.875,1.04296875,0.00390625,-0.0103995469881,0.0598077176939,-0.0917843007687,-0.993926822487
1421851255391537905,56796,1421851255391537905,fcu,-0.87109375,1.04296875,0.00390625,-0.0104886004855,0.060778373577,-0.0917835803535,-0.993867070056
1421851255396539927,56797,1421851255396539927,fcu,-0.86328125,1.04296875,0.00390625,-0.0104886004855,0.060778373577,-0.0917835803535,-0.993867070056
1421851255401540041,56798,1421851255401540041,fcu,-0.857421875,1.044921875,0.00390625,-0.0105776439802,0.0617489714972,-0.0917827724066,-0.993806369801
1421851255406539917,56799,1421851255406539917,fcu,-0.8515625,1.044921875,0.00390625,-0.0106666773872,0.0627195105291,-0.0917818769289,-0.993744721777
1421851255411540031,56800,1421851255411540031,fcu,-0.84375,1.046875,0.00390625,-0.0107557006218,0.063689989747,-0.0917808939211,-0.993682126045
1421851255416539907,56801,1421851255416539907,fcu,-0.837890625,1.046875,0.00390625,-0.00978530294606,0.0637795891422,-0.0917186529109,-0.993692155833
1421851255421540022,56802,1421851255421540022,fcu,-0.830078125,1.048828125,0.00390625,-0.00978530294606,0.0637795891422,-0.0917186529109,-0.993692155833
1421851255426539898,56803,1421851255426539898,fcu,-0.826171875,1.048828125,0.00390625,-0.00987437793478,0.0647500061124,-0.0917166347004,-0.993628699408
1421851255431540012,56804,1421851255431540012,fcu,-0.8203125,1.05078125,0.00390625,-0.0108447135988,0.0646604082254,-0.0917798233843,-0.993618582664
1421851255436539888,56805,1421851255436539888,fcu,-0.814453125,1.05078125,0.00390625,-0.0108696184862,0.0656414111991,-0.0908083540425,-0.993643245519
1421851255441540003,56806,1421851255441540003,fcu,-0.80859375,1.052734375,0.00390625,-0.0108696184862,0.0656414111991,-0.0908083540425,-0.993643245519
1421851255446542025,56807,1421851255446542025,fcu,-0.802734375,1.052734375,0.00390625,-0.0108696184862,0.0656414111991,-0.0908083540425,-0.993643245519
1421851255451541901,56808,1421851255451541901,fcu,-0.796875,1.0546875,0.00390625,-0.00998736720172,0.0667004389681,-0.0907420784882,-0.993588032904
1421851255456542015,56809,1421851255456542015,fcu,-0.791015625,1.0546875,0.00390625,-0.00998736720172,0.0667004389681,-0.0907420784882,-0.993588032904
1421851255461541891,56810,1421851255461541891,fcu,-0.787109375,1.0546875,0.00390625,-0.00998736720172,0.0667004389681,-0.0907420784882,-0.993588032904
1421851255466542006,56811,1421851255466542006,fcu,-0.783203125,1.056640625,0.00390625,-0.0100754661533,0.0676707544077,-0.0907398626267,-0.993521731675
1421851255471541882,56812,1421851255471541882,fcu,-0.779296875,1.056640625,0.00390625,-0.0100754661533,0.0676707544077,-0.0907398626267,-0.993521731675
1421851255476541996,56813,1421851255476541996,fcu,-0.775390625,1.056640625,0.00390625,-0.0100754661533,0.0676707544077,-0.0907398626267,-0.993521731675
1421851255481541872,56814,1421851255481541872,fcu,-0.7734375,1.056640625,0.00390625,-0.0100754661533,0.0676707544077,-0.0907398626267,-0.993521731675
1421851255487541914,56815,1421851255487541914,fcu,-0.771484375,1.05859375,0.00390625,-0.00926049474993,0.0687205727836,-0.0916406209752,-0.993374915478
1421851255491541862,56816,1421851255491541862,fcu,-0.765625,1.05859375,0.00390625,-0.0102305828709,0.0686310472353,-0.0917076872012,-0.993365398349
1421851255496543884,56817,1421851255496543884,fcu,-0.759765625,1.05859375,0.00390625,-0.00926049474993,0.0687205727836,-0.0916406209752,-0.993374915478
1421851255501543999,56818,1421851255501543999,fcu,-0.755859375,1.060546875,0.00390625,-0.00926049474993,0.0687205727836,-0.0916406209752,-0.993374915478
1421851255506543875,56819,1421851255506543875,fcu,-0.751953125,1.060546875,0.00390625,-0.00926049474993,0.0687205727836,-0.0916406209752,-0.993374915478
1421851255511543989,56820,1421851255511543989,fcu,-0.748046875,1.060546875,0.00390625,-0.00934958835768,0.0696906688877,-0.0916372180857,-0.993306808659
1421851255516543865,56821,1421851255516543865,fcu,-0.744140625,1.060546875,0.00390625,-0.00934958835768,0.0696906688877,-0.0916372180857,-0.993306808659
1421851255521543980,56822,1421851255521543980,fcu,-0.740234375,1.0625,0.00390625,-0.00943867304897,0.0706606985297,-0.0916337278042,-0.99323775455
1421851255526543856,56823,1421851255526543856,fcu,-0.73828125,1.0625,0.00390625,-0.00934958835768,0.0696906688877,-0.0916372180857,-0.993306808659
1421851255531543970,56824,1421851255531543970,fcu,-0.736328125,1.0625,0.00390625,-0.00943867304897,0.0706606985297,-0.0916337278042,-0.99323775455
1421851255536543846,56825,1421851255536543846,fcu,-0.732421875,1.0625,0.00390625,-0.00943867304897,0.0706606985297,-0.0916337278042,-0.99323775455
1421851255541543961,56826,1421851255541543961,fcu,-0.7265625,1.0625,0.00390625,-0.00943867304897,0.0706606985297,-0.0916337278042,-0.99323775455
1421851255546545982,56827,1421851255546545982,fcu,-0.72265625,1.064453125,0.00390625,-0.00943867304897,0.0706606985297,-0.0916337278042,-0.99323775455
1421851255551545858,56828,1421851255551545858,fcu,-0.71875,1.064453125,0.00390625,-0.00943867304897,0.0706606985297,-0.0916337278042,-0.99323775455
1421851255566545963,56831,1421851255566545963,fcu,-0.70703125,1.06640625,0.00390625,-0.00943867304897,0.0706606985297,-0.0916337278042,-0.99323775455
1421851255571545839,56832,1421851255571545839,fcu,-0.705078125,1.06640625,0.00390625,-0.00943867304897,0.0706606985297,-0.0916337278042,-0.99323775455
1421851255576545954,56833,1421851255576545954,fcu,-0.701171875,1.06640625,0.00390625,-0.00943867304897,0.0706606985297,-0.0916337278042,-0.99323775455
1421851255581545830,56834,1421851255581545830,fcu,-0.69921875,1.06640625,0.00390625,-0.00943867304897,0.0706606985297,-0.0916337278042,-0.99323775455
1421851255586545944,56835,1421851255586545944,fcu,-0.697265625,1.06640625,0.00390625,-0.00943867304897,0.0706606985297,-0.0916337278042,-0.99323775455
1421851255591545820,56836,1421851255591545820,fcu,-0.6953125,1.06640625,0.00390625,-0.0083795578733,0.0697801251132,-0.0915691171067,-0.99331546547
1421851255616547823,56841,1421851255616547823,fcu,-0.689453125,1.06640625,0.00390625,-0.00829039779748,0.0688100327947,-0.0915734673538,-0.99338348525
1421851255621547937,56842,1421851255621547937,fcu,-0.689453125,1.068359375,0.00390625,-0.00829039779748,0.0688100327947,-0.0915734673538,-0.99338348525
1421851255626548052,56843,1421851255626548052,fcu,-0.6875,1.068359375,0.00390625,-0.00732029293869,0.0688994271836,-0.0915062264012,-0.993391107658
1421851255641547918,56846,1421851255641547918,fcu,-0.685546875,1.068359375,0.00390625,-0.00820122981532,0.0678398748539,-0.0915777302697,-0.993450557667
1421851255646548033,56847,1421851255646548033,fcu,-0.685546875,1.068359375,0.00390625,-0.00714181916254,0.0669590557708,-0.0915165597963,-0.993524130835
1421851255651550055,56848,1421851255651550055,fcu,-0.685546875,1.068359375,0.00390625,-0.00714181916254,0.0669590557708,-0.0915165597963,-0.993524130835
1421851255656549931,56849,1421851255656549931,fcu,-0.685546875,1.068359375,0.00390625,-0.00802287047214,0.0658993658062,-0.0915859940915,-0.993581860151
1421851255661550045,56850,1421851255661550045,fcu,-0.68359375,1.068359375,0.00390625,-0.00696331814253,0.0650184289296,-0.0915265440834,-0.99365336402
1421851255666549921,56851,1421851255666549921,fcu,-0.681640625,1.068359375,0.00390625,-0.00790693634925,0.0639509142503,-0.09256428402,-0.993619451424
1421851255671550035,56852,1421851255671550035,fcu,-0.6796875,1.068359375,0.00390625,-0.00693660123762,0.0640412785503,-0.0925017878272,-0.993626699246
1421851255686549902,56855,1421851255686549902,fcu,-0.673828125,1.068359375,0.00390625,-0.0066659374884,0.0611299580198,-0.0925160272931,-0.993810584671
1421851255691550016,56856,1421851255691550016,fcu,-0.671875,1.068359375,0.00390625,-0.00657570340966,0.0601594000128,-0.0925205973274,-0.993869984347
1421851255696549892,56857,1421851255696549892,fcu,-0.669921875,1.068359375,0.00390625,-0.00648546305985,0.0591887846333,-0.0925250791272,-0.993928436194
1421851255701551914,56858,1421851255701551914,fcu,-0.66796875,1.068359375,0.00390625,-0.00624905524381,0.0572535153523,-0.0915629894118,-0.994132387189
1421851255706552029,56859,1421851255706552029,fcu,-0.662109375,1.068359375,0.00390625,-0.00621470524456,0.0562766035169,-0.0925379950772,-0.994098104214
1421851255711551905,56860,1421851255711551905,fcu,-0.658203125,1.0703125,0.00390625,-0.00612444067109,0.0553057679045,-0.092542123897,-0.994152764201
1421851255716552019,56861,1421851255716552019,fcu,-0.654296875,1.0703125,0.00390625,-0.00603417025689,0.0543348795485,-0.0925461644618,-0.994206476089
1421851255721551895,56862,1421851255721551895,fcu,-0.650390625,1.0703125,0.00390625,-0.0058536122507,0.0523929483092,-0.092553980811,-0.994311055368
1421851255726552010,56863,1421851255726552010,fcu,-0.646484375,1.0703125,0.00390625,-0.00576332483089,0.0514219072778,-0.0925577565879,-0.994361922659
1421851255731551886,56864,1421851255731551886,fcu,-0.642578125,1.0703125,0.00390625,-0.00558273358839,0.0494796790219,-0.0925650433284,-0.994460812301
1421851255736552000,56865,1421851255736552000,fcu,-0.638671875,1.0703125,0.00390625,-0.00549242993792,0.0485084936496,-0.0925685542849,-0.994508834558
1421851255741551876,56866,1421851255741551876,fcu,-0.6328125,1.072265625,0.00390625,-0.00531180700913,0.0465659850473,-0.0925753113541,-0.994602033715
1421851255746551991,56867,1421851255746551991,fcu,-0.62890625,1.072265625,0.00390625,-0.00425015040113,0.0456850506618,-0.0925339872837,-0.99465183535
1421851255751554012,56868,1421851255751554012,fcu,-0.623046875,1.072265625,0.00390625,-0.00522148790307,0.0455946636699,-0.0925785574603,-0.994647210526
1421851255756553888,56869,1421851255756553888,fcu,-0.619140625,1.072265625,0.00390625,-0.00397903688341,0.0427708397227,-0.0925460417659,-0.994781409501
1421851255761554003,56870,1421851255761554003,fcu,-0.61328125,1.07421875,0.00390625,-0.00388865800651,0.0417993532621,-0.0925498834141,-0.994822703544
1421851255766553879,56871,1421851255766553879,fcu,-0.609375,1.07421875,0.00390625,-0.0037982754211,0.0408278269386,-0.0925536367999,-0.99486304885
1421851255771553993,56872,1421851255771553993,fcu,-0.60546875,1.07421875,0.00390625,-0.00370788921337,0.0398562616787,-0.0925573019196,-0.99490244538
1421851255776553869,56873,1421851255776553869,fcu,-0.6015625,1.07421875,0.00390625,-0.00352710627576,0.0379130180557,-0.0925643673471,-0.994978391967
1421851255781553984,56874,1421851255781553984,fcu,-0.599609375,1.07421875,0.00390625,-0.00352710627576,0.0379130180557,-0.0925643673471,-0.994978391967
1421851255786553860,56875,1421851255786553860,fcu,-0.595703125,1.07421875,0.00390625,-0.00334630988331,0.0359696298061,-0.0925710796697,-0.995050543013
1421851255791553974,56876,1421851255791553974,fcu,-0.59375,1.07421875,0.00390625,-0.0023745793962,0.0360600140851,-0.0925359089424,-0.995053336416
1421851255796555996,56877,1421851255796555996,fcu,-0.58984375,1.076171875,0.00390625,-0.00325590685704,0.034997883763,-0.0925743034086,-0.995085195122
1421851255801555872,56878,1421851255801555872,fcu,-0.587890625,1.076171875,0.00390625,-0.00219370357167,0.0341164957592,-0.0925441661052,-0.995121515043
1421851255806555986,56879,1421851255806555986,fcu,-0.5859375,1.076171875,0.00390625,-0.00219370357167,0.0341164957592,-0.0925441661052,-0.995121515043
1421851255811555862,56880,1421851255811555862,fcu,-0.583984375,1.076171875,0.00390625,-0.00210326247816,0.0331446873288,-0.0925481623031,-0.99515418084
1421851255816557884,56881,1421851255816557884,fcu,-0.58203125,1.076171875,0.00390625,-0.00210326247816,0.0331446873288,-0.0925481623031,-0.99515418084
1421851255821557999,56882,1421851255821557999,fcu,-0.58203125,1.076171875,0.00390625,-0.00201281937882,0.0321728472892,-0.0925520702402,-0.995185897584
1421851255826557875,56883,1421851255826557875,fcu,-0.580078125,1.076171875,0.00390625,-0.00210326247816,0.0331446873288,-0.0925481623031,-0.99515418084
1421851255831557989,56884,1421851255831557989,fcu,-0.578125,1.076171875,0.00390625,-0.00201281937882,0.0321728472892,-0.0925520702402,-0.995185897584
1421851255836560011,56885,1421851255836560011,fcu,-0.578125,1.076171875,0.00390625,-0.00210326247816,0.0331446873288,-0.0925481623031,-0.99515418084
