%time,field.header.seq,field.header.stamp,field.header.frame_id,field.pose.position.x,field.pose.position.y,field.pose.position.z,field.pose.orientation.x,field.pose.orientation.y,field.pose.orientation.z,field.pose.orientation.w
1421851136176517963,32955,1421851136176517963,fcu,0.072265625,-0.126953125,0.005859375,0.00803654720467,0.0227374249633,-0.0329811850788,-0.999164983797
1421851136181519985,32956,1421851136181519985,fcu,0.072265625,-0.126953125,0.005859375,0.00800394987139,0.0237131482257,-0.0329718654114,-0.999142872406
1421851136186522007,32957,1421851136186522007,fcu,0.072265625,-0.126953125,0.005859375,0.00803654720467,0.0227374249633,-0.0329811850788,-0.999164983797
1421851136191521883,32958,1421851136191521883,fcu,0.072265625,-0.126953125,0.005859375,0.00803654720467,0.0227374249633,-0.0329811850788,-0.999164983797
1421851136196523905,32959,1421851136196523905,fcu,0.07421875,-0.126953125,0.005859375,0.00803654720467,0.0227374249633,-0.0329811850788,-0.999164983797
1421851136201525927,32960,1421851136201525927,fcu,0.07421875,-0.126953125,0.005859375,0.00803654720467,0.0227374249633,-0.0329811850788,-0.999164983797
1421851136211529970,32962,1421851136211529970,fcu,0.07421875,-0.126953125,0.005859375,0.00803654720467,0.0227374249633,-0.0329811850788,-0.999164983797
1421851136216531992,32963,1421851136216531992,fcu,0.07421875,-0.12890625,0.005859375,0.00803654720467,0.0227374249633,-0.0329811850788,-0.999164983797
1421851136221531868,32964,1421851136221531868,fcu,0.07421875,-0.12890625,0.005859375,0.00803654720467,0.0227374249633,-0.0329811850788,-0.999164983797
1421851136226533890,32965,1421851136226533890,fcu,0.07421875,-0.12890625,0.005859375,0.00803654720467,0.0227374249633,-0.0329811850788,-0.999164983797
1421851136231535912,32966,1421851136231535912,fcu,0.07421875,-0.12890625,0.005859375,0.00803654720467,0.0227374249633,-0.0329811850788,-0.999164983797
1421851136236537933,32967,1421851136236537933,fcu,0.07421875,-0.12890625,0.005859375,0.00803654720467,0.0227374249633,-0.0329811850788,-0.999164983797
1421851136241539955,32968,1421851136241539955,fcu,0.07421875,-0.12890625,0.005859375,0.00803654720467,0.0227374249633,-0.0329811850788,-0.999164983797
1421851136246541977,32969,1421851136246541977,fcu,0.07421875,-0.12890625,0.005859375,0.0080691368737,0.0217616800169,-0.0329904732929,-0.99918614231
1421851136251541853,32970,1421851136251541853,fcu,0.07421875,-0.12890625,0.005859375,0.00803654720467,0.0227374249633,-0.0329811850788,-0.999164983797
1421851136256543875,32971,1421851136256543875,fcu,0.07421875,-0.12890625,0.005859375,0.0080691368737,0.0217616800169,-0.0329904732929,-0.99918614231
1421851136261545897,32972,1421851136261545897,fcu,0.07421875,-0.12890625,0.005859375,0.00904490058804,0.0217938868941,-0.0329692059246,-0.999177785846
1421851136266547918,32973,1421851136266547918,fcu,0.07421875,-0.12890625,0.005859375,0.0080691368737,0.0217616800169,-0.0329904732929,-0.99918614231
1421851136271549940,32974,1421851136271549940,fcu,0.07421875,-0.12890625,0.005859375,0.00904490058804,0.0217938868941,-0.0329692059246,-0.999177785846
1421851136276551962,32975,1421851136276551962,fcu,0.07421875,-0.12890625,0.005859375,0.00901229027194,0.0227696223047,-0.0329589648391,-0.999156659169
1421851136281551838,32976,1421851136281551838,fcu,0.07421875,-0.130859375,0.005859375,0.00904490058804,0.0217938868941,-0.0329692059246,-0.999177785846
1421851136286553860,32977,1421851136286553860,fcu,0.07421875,-0.130859375,0.005859375,0.00903452193029,0.022760810384,-0.0319832103532,-0.999188369218
1421851136291555882,32978,1421851136291555882,fcu,0.07421875,-0.130859375,0.005859375,0.00906617936438,0.0217850435926,-0.0319934308023,-0.999209505886
1421851136296557903,32979,1421851136296557903,fcu,0.07421875,-0.130859375,0.005859375,0.00903452193029,0.022760810384,-0.0319832103532,-0.999188369218
1421851136301559925,32980,1421851136301559925,fcu,0.07421875,-0.130859375,0.005859375,0.00903452193029,0.022760810384,-0.0319832103532,-0.999188369218
1421851136306561947,32981,1421851136306561947,fcu,0.07421875,-0.130859375,0.005859375,0.00903452193029,0.022760810384,-0.0319832103532,-0.999188369218
1421851136311561823,32982,1421851136311561823,fcu,0.07421875,-0.130859375,0.005859375,0.00903452193029,0.022760810384,-0.0319832103532,-0.999188369218
1421851136316563845,32983,1421851136316563845,fcu,0.07421875,-0.130859375,0.005859375,0.00906617936438,0.0217850435926,-0.0319934308023,-0.999209505886
1421851136321565866,32984,1421851136321565866,fcu,0.07421875,-0.130859375,0.005859375,0.00903452193029,0.022760810384,-0.0319832103532,-0.999188369218
1421851136326567888,32985,1421851136326567888,fcu,0.07421875,-0.130859375,0.005859375,0.00906617936438,0.0217850435926,-0.0319934308023,-0.999209505886
1421851136331569910,32986,1421851136331569910,fcu,0.07421875,-0.130859375,0.005859375,0.00903452193029,0.022760810384,-0.0319832103532,-0.999188369218
1421851136336571932,32987,1421851136336571932,fcu,0.07421875,-0.130859375,0.005859375,0.00903452193029,0.022760810384,-0.0319832103532,-0.999188369218
1421851136341572046,32988,1421851136341572046,fcu,0.07421875,-0.130859375,0.005859375,0.00903452193029,0.022760810384,-0.0319832103532,-0.999188369218
1421851136346573830,32989,1421851136346573830,fcu,0.07421875,-0.1328125,0.005859375,0.00903452193029,0.022760810384,-0.0319832103532,-0.999188369218
1421851136351575851,32990,1421851136351575851,fcu,0.07421875,-0.1328125,0.005859375,0.00903452193029,0.022760810384,-0.0319832103532,-0.999188369218
1421851136356577873,32991,1421851136356577873,fcu,0.07421875,-0.1328125,0.005859375,0.00903452193029,0.022760810384,-0.0319832103532,-0.999188369218
1421851136361579895,32992,1421851136361579895,fcu,0.07421875,-0.1328125,0.005859375,0.00903452193029,0.022760810384,-0.0319832103532,-0.999188369218
1421851136366581917,32993,1421851136366581917,fcu,0.07421875,-0.1328125,0.005859375,0.00903452193029,0.022760810384,-0.0319832103532,-0.999188369218
1421851136371582031,32994,1421851136371582031,fcu,0.07421875,-0.1328125,0.005859375,0.00805874788558,0.0227295659319,-0.0320054224528,-0.999196715541
1421851136376584053,32995,1421851136376584053,fcu,0.07421875,-0.1328125,0.005859375,0.00903452193029,0.022760810384,-0.0319832103532,-0.999188369218
1421851136411595821,33002,1421851136411595821,fcu,0.07421875,-0.1328125,0.005859375,0.00903452193029,0.022760810384,-0.0319832103532,-0.999188369218
1421851136416597843,33003,1421851136416597843,fcu,0.07421875,-0.1328125,0.005859375,0.00903452193029,0.022760810384,-0.0319832103532,-0.999188369218
1421851136421599865,33004,1421851136421599865,fcu,0.07421875,-0.1328125,0.005859375,0.00903452193029,0.022760810384,-0.0319832103532,-0.999188369218
1421851136426601887,33005,1421851136426601887,fcu,0.07421875,-0.1328125,0.005859375,0.00903452193029,0.022760810384,-0.0319832103532,-0.999188369218
1421851136431602001,33006,1421851136431602001,fcu,0.07421875,-0.1328125,0.005859375,0.00905674497266,0.0227519767569,-0.0310074253657,-0.999219126366
1421851136436604023,33007,1421851136436604023,fcu,0.07421875,-0.1328125,0.005859375,0.00905674497266,0.0227519767569,-0.0310074253657,-0.999219126366
1421851136441606045,33008,1421851136441606045,fcu,0.07421875,-0.1328125,0.005859375,0.00905674497266,0.0227519767569,-0.0310074253657,-0.999219126366
1421851136446607828,33009,1421851136446607828,fcu,0.07421875,-0.1328125,0.005859375,0.00902603181358,0.0237277523005,-0.0309971959918,-0.999197026798
1421851136451609850,33010,1421851136451609850,fcu,0.07421875,-0.1328125,0.005859375,0.00905674497266,0.0227519767569,-0.0310074253657,-0.999219126366
1421851136456611872,33011,1421851136456611872,fcu,0.07421875,-0.1328125,0.005859375,0.00905674497266,0.0227519767569,-0.0310074253657,-0.999219126366
1421851136466614008,33013,1421851136466614008,fcu,0.076171875,-0.134765625,0.005859375,0.00905674497266,0.0227519767569,-0.0310074253657,-0.999219126366
1421851136471616030,33014,1421851136471616030,fcu,0.076171875,-0.134765625,0.005859375,0.00902603181358,0.0237277523005,-0.0309971959918,-0.999197026798
1421851136481619835,33016,1421851136481619835,fcu,0.076171875,-0.134765625,0.005859375,0.00902603181358,0.0237277523005,-0.0309971959918,-0.999197026798
1421851136486621857,33017,1421851136486621857,fcu,0.076171875,-0.134765625,0.005859375,0.00907895937783,0.0227431214318,-0.0300316108072,-0.999248930586
1421851136491621971,33018,1421851136491621971,fcu,0.076171875,-0.134765625,0.005859375,0.00904919913906,0.0237189265034,-0.0300214030198,-0.999226821038
1421851136496623993,33019,1421851136496623993,fcu,0.076171875,-0.134765625,0.005859375,0.00904919913906,0.0237189265034,-0.0300214030198,-0.999226821038
1421851136501626015,33020,1421851136501626015,fcu,0.076171875,-0.134765625,0.005859375,0.0090194302703,0.0246947089549,-0.0300111666017,-0.999203758553
1421851136506628036,33021,1421851136506628036,fcu,0.076171875,-0.134765625,0.005859375,0.00904919913906,0.0237189265034,-0.0300214030198,-0.999226821038
1421851136511629820,33022,1421851136511629820,fcu,0.076171875,-0.134765625,0.005859375,0.0090194302703,0.0246947089549,-0.0300111666017,-0.999203758553
1421851136516631842,33023,1421851136516631842,fcu,0.076171875,-0.134765625,0.005859375,0.0090194302703,0.0246947089549,-0.0300111666017,-0.999203758553
1421851136521631956,33024,1421851136521631956,fcu,0.076171875,-0.134765625,0.005859375,0.0090194302703,0.0246947089549,-0.0300111666017,-0.999203758553
1421851136526633978,33025,1421851136526633978,fcu,0.076171875,-0.13671875,0.005859375,0.0090194302703,0.0246947089549,-0.0300111666017,-0.999203758553
1421851136531636000,33026,1421851136531636000,fcu,0.078125,-0.13671875,0.005859375,0.0090194302703,0.0246947089549,-0.0300111666017,-0.999203758553
1421851136536638021,33027,1421851136536638021,fcu,0.078125,-0.13671875,0.005859375,0.00898965279993,0.0256704678557,-0.0300009015628,-0.999179743153
1421851136541640043,33028,1421851136541640043,fcu,0.078125,-0.13671875,0.005859375,0.0090194302703,0.0246947089549,-0.0300111666017,-0.999203758553
1421851136546641827,33029,1421851136546641827,fcu,0.078125,-0.13671875,0.005859375,0.00898965279993,0.0256704678557,-0.0300009015628,-0.999179743153
1421851136551641941,33030,1421851136551641941,fcu,0.078125,-0.13671875,0.005859375,0.00898965279993,0.0256704678557,-0.0300009015628,-0.999179743153
1421851136566648006,33033,1421851136566648006,fcu,0.078125,-0.13671875,0.005859375,0.00898965279993,0.0256704678557,-0.0300009015628,-0.999179743153
1421851136571650028,33034,1421851136571650028,fcu,0.078125,-0.13671875,0.005859375,0.00898965279993,0.0256704678557,-0.0300009015628,-0.999179743153
1421851136576652050,33035,1421851136576652050,fcu,0.078125,-0.13671875,0.005859375,0.00898965279993,0.0256704678557,-0.0300009015628,-0.999179743153
1421851136581651926,33036,1421851136581651926,fcu,0.078125,-0.13671875,0.005859375,0.00898965279993,0.0256704678557,-0.0300009015628,-0.999179743153
1421851136586653948,33037,1421851136586653948,fcu,0.078125,-0.13671875,0.005859375,0.00898965279993,0.0256704678557,-0.0300009015628,-0.999179743153
1421851136591655970,33038,1421851136591655970,fcu,0.078125,-0.13671875,0.005859375,0.00898965279993,0.0256704678557,-0.0300009015628,-0.999179743153
1421851136596657991,33039,1421851136596657991,fcu,0.078125,-0.13671875,0.005859375,0.00895986675637,0.0266462022752,-0.0299906079127,-0.999154774862
1421851136601660013,33040,1421851136601660013,fcu,0.078125,-0.13671875,0.005859375,0.00898965279993,0.0256704678557,-0.0300009015628,-0.999179743153
1421851136606662035,33041,1421851136606662035,fcu,0.078125,-0.13671875,0.005859375,0.00898588416175,0.0266374397008,-0.0290148566824,-0.999183586126
1421851136616663933,33043,1421851136616663933,fcu,0.078125,-0.13671875,0.005859375,0.00898588416175,0.0266374397008,-0.0290148566824,-0.999183586126
1421851136621665955,33044,1421851136621665955,fcu,0.078125,-0.13671875,0.005859375,0.00898588416175,0.0266374397008,-0.0290148566824,-0.999183586126
1421851136626667976,33045,1421851136626667976,fcu,0.078125,-0.13671875,0.005859375,0.00898588416175,0.0266374397008,-0.0290148566824,-0.999183586126
1421851136631669998,33046,1421851136631669998,fcu,0.078125,-0.13671875,0.005859375,0.00898588416175,0.0266374397008,-0.0290148566824,-0.999183586126
1421851136636672020,33047,1421851136636672020,fcu,0.078125,-0.13671875,0.005859375,0.00898588416175,0.0266374397008,-0.0290148566824,-0.999183586126
1421851136641671896,33048,1421851136641671896,fcu,0.078125,-0.13671875,0.005859375,0.00898588416175,0.0266374397008,-0.0290148566824,-0.999183586126
1421851136646673918,33049,1421851136646673918,fcu,0.078125,-0.13671875,0.005859375,0.00898588416175,0.0266374397008,-0.0290148566824,-0.999183586126
1421851136651675940,33050,1421851136651675940,fcu,0.078125,-0.13671875,0.005859375,0.00898588416175,0.0266374397008,-0.0290148566824,-0.999183586126
1421851136656677961,33051,1421851136656677961,fcu,0.078125,-0.13671875,0.005859375,0.00898588416175,0.0266374397008,-0.0290148566824,-0.999183586126
1421851136661679983,33052,1421851136661679983,fcu,0.078125,-0.138671875,0.005859375,0.00898588416175,0.0266374397008,-0.0290148566824,-0.999183586126
1421851136666682005,33053,1421851136666682005,fcu,0.078125,-0.138671875,0.005859375,0.00898588416175,0.0266374397008,-0.0290148566824,-0.999183586126
1421851136671681881,33054,1421851136671681881,fcu,0.078125,-0.138671875,0.005859375,0.00898588416175,0.0266374397008,-0.0290148566824,-0.999183586126
1421851136676683903,33055,1421851136676683903,fcu,0.078125,-0.138671875,0.005859375,0.00898588416175,0.0266374397008,-0.0290148566824,-0.999183586126
1421851136681685925,33056,1421851136681685925,fcu,0.078125,-0.138671875,0.005859375,0.00901471732561,0.0256616766586,-0.0290251259444,-0.999208564458
1421851136686687946,33057,1421851136686687946,fcu,0.078125,-0.138671875,0.005859375,0.00898588416175,0.0266374397008,-0.0290148566824,-0.999183586126
1421851136691689968,33058,1421851136691689968,fcu,0.078125,-0.138671875,0.005859375,0.00901471732561,0.0256616766586,-0.0290251259444,-0.999208564458
1421851136696691990,33059,1421851136696691990,fcu,0.078125,-0.138671875,0.005859375,0.00901471732561,0.0256616766586,-0.0290251259444,-0.999208564458
1421851136701691866,33060,1421851136701691866,fcu,0.078125,-0.138671875,0.005859375,0.00901471732561,0.0256616766586,-0.0290251259444,-0.999208564458
1421851136706693888,33061,1421851136706693888,fcu,0.078125,-0.138671875,0.005859375,0.00901471732561,0.0256616766586,-0.0290251259444,-0.999208564458
1421851136711695910,33062,1421851136711695910,fcu,0.078125,-0.138671875,0.005859375,0.00901471732561,0.0256616766586,-0.0290251259444,-0.999208564458
1421851136716697931,33063,1421851136716697931,fcu,0.078125,-0.138671875,0.005859375,0.00901471732561,0.0256616766586,-0.0290251259444,-0.999208564458
1421851136721699953,33064,1421851136721699953,fcu,0.078125,-0.138671875,0.005859375,0.00901471732561,0.0256616766586,-0.0290251259444,-0.999208564458
1421851136731701851,33066,1421851136731701851,fcu,0.078125,-0.138671875,0.005859375,0.00999050248569,0.0256900092672,-0.029000051877,-0.999199284565
1421851136736703873,33067,1421851136736703873,fcu,0.078125,-0.138671875,0.005859375,0.00999050248569,0.0256900092672,-0.029000051877,-0.999199284565
1421851136741705894,33068,1421851136741705894,fcu,0.078125,-0.138671875,0.005859375,0.00999050248569,0.0256900092672,-0.029000051877,-0.999199284565
1421851136746707916,33069,1421851136746707916,fcu,0.078125,-0.138671875,0.005859375,0.00999050248569,0.0256900092672,-0.029000051877,-0.999199284565
1421851136756711960,33071,1421851136756711960,fcu,0.078125,-0.138671875,0.005859375,0.00999050248569,0.0256900092672,-0.029000051877,-0.999199284565
1421851136761711836,33072,1421851136761711836,fcu,0.078125,-0.138671875,0.005859375,0.00999050248569,0.0256900092672,-0.029000051877,-0.999199284565
1421851136766713858,33073,1421851136766713858,fcu,0.078125,-0.138671875,0.005859375,0.00999050248569,0.0256900092672,-0.029000051877,-0.999199284565
1421851136771715879,33074,1421851136771715879,fcu,0.078125,-0.138671875,0.005859375,0.00898965279993,0.0256704678557,-0.0300009015628,-0.999179743153
1421851136776717901,33075,1421851136776717901,fcu,0.078125,-0.138671875,0.005859375,0.00996540982616,0.0256997533658,-0.0299758184449,-0.999170487751
1421851136786721945,33077,1421851136786721945,fcu,0.078125,-0.138671875,0.005859375,0.00996540982616,0.0256997533658,-0.0299758184449,-0.999170487751
1421851136791721821,33078,1421851136791721821,fcu,0.078125,-0.138671875,0.005859375,0.00996540982616,0.0256997533658,-0.0299758184449,-0.999170487751
1421851136796723843,33079,1421851136796723843,fcu,0.078125,-0.138671875,0.005859375,0.00996540982616,0.0256997533658,-0.0299758184449,-0.999170487751
1421851136801725864,33080,1421851136801725864,fcu,0.078125,-0.138671875,0.005859375,0.00996540982616,0.0256997533658,-0.0299758184449,-0.999170487751
1421851136806727886,33081,1421851136806727886,fcu,0.078125,-0.138671875,0.005859375,0.00996540982616,0.0256997533658,-0.0299758184449,-0.999170487751
1421851136811729908,33082,1421851136811729908,fcu,0.078125,-0.140625,0.005859375,0.00996540982616,0.0256997533658,-0.0299758184449,-0.999170487751
1421851136821732044,33084,1421851136821732044,fcu,0.078125,-0.140625,0.005859375,0.00996540982616,0.0256997533658,-0.0299758184449,-0.999170487751
1421851136826733828,33085,1421851136826733828,fcu,0.078125,-0.140625,0.005859375,0.00996540982616,0.0256997533658,-0.0299758184449,-0.999170487751
1421851136831735849,33086,1421851136831735849,fcu,0.078125,-0.140625,0.005859375,0.00996540982616,0.0256997533658,-0.0299758184449,-0.999170487751
1421851136836737871,33087,1421851136836737871,fcu,0.078125,-0.140625,0.005859375,0.00996540982616,0.0256997533658,-0.0299758184449,-0.999170487751
1421851136841739893,33088,1421851136841739893,fcu,0.078125,-0.140625,0.005859375,0.00996540982616,0.0256997533658,-0.0299758184449,-0.999170487751
1421851136846741915,33089,1421851136846741915,fcu,0.078125,-0.140625,0.005859375,0.00996540982616,0.0256997533658,-0.0299758184449,-0.999170487751
1421851136851742029,33090,1421851136851742029,fcu,0.078125,-0.140625,0.005859375,0.00898965279993,0.0256704678557,-0.0300009015628,-0.999179743153
1421851136856744051,33091,1421851136856744051,fcu,0.078125,-0.138671875,0.005859375,0.00996540982616,0.0256997533658,-0.0299758184449,-0.999170487751
1421851136861745834,33092,1421851136861745834,fcu,0.078125,-0.138671875,0.005859375,0.00898965279993,0.0256704678557,-0.0300009015628,-0.999179743153
1421851136866747856,33093,1421851136866747856,fcu,0.078125,-0.138671875,0.005859375,0.00898965279993,0.0256704678557,-0.0300009015628,-0.999179743153
1421851136871749878,33094,1421851136871749878,fcu,0.078125,-0.138671875,0.005859375,0.00898965279993,0.0256704678557,-0.0300009015628,-0.999179743153
1421851136876751900,33095,1421851136876751900,fcu,0.078125,-0.138671875,0.005859375,0.00898965279993,0.0256704678557,-0.0300009015628,-0.999179743153
1421851136881752014,33096,1421851136881752014,fcu,0.078125,-0.138671875,0.005859375,0.00898965279993,0.0256704678557,-0.0300009015628,-0.999179743153
1421851136886754036,33097,1421851136886754036,fcu,0.078125,-0.138671875,0.005859375,0.00898965279993,0.0256704678557,-0.0300009015628,-0.999179743153
1421851136891755819,33098,1421851136891755819,fcu,0.078125,-0.138671875,0.005859375,0.00898965279993,0.0256704678557,-0.0300009015628,-0.999179743153
1421851136896757841,33099,1421851136896757841,fcu,0.078125,-0.138671875,0.005859375,0.00898965279993,0.0256704678557,-0.0300009015628,-0.999179743153
1421851136901759863,33100,1421851136901759863,fcu,0.078125,-0.140625,0.005859375,0.00898965279993,0.0256704678557,-0.0300009015628,-0.999179743153
1421851136906761885,33101,1421851136906761885,fcu,0.078125,-0.140625,0.005859375,0.00898965279993,0.0256704678557,-0.0300009015628,-0.999179743153
1421851136911761999,33102,1421851136911761999,fcu,0.078125,-0.140625,0.005859375,0.00898965279993,0.0256704678557,-0.0300009015628,-0.999179743153
1421851136916764021,33103,1421851136916764021,fcu,0.078125,-0.138671875,0.005859375,0.00898965279993,0.0256704678557,-0.0300009015628,-0.999179743153
1421851136921766043,33104,1421851136921766043,fcu,0.078125,-0.138671875,0.005859375,0.00898965279993,0.0256704678557,-0.0300009015628,-0.999179743153
1421851136926767826,33105,1421851136926767826,fcu,0.078125,-0.138671875,0.005859375,0.0090194302703,0.0246947089549,-0.0300111666017,-0.999203758553
1421851136936771870,33107,1421851136936771870,fcu,0.078125,-0.138671875,0.005859375,0.0090194302703,0.0246947089549,-0.0300111666017,-0.999203758553
1421851136941771984,33108,1421851136941771984,fcu,0.078125,-0.138671875,0.005859375,0.0090194302703,0.0246947089549,-0.0300111666017,-0.999203758553
1421851136946774006,33109,1421851136946774006,fcu,0.078125,-0.138671875,0.005859375,0.00804364120413,0.0246653894043,-0.0300352682142,-0.999212090132
1421851136951776028,33110,1421851136951776028,fcu,0.078125,-0.138671875,0.005859375,0.00899531004662,0.0247035052155,-0.0309869370566,-0.99917397432
1421851136956778049,33111,1421851136956778049,fcu,0.078125,-0.138671875,0.005859375,0.00899531004662,0.0247035052155,-0.0309869370566,-0.99917397432
1421851136961779833,33112,1421851136961779833,fcu,0.078125,-0.138671875,0.005859375,0.00899531004662,0.0247035052155,-0.0309869370566,-0.99917397432
1421851136966781855,33113,1421851136966781855,fcu,0.078125,-0.138671875,0.005859375,0.00899531004662,0.0247035052155,-0.0309869370566,-0.99917397432
1421851136971781969,33114,1421851136971781969,fcu,0.078125,-0.138671875,0.005859375,0.00902603181358,0.0237277523005,-0.0309971959918,-0.999197026798
1421851136976783991,33115,1421851136976783991,fcu,0.078125,-0.138671875,0.005859375,0.00801955007811,0.02467323276,-0.0310110467939,-0.999182282358
1421851136981786013,33116,1421851136981786013,fcu,0.078125,-0.138671875,0.005859375,0.00805024931825,0.0236974702918,-0.0310203528406,-0.999205364826
1421851136986788034,33117,1421851136986788034,fcu,0.078125,-0.138671875,0.005859375,0.00801955007811,0.02467323276,-0.0310110467939,-0.999182282358
1421851136991789818,33118,1421851136991789818,fcu,0.078125,-0.138671875,0.005859375,0.00802710342244,0.0237053205623,-0.0319961243829,-0.999174595059
1421851137001791954,33120,1421851137001791954,fcu,0.078125,-0.138671875,0.005859375,0.00802710342244,0.0237053205623,-0.0319961243829,-0.999174595059
1421851137006793976,33121,1421851137006793976,fcu,0.076171875,-0.138671875,0.005859375,0.00802710342244,0.0237053205623,-0.0319961243829,-0.999174595059
1421851137011795998,33122,1421851137011795998,fcu,0.076171875,-0.138671875,0.005859375,0.00802710342244,0.0237053205623,-0.0319961243829,-0.999174595059
1421851137016798019,33123,1421851137016798019,fcu,0.076171875,-0.138671875,0.005859375,0.00802710342244,0.0237053205623,-0.0319961243829,-0.999174595059
1421851137021800041,33124,1421851137021800041,fcu,0.076171875,-0.138671875,0.005859375,0.00802710342244,0.0237053205623,-0.0319961243829,-0.999174595059
1421851137026801825,33125,1421851137026801825,fcu,0.076171875,-0.138671875,0.005859375,0.00705134330942,0.0236740630485,-0.0320192588494,-0.999181957583
1421851137031801939,33126,1421851137031801939,fcu,0.076171875,-0.138671875,0.005859375,0.00802710342244,0.0237053205623,-0.0319961243829,-0.999174595059
1421851137036803961,33127,1421851137036803961,fcu,0.076171875,-0.138671875,0.005859375,0.00705134330942,0.0236740630485,-0.0320192588494,-0.999181957583
1421851137041805983,33128,1421851137041805983,fcu,0.076171875,-0.138671875,0.005859375,0.00705134330942,0.0236740630485,-0.0320192588494,-0.999181957583
1421851137046808004,33129,1421851137046808004,fcu,0.076171875,-0.138671875,0.005859375,0.00705134330942,0.0236740630485,-0.0320192588494,-0.999181957583
1421851137051810026,33130,1421851137051810026,fcu,0.076171875,-0.138671875,0.005859375,0.0070744591456,0.0236671656835,-0.0310434801061,-0.999212749938
1421851137056812048,33131,1421851137056812048,fcu,0.076171875,-0.138671875,0.005859375,0.0070744591456,0.0236671656835,-0.0310434801061,-0.999212749938
1421851137061811924,33132,1421851137061811924,fcu,0.076171875,-0.138671875,0.005859375,0.0070744591456,0.0236671656835,-0.0310434801061,-0.999212749938
1421851137066813946,33133,1421851137066813946,fcu,0.076171875,-0.138671875,0.005859375,0.0070744591456,0.0236671656835,-0.0310434801061,-0.999212749938
1421851137070816040,33134,1421851137070816040,fcu,0.07421875,-0.138671875,0.005859375,0.0070744591456,0.0236671656835,-0.0310434801061,-0.999212749938
1421851137075817823,33135,1421851137075817823,fcu,0.07421875,-0.138671875,0.005859375,0.0070744591456,0.0236671656835,-0.0310434801061,-0.999212749938
1421851137080819845,33136,1421851137080819845,fcu,0.07421875,-0.138671875,0.005859375,0.0070744591456,0.0236671656835,-0.0310434801061,-0.999212749938
1421851137085821867,33137,1421851137085821867,fcu,0.07421875,-0.138671875,0.005859375,0.0070744591456,0.0236671656835,-0.0310434801061,-0.999212749938
1421851137090821981,33138,1421851137090821981,fcu,0.07421875,-0.13671875,0.005859375,0.0070744591456,0.0236671656835,-0.0310434801061,-0.999212749938
1421851137095824003,33139,1421851137095824003,fcu,0.07421875,-0.13671875,0.005859375,0.0071051290829,0.0226913720218,-0.0310518036501,-0.999234909452
1421851137100826025,33140,1421851137100826025,fcu,0.07421875,-0.13671875,0.005859375,0.00705134330942,0.0236740630485,-0.0320192588494,-0.999181957583
1421851137105828047,33141,1421851137105828047,fcu,0.07421875,-0.13671875,0.005859375,0.00708296615544,0.0226982998032,-0.0320276040296,-0.999204108957
1421851137110829830,33142,1421851137110829830,fcu,0.07421875,-0.13671875,0.005859375,0.00708296615544,0.0226982998032,-0.0320276040296,-0.999204108957
1421851137115831852,33143,1421851137115831852,fcu,0.07421875,-0.13671875,0.005859375,0.00708296615544,0.0226982998032,-0.0320276040296,-0.999204108957
1421851137120831966,33144,1421851137120831966,fcu,0.07421875,-0.13671875,0.005859375,0.00708296615544,0.0226982998032,-0.0320276040296,-0.999204108957
1421851137125833988,33145,1421851137125833988,fcu,0.07421875,-0.13671875,0.005859375,0.00708296615544,0.0226982998032,-0.0320276040296,-0.999204108957
1421851137130836010,33146,1421851137130836010,fcu,0.07421875,-0.13671875,0.005859375,0.00708296615544,0.0226982998032,-0.0320276040296,-0.999204108957
1421851137135838032,33147,1421851137135838032,fcu,0.07421875,-0.13671875,0.005859375,0.00708296615544,0.0226982998032,-0.0320276040296,-0.999204108957
1421851137145841837,33149,1421851137145841837,fcu,0.07421875,-0.13671875,0.005859375,0.00708296615544,0.0226982998032,-0.0320276040296,-0.999204108957
1421851137150841951,33150,1421851137150841951,fcu,0.07421875,-0.13671875,0.005859375,0.00608503900792,0.022672965259,-0.0330255311771,-0.999178774413
1421851137155843973,33151,1421851137155843973,fcu,0.07421875,-0.13671875,0.005859375,0.00706079647314,0.0227052059379,-0.0330033738652,-0.999172355547
1421851137160845995,33152,1421851137160845995,fcu,0.07421875,-0.13671875,0.005859375,0.00608503900792,0.022672965259,-0.0330255311771,-0.999178774413
1421851137170850039,33154,1421851137170850039,fcu,0.07421875,-0.13671875,0.005859375,0.0060524849231,0.0236487048628,-0.0330181172357,-0.999156599397
1421851137175851822,33155,1421851137175851822,fcu,0.07421875,-0.13671875,0.005859375,0.0060524849231,0.0236487048628,-0.0330181172357,-0.999156599397
1421851137180851936,33156,1421851137180851936,fcu,0.07421875,-0.13671875,0.005859375,0.0060524849231,0.0236487048628,-0.0330181172357,-0.999156599397
1421851137185853958,33157,1421851137185853958,fcu,0.07421875,-0.13671875,0.005859375,0.0060524849231,0.0236487048628,-0.0330181172357,-0.999156599397
1421851137190855980,33158,1421851137190855980,fcu,0.07421875,-0.13671875,0.005859375,0.0060524849231,0.0236487048628,-0.0330181172357,-0.999156599397
1421851137195858002,33159,1421851137195858002,fcu,0.072265625,-0.13671875,0.005859375,0.00507674332554,0.0236164493362,-0.0330411959261,-0.999162033591
1421851137200860023,33160,1421851137200860023,fcu,0.072265625,-0.13671875,0.005859375,0.0060524849231,0.0236487048628,-0.0330181172357,-0.999156599397
1421851137205862045,33161,1421851137205862045,fcu,0.072265625,-0.13671875,0.005859375,0.00507674332554,0.0236164493362,-0.0330411959261,-0.999162033591
1421851137210861921,33162,1421851137210861921,fcu,0.072265625,-0.13671875,0.005859375,0.00507674332554,0.0236164493362,-0.0330411959261,-0.999162033591
1421851137215863943,33163,1421851137215863943,fcu,0.072265625,-0.13671875,0.005859375,0.00507674332554,0.0236164493362,-0.0330411959261,-0.999162033591
1421851137220865965,33164,1421851137220865965,fcu,0.072265625,-0.13671875,0.005859375,0.00507674332554,0.0236164493362,-0.0330411959261,-0.999162033591
1421851137225867987,33165,1421851137225867987,fcu,0.072265625,-0.13671875,0.005859375,0.00507674332554,0.0236164493362,-0.0330411959261,-0.999162033591
1421851137230870008,33166,1421851137230870008,fcu,0.072265625,-0.13671875,0.005859375,0.00507674332554,0.0236164493362,-0.0330411959261,-0.999162033591
1421851137235872030,33167,1421851137235872030,fcu,0.072265625,-0.13671875,0.005859375,0.00507674332554,0.0236164493362,-0.0330411959261,-0.999162033591
1421851137240871906,33168,1421851137240871906,fcu,0.0703125,-0.13671875,0.005859375,0.00507674332554,0.0236164493362,-0.0330411959261,-0.999162033591
1421851137245873928,33169,1421851137245873928,fcu,0.0703125,-0.13671875,0.005859375,0.00507674332554,0.0236164493362,-0.0330411959261,-0.999162033591
1421851137250875950,33170,1421851137250875950,fcu,0.0703125,-0.13671875,0.005859375,0.0060524849231,0.0236487048628,-0.0330181172357,-0.999156599397
1421851137255877972,33171,1421851137255877972,fcu,0.0703125,-0.13671875,0.005859375,0.00507674332554,0.0236164493362,-0.0330411959261,-0.999162033591
1421851137260879993,33172,1421851137260879993,fcu,0.0703125,-0.13671875,0.005859375,0.0060524849231,0.0236487048628,-0.0330181172357,-0.999156599397
1421851137265882015,33173,1421851137265882015,fcu,0.0703125,-0.13671875,0.005859375,0.00507674332554,0.0236164493362,-0.0330411959261,-0.999162033591
1421851137270881891,33174,1421851137270881891,fcu,0.0703125,-0.134765625,0.005859375,0.00507674332554,0.0236164493362,-0.0330411959261,-0.999162033591
1421851137275883913,33175,1421851137275883913,fcu,0.0703125,-0.134765625,0.005859375,0.00507674332554,0.0236164493362,-0.0330411959261,-0.999162033591
1421851137280885935,33176,1421851137280885935,fcu,0.0703125,-0.134765625,0.005859375,0.00507674332554,0.0236164493362,-0.0330411959261,-0.999162033591
1421851137285887957,33177,1421851137285887957,fcu,0.0703125,-0.134765625,0.005859375,0.00507674332554,0.0236164493362,-0.0330411959261,-0.999162033591
1421851137290889978,33178,1421851137290889978,fcu,0.0703125,-0.134765625,0.005859375,0.00507674332554,0.0236164493362,-0.0330411959261,-0.999162033591
1421851137295892000,33179,1421851137295892000,fcu,0.0703125,-0.134765625,0.005859375,0.00507674332554,0.0236164493362,-0.0330411959261,-0.999162033591
1421851137300891876,33180,1421851137300891876,fcu,0.0703125,-0.134765625,0.005859375,0.00507674332554,0.0236164493362,-0.0330411959261,-0.999162033591
1421851137305893898,33181,1421851137305893898,fcu,0.068359375,-0.134765625,0.005859375,0.00507674332554,0.0236164493362,-0.0330411959261,-0.999162033591
1421851137310895920,33182,1421851137310895920,fcu,0.068359375,-0.134765625,0.005859375,0.00507674332554,0.0236164493362,-0.0330411959261,-0.999162033591
1421851137315897942,33183,1421851137315897942,fcu,0.068359375,-0.134765625,0.005859375,0.00505367796962,0.0236213958314,-0.0340169241892,-0.999129290366
1421851137320899963,33184,1421851137320899963,fcu,0.068359375,-0.134765625,0.005859375,0.00602938760238,0.0236546042151,-0.033993840203,-0.999123878712
1421851137325901985,33185,1421851137325901985,fcu,0.068359375,-0.134765625,0.005859375,0.00508716324529,0.0226456816879,-0.0340234069397,-0.999151490842
1421851137330901861,33186,1421851137330901861,fcu,0.068359375,-0.134765625,0.005859375,0.00606289454223,0.0226788968677,-0.0340012757961,-0.999146046477
1421851137335903883,33187,1421851137335903883,fcu,0.068359375,-0.134765625,0.005859375,0.00508716324529,0.0226456816879,-0.0340234069397,-0.999151490842
1421851137340905905,33188,1421851137340905905,fcu,0.068359375,-0.134765625,0.005859375,0.00606289454223,0.0226788968677,-0.0340012757961,-0.999146046477
1421851137345907927,33189,1421851137345907927,fcu,0.068359375,-0.134765625,0.005859375,0.00606289454223,0.0226788968677,-0.0340012757961,-0.999146046477
1421851137350909948,33190,1421851137350909948,fcu,0.068359375,-0.134765625,0.005859375,0.00508716324529,0.0226456816879,-0.0340234069397,-0.999151490842
1421851137355911970,33191,1421851137355911970,fcu,0.06640625,-0.134765625,0.005859375,0.00606289454223,0.0226788968677,-0.0340012757961,-0.999146046477
1421851137360911846,33192,1421851137360911846,fcu,0.06640625,-0.134765625,0.005859375,0.00508716324529,0.0226456816879,-0.0340234069397,-0.999151490842
1421851137365913868,33193,1421851137365913868,fcu,0.06640625,-0.134765625,0.005859375,0.00606289454223,0.0226788968677,-0.0340012757961,-0.999146046477
1421851137370915890,33194,1421851137370915890,fcu,0.06640625,-0.134765625,0.005859375,0.00508716324529,0.0226456816879,-0.0340234069397,-0.999151490842
1421851137395923853,33199,1421851137395923853,fcu,0.064453125,-0.134765625,0.005859375,0.00508716324529,0.0226456816879,-0.0340234069397,-0.999151490842
1421851137400925875,33200,1421851137400925875,fcu,0.064453125,-0.134765625,0.005859375,0.00606289454223,0.0226788968677,-0.0340012757961,-0.999146046477
1421851137405927896,33201,1421851137405927896,fcu,0.0625,-0.134765625,0.005859375,0.00508716324529,0.0226456816879,-0.0340234069397,-0.999151490842
1421851137410929918,33202,1421851137410929918,fcu,0.0625,-0.134765625,0.005859375,0.00606289454223,0.0226788968677,-0.0340012757961,-0.999146046477
1421851137415931940,33203,1421851137415931940,fcu,0.0625,-0.134765625,0.005859375,0.00506504589954,0.0226506388217,-0.0349991244388,-0.999117788431
1421851137420932055,33204,1421851137420932055,fcu,0.0625,-0.134765625,0.005859375,0.00506504589954,0.0226506388217,-0.0349991244388,-0.999117788431
1421851137425933838,33205,1421851137425933838,fcu,0.0625,-0.134765625,0.005859375,0.00506504589954,0.0226506388217,-0.0349991244388,-0.999117788431
1421851137430935860,33206,1421851137430935860,fcu,0.0625,-0.134765625,0.005859375,0.00509947917453,0.0216749362426,-0.0350055954886,-0.999139029733
1421851137435937881,33207,1421851137435937881,fcu,0.0625,-0.134765625,0.005859375,0.00509947917453,0.0216749362426,-0.0350055954886,-0.999139029733
1421851137440939903,33208,1421851137440939903,fcu,0.0625,-0.134765625,0.005859375,0.00509947917453,0.0216749362426,-0.0350055954886,-0.999139029733
1421851137445941925,33209,1421851137445941925,fcu,0.0625,-0.134765625,0.005859375,0.00509947917453,0.0216749362426,-0.0350055954886,-0.999139029733
1421851137450942039,33210,1421851137450942039,fcu,0.0625,-0.134765625,0.005859375,0.00509947917453,0.0216749362426,-0.0350055954886,-0.999139029733
1421851137455943823,33211,1421851137455943823,fcu,0.0625,-0.134765625,0.005859375,0.00509947917453,0.0216749362426,-0.0350055954886,-0.999139029733
1421851137460945845,33212,1421851137460945845,fcu,0.0625,-0.134765625,0.005859375,0.00509947917453,0.0216749362426,-0.0350055954886,-0.999139029733
1421851137465947866,33213,1421851137465947866,fcu,0.0625,-0.134765625,0.005859375,0.00509947917453,0.0216749362426,-0.0350055954886,-0.999139029733
1421851137470949888,33214,1421851137470949888,fcu,0.0625,-0.134765625,0.005859375,0.00509947917453,0.0216749362426,-0.0350055954886,-0.999139029733
1421851137475951910,33215,1421851137475951910,fcu,0.0625,-0.134765625,0.005859375,0.00509947917453,0.0216749362426,-0.0350055954886,-0.999139029733
1421851137480952024,33216,1421851137480952024,fcu,0.060546875,-0.134765625,0.005859375,0.00509947917453,0.0216749362426,-0.0350055954886,-0.999139029733
1421851137485954046,33217,1421851137485954046,fcu,0.060546875,-0.134765625,0.005859375,0.00509947917453,0.0216749362426,-0.0350055954886,-0.999139029733
1421851137490955830,33218,1421851137490955830,fcu,0.060546875,-0.134765625,0.005859375,0.00412375518927,0.0216407407608,-0.0350267457232,-0.999143533266
1421851137495957851,33219,1421851137495957851,fcu,0.060546875,-0.134765625,0.005859375,0.00412375518927,0.0216407407608,-0.0350267457232,-0.999143533266
1421851137500959873,33220,1421851137500959873,fcu,0.060546875,-0.134765625,0.005859375,0.00509947917453,0.0216749362426,-0.0350055954886,-0.999139029733
1421851137505961895,33221,1421851137505961895,fcu,0.060546875,-0.134765625,0.005859375,0.00509947917453,0.0216749362426,-0.0350055954886,-0.999139029733
1421851137510962009,33222,1421851137510962009,fcu,0.060546875,-0.134765625,0.005859375,0.00509947917453,0.0216749362426,-0.0350055954886,-0.999139029733
1421851137515964031,33223,1421851137515964031,fcu,0.060546875,-0.134765625,0.005859375,0.00509947917453,0.0216749362426,-0.0350055954886,-0.999139029733
1421851137520966053,33224,1421851137520966053,fcu,0.060546875,-0.134765625,0.005859375,0.00509947917453,0.0216749362426,-0.0350055954886,-0.999139029733
1421851137525967836,33225,1421851137525967836,fcu,0.060546875,-0.134765625,0.005859375,0.00509947917453,0.0216749362426,-0.0350055954886,-0.999139029733
1421851137530969858,33226,1421851137530969858,fcu,0.060546875,-0.134765625,0.005859375,0.00509947917453,0.0216749362426,-0.0350055954886,-0.999139029733
1421851137535971880,33227,1421851137535971880,fcu,0.060546875,-0.134765625,0.005859375,0.00509947917453,0.0216749362426,-0.0350055954886,-0.999139029733
1421851137540971994,33228,1421851137540971994,fcu,0.060546875,-0.134765625,0.005859375,0.00509947917453,0.0216749362426,-0.0350055954886,-0.999139029733
1421851137545974016,33229,1421851137545974016,fcu,0.060546875,-0.134765625,0.005859375,0.00509947917453,0.0216749362426,-0.0350055954886,-0.999139029733
1421851137550976038,33230,1421851137550976038,fcu,0.060546875,-0.134765625,0.005859375,0.00509947917453,0.0216749362426,-0.0350055954886,-0.999139029733
1421851137555977821,33231,1421851137555977821,fcu,0.060546875,-0.134765625,0.005859375,0.00509947917453,0.0216749362426,-0.0350055954886,-0.999139029733
1421851137560979843,33232,1421851137560979843,fcu,0.060546875,-0.134765625,0.005859375,0.00509947917453,0.0216749362426,-0.0350055954886,-0.999139029733
1421851137565981865,33233,1421851137565981865,fcu,0.060546875,-0.134765625,0.005859375,0.00509947917453,0.0216749362426,-0.0350055954886,-0.999139029733
1421851137570981979,33234,1421851137570981979,fcu,0.05859375,-0.134765625,0.005859375,0.00509947917453,0.0216749362426,-0.0350055954886,-0.999139029733
1421851137575984001,33235,1421851137575984001,fcu,0.05859375,-0.134765625,0.005859375,0.00509947917453,0.0216749362426,-0.0350055954886,-0.999139029733
1421851137580986023,33236,1421851137580986023,fcu,0.05859375,-0.134765625,0.005859375,0.00509947917453,0.0216749362426,-0.0350055954886,-0.999139029733
1421851137585988045,33237,1421851137585988045,fcu,0.05859375,-0.134765625,0.005859375,0.00607519829655,0.0217091110536,-0.0349844118701,-0.999133573347
1421851137590989828,33238,1421851137590989828,fcu,0.05859375,-0.134765625,0.005859375,0.00509947917453,0.0216749362426,-0.0350055954886,-0.999139029733
1421851137595991850,33239,1421851137595991850,fcu,0.05859375,-0.134765625,0.005859375,0.00607519829655,0.0217091110536,-0.0349844118701,-0.999133573347
1421851137626001835,33245,1421851137626001835,fcu,0.056640625,-0.134765625,0.005859375,0.00509947917453,0.0216749362426,-0.0350055954886,-0.999139029733
1421851137631001949,33246,1421851137631001949,fcu,0.056640625,-0.134765625,0.005859375,0.00607519829655,0.0217091110536,-0.0349844118701,-0.999133573347
1421851137636003971,33247,1421851137636003971,fcu,0.056640625,-0.134765625,0.005859375,0.00506504589954,0.0226506388217,-0.0349991244388,-0.999117788431
1421851137641005993,33248,1421851137641005993,fcu,0.056640625,-0.134765625,0.005859375,0.00507830981635,0.0216799058665,-0.0359813003503,-0.99910436816
1421851137646008015,33249,1421851137646008015,fcu,0.0546875,-0.134765625,0.005859375,0.0060185882859,0.0226906951945,-0.0359526668252,-0.999077732058
1421851137651010036,33250,1421851137651010036,fcu,0.0546875,-0.134765625,0.005859375,0.00507830981635,0.0216799058665,-0.0359813003503,-0.99910436816
1421851137656011820,33251,1421851137656011820,fcu,0.0546875,-0.134765625,0.005859375,0.0060185882859,0.0226906951945,-0.0359526668252,-0.999077732058
1421851137661011934,33252,1421851137661011934,fcu,0.0546875,-0.134765625,0.005859375,0.0060185882859,0.0226906951945,-0.0359526668252,-0.999077732058
1421851137666013956,33253,1421851137666013956,fcu,0.0546875,-0.134765625,0.005859375,0.00605399509927,0.0217150335118,-0.0359601114134,-0.999098932464
1421851137671015978,33254,1421851137671015978,fcu,0.0546875,-0.1328125,0.005859375,0.0060185882859,0.0226906951945,-0.0359526668252,-0.999077732058
1421851137676018000,33255,1421851137676018000,fcu,0.052734375,-0.1328125,0.005859375,0.0060185882859,0.0226906951945,-0.0359526668252,-0.999077732058
1421851137681020021,33256,1421851137681020021,fcu,0.052734375,-0.1328125,0.005859375,0.0060185882859,0.0226906951945,-0.0359526668252,-0.999077732058
1421851137686022043,33257,1421851137686022043,fcu,0.052734375,-0.1328125,0.005859375,0.0060185882859,0.0226906951945,-0.0359526668252,-0.999077732058
1421851137691021919,33258,1421851137691021919,fcu,0.052734375,-0.1328125,0.005859375,0.0060185882859,0.0226906951945,-0.0359526668252,-0.999077732058
1421851137696023941,33259,1421851137696023941,fcu,0.052734375,-0.1328125,0.005859375,0.00507830981635,0.0216799058665,-0.0359813003503,-0.99910436816
1421851137701025963,33260,1421851137701025963,fcu,0.052734375,-0.1328125,0.005859375,0.00605399509927,0.0217150335118,-0.0359601114134,-0.999098932464
1421851137706027985,33261,1421851137706027985,fcu,0.05078125,-0.1328125,0.005859375,0.00605399509927,0.0217150335118,-0.0359601114134,-0.999098932464
1421851137716032028,33263,1421851137716032028,fcu,0.05078125,-0.1328125,0.005859375,0.00608939613911,0.02073935112,-0.0359675217073,-0.999119180054
1421851137721031904,33264,1421851137721031904,fcu,0.05078125,-0.1328125,0.005859375,0.00511369106627,0.0207042167034,-0.035987757826,-0.999124650312
1421851137736037970,33267,1421851137736037970,fcu,0.05078125,-0.1328125,0.005859375,0.00616018076312,0.0187879279312,-0.0359822393843,-0.999156816714
1421851137741039991,33268,1421851137741039991,fcu,0.05078125,-0.1328125,0.005859375,0.00616018076312,0.0187879279312,-0.0359822393843,-0.999156816714
1421851137746042013,33269,1421851137746042013,fcu,0.05078125,-0.1328125,0.005859375,0.0061955642798,0.0178121889952,-0.0359895467533,-0.999174205747
1421851137756043911,33271,1421851137756043911,fcu,0.048828125,-0.1328125,0.005859375,0.0061955642798,0.0178121889952,-0.0359895467533,-0.999174205747
1421851137761045933,33272,1421851137761045933,fcu,0.048828125,-0.1328125,0.005859375,0.00623094188792,0.0168364330722,-0.0359968198,-0.999190641894
1421851137766047955,33273,1421851137766047955,fcu,0.048828125,-0.1328125,0.005859375,0.00623094188792,0.0168364330722,-0.0359968198,-0.999190641894
1421851137771049976,33274,1421851137771049976,fcu,0.048828125,-0.1328125,0.005859375,0.00626631355375,0.0158606610927,-0.0360040585175,-0.999206125139
1421851137776051998,33275,1421851137776051998,fcu,0.048828125,-0.1328125,0.00390625,0.00529052348926,0.0158254933219,-0.0360195302738,-0.999211768126
1421851137781051874,33276,1421851137781051874,fcu,0.048828125,-0.1328125,0.00390625,0.00529052348926,0.0158254933219,-0.0360195302738,-0.999211768126
1421851137786053896,33277,1421851137786053896,fcu,0.048828125,-0.1328125,0.00390625,0.00529052348926,0.0158254933219,-0.0360195302738,-0.999211768126
1421851137791055918,33278,1421851137791055918,fcu,0.046875,-0.1328125,0.00390625,0.00532587497244,0.0148496996463,-0.0360257817347,-0.999226332983
1421851137796057940,33279,1421851137796057940,fcu,0.046875,-0.1328125,0.00390625,0.00532587497244,0.0148496996463,-0.0360257817347,-0.999226332983
1421851137801059961,33280,1421851137801059961,fcu,0.046875,-0.1328125,0.00390625,0.00532587497244,0.0148496996463,-0.0360257817347,-0.999226332983
1421851137806061983,33281,1421851137806061983,fcu,0.046875,-0.1328125,0.00390625,0.00536122137647,0.0138738918088,-0.0360319988388,-0.999239944904
1421851137816063881,33283,1421851137816063881,fcu,0.044921875,-0.1328125,0.00390625,0.00536122137647,0.0138738918088,-0.0360319988388,-0.999239944904
1421851137821065903,33284,1421851137821065903,fcu,0.044921875,-0.1328125,0.00390625,0.00536122137647,0.0138738918088,-0.0360319988388,-0.999239944904
1421851137826067924,33285,1421851137826067924,fcu,0.044921875,-0.130859375,0.00390625,0.00536122137647,0.0138738918088,-0.0360319988388,-0.999239944904
1421851137831069946,33286,1421851137831069946,fcu,0.044921875,-0.130859375,0.00390625,0.00539656266764,0.0128980707403,-0.0360381815801,-0.999252603875
1421851137836071968,33287,1421851137836071968,fcu,0.044921875,-0.130859375,0.00390625,0.00539656266764,0.0128980707403,-0.0360381815801,-0.999252603875
1421851137841071844,33288,1421851137841071844,fcu,0.04296875,-0.130859375,0.00390625,0.00539656266764,0.0128980707403,-0.0360381815801,-0.999252603875
1421851137846073866,33289,1421851137846073866,fcu,0.04296875,-0.130859375,0.00390625,0.00539656266764,0.0128980707403,-0.0360381815801,-0.999252603875
1421851137851075888,33290,1421851137851075888,fcu,0.04296875,-0.130859375,0.00390625,0.00539656266764,0.0128980707403,-0.0360381815801,-0.999252603875
1421851137856077909,33291,1421851137856077909,fcu,0.04296875,-0.130859375,0.00390625,0.00539656266764,0.0128980707403,-0.0360381815801,-0.999252603875
1421851137861079931,33292,1421851137861079931,fcu,0.04296875,-0.130859375,0.00390625,0.00539656266764,0.0128980707403,-0.0360381815801,-0.999252603875
1421851137866081953,33293,1421851137866081953,fcu,0.04296875,-0.130859375,0.00390625,0.0044560523246,0.0118870321508,-0.0360559555735,-0.999269137986
1421851137871081829,33294,1421851137871081829,fcu,0.04296875,-0.130859375,0.00390625,0.00442072762849,0.0128628710589,-0.036050760166,-0.999257397474
1421851137876083851,33295,1421851137876083851,fcu,0.04296875,-0.130859375,0.00390625,0.0044560523246,0.0118870321508,-0.0360559555735,-0.999269137986
1421851137881085873,33296,1421851137881085873,fcu,0.04296875,-0.130859375,0.00390625,0.00539656266764,0.0128980707403,-0.0360381815801,-0.999252603875
1421851137886087894,33297,1421851137886087894,fcu,0.04296875,-0.130859375,0.00390625,0.00442072762849,0.0128628710589,-0.036050760166,-0.999257397474
1421851137891089916,33298,1421851137891089916,fcu,0.04296875,-0.130859375,0.00390625,0.00442072762849,0.0128628710589,-0.036050760166,-0.999257397474
1421851137896091938,33299,1421851137896091938,fcu,0.04296875,-0.130859375,0.00390625,0.00442072762849,0.0128628710589,-0.036050760166,-0.999257397474
1421851137901092052,33300,1421851137901092052,fcu,0.04296875,-0.130859375,0.00390625,0.00442072762849,0.0128628710589,-0.036050760166,-0.999257397474
1421851137921099901,33304,1421851137921099901,fcu,0.04296875,-0.130859375,0.00390625,0.00438539871645,0.0138386977,-0.0360455303777,-0.999244703996
1421851137926101923,33305,1421851137926101923,fcu,0.04296875,-0.130859375,0.00390625,0.00438539871645,0.0138386977,-0.0360455303777,-0.999244703996
1421851137931102037,33306,1421851137931102037,fcu,0.04296875,-0.130859375,0.00390625,0.00438539871645,0.0138386977,-0.0360455303777,-0.999244703996
1421851137936103821,33307,1421851137936103821,fcu,0.04296875,-0.130859375,0.00390625,0.00438539871645,0.0138386977,-0.0360455303777,-0.999244703996
1421851137941105843,33308,1421851137941105843,fcu,0.04296875,-0.12890625,0.00390625,0.00435006562216,0.0148145111435,-0.0360402662138,-0.999231057564
1421851137946107864,33309,1421851137946107864,fcu,0.04296875,-0.12890625,0.00390625,0.00435006562216,0.0148145111435,-0.0360402662138,-0.999231057564
1421851137951109886,33310,1421851137951109886,fcu,0.04296875,-0.12890625,0.00390625,0.00435006562216,0.0148145111435,-0.0360402662138,-0.999231057564
1421851137956111908,33311,1421851137956111908,fcu,0.04296875,-0.12890625,0.00390625,0.00435006562216,0.0148145111435,-0.0360402662138,-0.999231057564
1421851137961112022,33312,1421851137961112022,fcu,0.041015625,-0.12890625,0.00390625,0.00435006562216,0.0148145111435,-0.0360402662138,-0.999231057564
1421851137966114044,33313,1421851137966114044,fcu,0.041015625,-0.12890625,0.00390625,0.00333892915455,0.0157551125368,-0.036050370719,-0.999220195328
1421851137981119871,33316,1421851137981119871,fcu,0.041015625,-0.12890625,0.00390625,0.00431472837933,0.0157903104588,-0.0360349676792,-0.999216458191
1421851137986121893,33317,1421851137986121893,fcu,0.041015625,-0.12890625,0.00390625,0.00427938702165,0.0167660947153,-0.036029634779,-0.999200905891
1421851137991122007,33318,1421851137991122007,fcu,0.041015625,-0.12890625,0.00390625,0.00330360300152,0.0167309015359,-0.0360459907355,-0.999204608523
1421851137996124029,33319,1421851137996124029,fcu,0.041015625,-0.12890625,0.00390625,0.00427938702165,0.0167660947153,-0.036029634779,-0.999200905891
1421851138001126051,33320,1421851138001126051,fcu,0.041015625,-0.12890625,0.00390625,0.00330360300152,0.0167309015359,-0.0360459907355,-0.999204608523
1421851138006127834,33321,1421851138006127834,fcu,0.041015625,-0.12890625,0.00390625,0.00424404158284,0.0177418629823,-0.0360242675183,-0.999184400678
1421851138011129856,33322,1421851138011129856,fcu,0.041015625,-0.12890625,0.00390625,0.00326827369793,0.0177066745792,-0.0360415763759,-0.999188068801
1421851138016131878,33323,1421851138016131878,fcu,0.041015625,-0.12890625,0.00390625,0.00424404158284,0.0177418629823,-0.0360242675183,-0.999184400678
1421851138021131992,33324,1421851138021131992,fcu,0.041015625,-0.12890625,0.00390625,0.00422696900706,0.018713495354,-0.0350430999147,-0.999201640798
1421851138026134014,33325,1421851138026134014,fcu,0.041015625,-0.12890625,0.00390625,0.00325118429424,0.0186792646589,-0.0350613580997,-0.99920529224
1421851138031136036,33326,1421851138031136036,fcu,0.041015625,-0.12890625,0.00390625,0.00422696900706,0.018713495354,-0.0350430999147,-0.999201640798
1421851138036137819,33327,1421851138036137819,fcu,0.0390625,-0.12890625,0.00390625,0.00325118429424,0.0186792646589,-0.0350613580997,-0.99920529224
1421851138041139841,33328,1421851138041139841,fcu,0.0390625,-0.12890625,0.00390625,0.00422696900706,0.018713495354,-0.0350430999147,-0.999201640798
1421851138046141863,33329,1421851138046141863,fcu,0.0390625,-0.12890625,0.001953125,0.00321680167678,0.0196550370409,-0.0350568930158,-0.999186842366
1421851138051141977,33330,1421851138051141977,fcu,0.0390625,-0.12890625,0.001953125,0.00321680167678,0.0196550370409,-0.0350568930158,-0.999186842366
1421851138056143999,33331,1421851138056143999,fcu,0.0390625,-0.12890625,0.001953125,0.00419256838854,0.0196892629103,-0.0350376819303,-0.99918322451
1421851138066148043,33333,1421851138066148043,fcu,0.0390625,-0.12890625,0.001953125,0.00318241599153,0.0206307906783,-0.035052394499,-0.999167439594
1421851138071149826,33334,1421851138071149826,fcu,0.0390625,-0.12890625,0.001953125,0.00318241599153,0.0206307906783,-0.035052394499,-0.999167439594
1421851138076151848,33335,1421851138076151848,fcu,0.0390625,-0.12890625,0.001953125,0.0031480272713,0.0216065246407,-0.0350478625537,-0.999147083941
1421851138081151962,33336,1421851138081151962,fcu,0.0390625,-0.12890625,0.001953125,0.0031480272713,0.0216065246407,-0.0350478625537,-0.999147083941
1421851138086153984,33337,1421851138086153984,fcu,0.0390625,-0.12890625,0.001953125,0.0031480272713,0.0216065246407,-0.0350478625537,-0.999147083941
1421851138091156006,33338,1421851138091156006,fcu,0.0390625,-0.12890625,0.001953125,0.00311363554887,0.0225822379976,-0.0350432971841,-0.999125775427
1421851138096158028,33339,1421851138096158028,fcu,0.0390625,-0.12890625,0.001953125,0.00311363554887,0.0225822379976,-0.0350432971841,-0.999125775427
1421851138101160049,33340,1421851138101160049,fcu,0.0390625,-0.12890625,0.001953125,0.00311363554887,0.0225822379976,-0.0350432971841,-0.999125775427
1421851138141171932,33348,1421851138141171932,fcu,0.0390625,-0.12890625,0.001953125,0.00301044269643,0.0255092451295,-0.0350294005736,-0.999056132929
1421851138146173954,33349,1421851138146173954,fcu,0.0390625,-0.12890625,0.001953125,0.00301044269643,0.0255092451295,-0.0350294005736,-0.999056132929
1421851138181185961,33356,1421851138181185961,fcu,0.037109375,-0.12890625,-0.0,0.00297603929325,0.0264848667591,-0.0350247015509,-0.999031013184
1421851138186187983,33357,1421851138186187983,fcu,0.037109375,-0.12890625,-0.0,0.0020348006612,0.0254750245722,-0.0350542952385,-0.999058596427
1421851138206193924,33361,1421851138206193924,fcu,0.0390625,-0.12890625,-0.0,0.00301044269643,0.0255092451295,-0.0350294005736,-0.999056132929
1421851138211195946,33362,1421851138211195946,fcu,0.0390625,-0.12890625,-0.0,0.00301044269643,0.0255092451295,-0.0350294005736,-0.999056132929
1421851138216197968,33363,1421851138216197968,fcu,0.0390625,-0.12890625,-0.0,0.00301044269643,0.0255092451295,-0.0350294005736,-0.999056132929
1421851138221199989,33364,1421851138221199989,fcu,0.0390625,-0.126953125,-0.0,0.00301044269643,0.0255092451295,-0.0350294005736,-0.999056132929
1421851138226202011,33365,1421851138226202011,fcu,0.0390625,-0.126953125,-0.0,0.00306025966719,0.0255033167073,-0.0330780534913,-0.999122644136
1421851138231201887,33366,1421851138231201887,fcu,0.0390625,-0.126953125,-0.0,0.00208455265586,0.0254710017649,-0.0331029432972,-0.999125156251
1421851138236203909,33367,1421851138236203909,fcu,0.0390625,-0.126953125,-0.0,0.00306025966719,0.0255033167073,-0.0330780534913,-0.999122644136
1421851138241205931,33368,1421851138241205931,fcu,0.0390625,-0.126953125,-0.001953125,0.00211702394025,0.0244952864354,-0.0331066088582,-0.99914936401
1421851138246207952,33369,1421851138246207952,fcu,0.0390625,-0.126953125,-0.001953125,0.00211702394025,0.0244952864354,-0.0331066088582,-0.99914936401
1421851138251209974,33370,1421851138251209974,fcu,0.0390625,-0.126953125,-0.001953125,0.00211702394025,0.0244952864354,-0.0331066088582,-0.99914936401
1421851138256211996,33371,1421851138256211996,fcu,0.0390625,-0.125,-0.001953125,0.00211702394025,0.0244952864354,-0.0331066088582,-0.99914936401
1421851138261211872,33372,1421851138261211872,fcu,0.0390625,-0.125,-0.001953125,0.00211702394025,0.0244952864354,-0.0331066088582,-0.99914936401
1421851138266213894,33373,1421851138266213894,fcu,0.0390625,-0.125,-0.001953125,0.00211702394025,0.0244952864354,-0.0331066088582,-0.99914936401
1421851138271215916,33374,1421851138271215916,fcu,0.0390625,-0.125,-0.001953125,0.00211702394025,0.0244952864354,-0.0331066088582,-0.99914936401
1421851138276217937,33375,1421851138276217937,fcu,0.0390625,-0.125,-0.001953125,0.00211702394025,0.0244952864354,-0.0331066088582,-0.99914936401
1421851138281219959,33376,1421851138281219959,fcu,0.0390625,-0.125,-0.001953125,0.00211702394025,0.0244952864354,-0.0331066088582,-0.99914936401
1421851138286221981,33377,1421851138286221981,fcu,0.0390625,-0.125,-0.001953125,0.00211702394025,0.0244952864354,-0.0331066088582,-0.99914936401
1421851138291221857,33378,1421851138291221857,fcu,0.0390625,-0.125,-0.001953125,0.00211702394025,0.0244952864354,-0.0331066088582,-0.99914936401
1421851138306227922,33381,1421851138306227922,fcu,0.0390625,-0.125,-0.001953125,0.00211702394025,0.0244952864354,-0.0331066088582,-0.99914936401
1421851138311229944,33382,1421851138311229944,fcu,0.0390625,-0.125,-0.001953125,0.00211702394025,0.0244952864354,-0.0331066088582,-0.99914936401
1421851138346241951,33389,1421851138346241951,fcu,0.0390625,-0.125,-0.001953125,0.00208455265586,0.0254710017649,-0.0331029432972,-0.999125156251
1421851138351241827,33390,1421851138351241827,fcu,0.0390625,-0.125,-0.001953125,0.00208455265586,0.0254710017649,-0.0331029432972,-0.999125156251
1421851138361245871,33392,1421851138361245871,fcu,0.0390625,-0.125,-0.001953125,0.00208455265586,0.0254710017649,-0.0331029432972,-0.999125156251
1421851138366247892,33393,1421851138366247892,fcu,0.0390625,-0.125,-0.001953125,0.00210942568308,0.0254689539238,-0.0321272195072,-0.999157006919
1421851138371249914,33394,1421851138371249914,fcu,0.0390625,-0.125,-0.001953125,0.0011651803309,0.0244618178806,-0.0321547652488,-0.999182832565
1421851138376251936,33395,1421851138376251936,fcu,0.0390625,-0.125,-0.001953125,0.00210942568308,0.0254689539238,-0.0321272195072,-0.999157006919
1421851138381252050,33396,1421851138381252050,fcu,0.0390625,-0.125,-0.001953125,0.0011651803309,0.0244618178806,-0.0321547652488,-0.999182832565
1421851138386253834,33397,1421851138386253834,fcu,0.0390625,-0.125,-0.001953125,0.00113368556775,0.0254375675464,-0.0321520762091,-0.99915859047
1421851138396257877,33399,1421851138396257877,fcu,0.0390625,-0.125,-0.001953125,0.00113368556775,0.0254375675464,-0.0321520762091,-0.99915859047
1421851138401259899,33400,1421851138401259899,fcu,0.0390625,-0.125,-0.001953125,0.0011651803309,0.0244618178806,-0.0321547652488,-0.999182832565
1421851138406261921,33401,1421851138406261921,fcu,0.0390625,-0.125,-0.001953125,0.00113368556775,0.0254375675464,-0.0321520762091,-0.99915859047
1421851138411262035,33402,1421851138411262035,fcu,0.0390625,-0.125,-0.001953125,0.0011651803309,0.0244618178806,-0.0321547652488,-0.999182832565
1421851138426267862,33405,1421851138426267862,fcu,0.0390625,-0.125,-0.001953125,0.00113368556775,0.0254375675464,-0.0321520762091,-0.99915859047
1421851138431269884,33406,1421851138431269884,fcu,0.0390625,-0.125,-0.001953125,0.0011651803309,0.0244618178806,-0.0321547652488,-0.999182832565
1421851138436271906,33407,1421851138436271906,fcu,0.0390625,-0.125,-0.001953125,0.00113368556775,0.0254375675464,-0.0321520762091,-0.99915859047
1421851138441272020,33408,1421851138441272020,fcu,0.0390625,-0.125,-0.001953125,0.00118906826553,0.024460668345,-0.0311789855864,-0.99921375725
1421851138446274042,33409,1421851138446274042,fcu,0.0390625,-0.125,-0.001953125,0.00118906826553,0.024460668345,-0.0311789855864,-0.99921375725
1421851138451275826,33410,1421851138451275826,fcu,0.0390625,-0.125,-0.001953125,0.00118906826553,0.024460668345,-0.0311789855864,-0.99921375725
1421851138456277847,33411,1421851138456277847,fcu,0.0390625,-0.125,-0.001953125,0.00118906826553,0.024460668345,-0.0311789855864,-0.99921375725
1421851138461279869,33412,1421851138461279869,fcu,0.0390625,-0.125,-0.001953125,0.00216486222825,0.0244911049046,-0.0311550833515,-0.999212119589
1421851138466281891,33413,1421851138466281891,fcu,0.0390625,-0.125,-0.001953125,0.0012196089993,0.0234848650604,-0.0311816212164,-0.999237049036
1421851138471282005,33414,1421851138471282005,fcu,0.0390625,-0.125,-0.001953125,0.00216486222825,0.0244911049046,-0.0311550833515,-0.999212119589
1421851138476284027,33415,1421851138476284027,fcu,0.0390625,-0.125,-0.001953125,0.00219542569334,0.023515304659,-0.0311586719129,-0.999235381538
1421851138486287832,33417,1421851138486287832,fcu,0.0390625,-0.125,-0.001953125,0.00219542569334,0.023515304659,-0.0311586719129,-0.999235381538
1421851138491289854,33418,1421851138491289854,fcu,0.0390625,-0.125,-0.001953125,0.00219542569334,0.023515304659,-0.0311586719129,-0.999235381538
1421851138496291876,33419,1421851138496291876,fcu,0.0390625,-0.125,-0.001953125,0.00219542569334,0.023515304659,-0.0311586719129,-0.999235381538
1421851138501291990,33420,1421851138501291990,fcu,0.0390625,-0.125,-0.001953125,0.00219542569334,0.023515304659,-0.0311586719129,-0.999235381538
1421851138511296034,33422,1421851138511296034,fcu,0.041015625,-0.125,-0.001953125,0.00221838880754,0.023513149476,-0.0301828414081,-0.999265333451
1421851138516297817,33423,1421851138516297817,fcu,0.041015625,-0.125,-0.001953125,0.00221838880754,0.023513149476,-0.0301828414081,-0.999265333451
