%time,field.x,field.y,field.theta
1421851136352968946,0.0769725609845,-0.137551758116,0.0633660652758
1421851136353371196,0.0771949239814,-0.135757543563,0.0625521187787
1421851136427167238,0.0787976302926,-0.137078995392,0.0620478162821
1421851136427291155,0.0789235149122,-0.135093663326,0.0611206597989
1421851136427647738,0.0800812044041,-0.138834656898,0.0607393753422
1421851136475814571,0.0816706423669,-0.139157224737,0.0609645457356
1421851136476147696,0.07903599921,-0.13854708876,0.0597457167199
1421851136532598113,0.0813325680422,-0.139927963879,0.0595710790109
1421851136532763530,0.0828100647448,-0.140581079302,0.0592817062307
1421851136608309488,0.0823015886241,-0.139572388749,0.0588243225316
1421851136608751113,0.0818249844013,-0.140031667025,0.0579857042772
1421851136710003780,0.0825974668185,-0.141905417217,0.0580211028341
1421851136710782113,0.0834641133694,-0.141896099921,0.0579423963245
1421851136711215405,0.0825709440825,-0.1422625442,0.0578615567147
1421851136711830488,0.081881550271,-0.142690361797,0.0579952076756
1421851136797526738,0.0842325139155,-0.141361514172,0.0579107649245
1421851136797915946,0.0835272364546,-0.14323743619,0.0589556632152
1421851136798914530,0.0839698845104,-0.14322765763,0.0588489776128
1421851136881978613,0.0819802262139,-0.141235103176,0.0592197600488
1421851136882432155,0.0825493290104,-0.144249916438,0.0602721880987
1421851136941432196,0.0828812979459,-0.142343806982,0.0605033827524
1421851136941570655,0.0822948453282,-0.143151872306,0.0612037847427
1421851136990629696,0.0826700437865,-0.142049937237,0.0622422878161
1421851136991062405,0.0798967036212,-0.143816359962,0.0627415701024
1421851137022346363,0.0801148203495,-0.143044322984,0.0628875501614
1421851137040789905,0.0788272809771,-0.140153741649,0.0624127310759
1421851137086769655,0.0799873397178,-0.140274807983,0.0636230729003
1421851137139146321,0.0784438976228,-0.140008008775,0.0644662936625
1421851137151755113,0.0784481755702,-0.14055438801,0.064589869924
1421851137167825905,0.074608227734,-0.139967194697,0.0649145221843
1421851137189852863,0.0746015621245,-0.140461965042,0.0653662909673
1421851137245466905,0.0729399460432,-0.140044258664,0.0659126953209
1421851137245620863,0.0743154452843,-0.138657371578,0.0656150895198
1421851137337905363,0.071293459992,-0.139361854173,0.0663773556225
1421851137338039113,0.0712827732658,-0.139945127735,0.066837382885
1421851137402755780,0.0684109226086,-0.139327040048,0.0664845925649
1421851137403120655,0.067832079831,-0.138576698245,0.0667822473101
1421851137403281405,0.0651986794977,-0.13795474081,0.0673784706344
1421851137460811071,0.0663165742752,-0.138044568283,0.0685457786222
1421851137497463655,0.0644612882734,-0.137106675602,0.0686668014563
1421851137587003321,0.0617417153281,-0.137451320065,0.0698201280465
1421851137587151863,0.0594589997334,-0.137264124179,0.0700260732824
1421851137622603698,0.0592916631046,-0.136943315588,0.0702214285745
1421851137644771740,0.0558805208224,-0.137649602601,0.0712938078226
1421851137651362323,0.0557423969457,-0.136200874469,0.071412228668
1421851137675242156,0.0539363835906,-0.136489316467,0.0718155630934
1421851137729445323,0.0520465034368,-0.1370935246,0.0718824407168
1421851137764347198,0.0496494895179,-0.134322822248,0.0712540514977
1421851137781414073,0.049965770278,-0.135753800747,0.0711858720427
1421851137810920823,0.0458902710176,-0.13460710345,0.0710823952225
1421851137811798698,0.0456877521363,-0.135268949756,0.0712813454284
1421851137872136282,0.0453868125856,-0.133932775798,0.0707164853396
1421851137943520823,0.0429634695695,-0.133817052812,0.0703689062247
1421851138031416823,0.0405415051509,-0.133434455434,0.0701622354636
1421851138105817656,0.0407246405032,-0.132325175009,0.0699402938939
1421851138148941115,0.0415816734129,-0.131985304487,0.0699649397296
1421851138251023448,0.0394085759751,-0.131534406573,0.0695778494822
1421851138256506990,0.0426399017105,-0.129425046577,0.0688835056649
1421851138256652115,0.0469043640306,-0.130113418062,0.0683389631719
1421851138257134115,0.0429972427851,-0.127821276316,0.0658190510467
1421851138336293573,0.0440734316638,-0.126650670611,0.065226652662
1421851138355323323,0.043624981588,-0.12885839122,0.063469595891
1421851138367794365,0.0438769171232,-0.128778254868,0.0626054225318
1421851138422645698,0.0444340678839,-0.128644146621,0.0623377302195
1421851138481745407,0.0434309225069,-0.128563805172,0.0611876913681
1421851138537877115,0.0443970022651,-0.127617749965,0.0603116201118
1421851138538813448,0.0415572108173,-0.129972935799,0.0596932124217
1421851138580658490,0.0394101715087,-0.129248876105,0.0589624982508
1421851138613901740,0.0423712498957,-0.131408421537,0.0599141384746
1421851138660974156,0.0411958028789,-0.130745471886,0.0597818522822
1421851138661422282,0.0395528359723,-0.131894749894,0.0606476094061
1421851138714839323,0.0368873896094,-0.130755498676,0.0602513775148
1421851138781114698,0.0348668860994,-0.133073458149,0.0616260915295
1421851138781641698,0.0360555533092,-0.134500735691,0.0631665341913
1421851138782701615,0.0323768946695,-0.135822278406,0.0655895360898
1421851138919679156,0.0311097921758,-0.136664734575,0.0689989954399
1421851138946288532,0.0283001173747,-0.139078791441,0.0761446473517
1421851139023990990,0.0241495146976,-0.14006660082,0.0776146026523
1421851139024902031,0.0232978048123,-0.141776236033,0.0797359378644
1421851139025715615,0.0221061828421,-0.139441953519,0.0807998557138
1421851139158186782,0.0227767815552,-0.140711859229,0.0843806135176
1421851139158617615,0.0210515319983,-0.141017263616,0.0882833085047
1421851139159056448,0.0203482824771,-0.142980133169,0.0900976016915
1421851139253056157,0.0196099870195,-0.143535127858,0.0920857366818
1421851139253449573,0.0177620539239,-0.143433178318,0.0935452885772
1421851139253901698,0.0134732619267,-0.14381987485,0.0962722048752
1421851139374546573,0.0147944718056,-0.144652633021,0.0984309740887
1421851139374926990,0.0141908619664,-0.141878100695,0.099001620301
1421851139375057323,0.0130961357646,-0.14111492429,0.0995361767021
1421851139375511781,0.0121473737792,-0.140801248993,0.1005430675
1421851139375907365,0.00908619787596,-0.13904123482,0.100600443176
1421851139442471907,0.00746026382725,-0.136059476895,0.101096062249
1421851139485481781,0.00489585415374,-0.133723403645,0.100587453178
1421851139485943448,0.00241353297182,-0.131877475385,0.100566888435
1421851139529704073,-0.00047959244816,-0.1306553662,0.0999927174376
1421851139556853615,-0.00837098431559,-0.120189819535,0.0980165041819
1421851139583501323,-0.0147759083413,-0.114608022963,0.0959810959158
1421851139745580156,-0.0219808168993,-0.107691950905,0.0942174271015
1421851139746042323,-0.0406449309012,-0.0922733207829,0.0889305555634
1421851139746509198,-0.054395190537,-0.0804975139792,0.0850530315896
1421851139803692198,-0.0615526413813,-0.0754083592132,0.0835435383178
1421851139887763115,-0.0665216449629,-0.0693071879673,0.0819124909585
1421851139888142115,-0.0764269996547,-0.0607151847039,0.0791615228577
1421851139888588448,-0.091953557737,-0.0468506068393,0.0757915337642
1421851139889022240,-0.102850756085,-0.0375342732805,0.0726704586036
1421851140000850531,-0.111780963707,-0.0306103397208,0.0700006258326
1421851140001257365,-0.123657588392,-0.0210725448797,0.0673841620415
1421851140001710823,-0.13337629881,-0.0130122819468,0.065505812805
1421851140099964615,-0.142221676597,-0.00177228429044,0.0627882723352
1421851140138830573,-0.164357373434,0.0153773935262,0.0585061957078
1421851140139247990,-0.184477694536,0.0380906571135,0.0543861069263
1421851140175125615,-0.197217484772,0.0489496287033,0.0518200378641
1421851140223656948,-0.218265940745,0.0727252302428,0.0473985941982
1421851140223783032,-0.238101526961,0.0958047899104,0.0439552022943
1421851140249065157,-0.249989041328,0.107187865475,0.0427820321379
1421851140268856323,-0.260589701054,0.121316932237,0.0409520626946
1421851140347495948,-0.272469036825,0.133613585901,0.0398684436227
1421851140347957865,-0.29722030966,0.162221403544,0.0363581367003
1421851140397349948,-0.32310724254,0.194272132897,0.0318313880713
1421851140501533573,-0.339667203277,0.210754015669,0.029259180964
1421851140501658740,-0.353970919296,0.22762787379,0.0275585533014
1421851140589300198,-0.380824664602,0.260914469658,0.0254839736837
1421851140589641948,-0.406976169751,0.292445065751,0.0233869849911
1421851140590078365,-0.422148118252,0.308808765478,0.0228018673377
1421851140658072157,-0.433665964572,0.322416133357,0.0237940353837
1421851140658488948,-0.447000049479,0.33941160805,0.022773914819
1421851140695373323,-0.46045443615,0.35599547971,0.0224895738778
1421851140744233907,-0.48979260111,0.38742360733,0.0223199636331
1421851140744361365,-0.516930171995,0.418132419913,0.0223176532613
1421851140788198365,-0.530496362892,0.434582213323,0.0221667752819
1421851140869778448,-0.54668703831,0.44850885635,0.0224966309303
1421851140934387615,-0.560440457231,0.463531668054,0.0231524807332
1421851140934868865,-0.590135801074,0.492037797927,0.0232485224058
1421851140935284573,-0.621734208653,0.522223260859,0.0229375774566
1421851140986352490,-0.636379023076,0.535280907856,0.0231087717438
1421851141041934532,-0.649857932003,0.549127878628,0.0236076576977
1421851141702216532,-1.11517848247,0.866834552542,0.0191990793593
1421851141702677698,-1.13903782138,0.882941548241,0.017071081272
1421851141806502492,-1.16121120541,0.897852779059,0.0158184705563
1421851141806644784,-1.1972069563,0.911989571681,0.0139798649773
1421851141806833659,-1.22332128095,0.924494642233,0.0133489183805
1421851141807014409,-1.25556494312,0.942069530726,0.0109799747854
1421851141807512617,-1.32652157629,0.975451198401,0.00421389809452
1421851141925484866,-1.55925097698,1.04785284786,0.0297481422589
1421851142063412950,-1.61851563878,1.06201063134,0.0491908776318
1421851142063829908,-1.61143846094,1.04940743131,0.0596931589945
1421851142117778409,-1.64809435971,1.03954737082,0.0620493224988
1421851142178330367,-1.67603696731,1.04310854683,0.0658108470484
1421851142178457867,-1.7263709669,1.05093475889,0.0591495820481
1421851142330157533,-1.7741985244,1.09614890893,0.0334571225427
1421851142470598992,-1.8238422223,1.04556732371,-0.00623570186557
1421851142471032658,-1.8425972989,1.04483957817,-0.0112750010659
1421851142471520909,-1.83213863453,1.0360100443,-0.0130153885296
1421851142503536825,-1.81831799648,1.02721628536,-0.0209402275478
1421851142533450408,-1.80759462739,1.02704231243,-0.0259288795004
1421851142568793242,-1.79517123241,1.01652912476,-0.0323594715362
1421851142591872867,-1.7884510416,1.00735554374,-0.0342691062053
1421851142615174242,-1.78845848118,1.00048998864,-0.036493046924
1421851142650343033,-1.78351529499,0.988819325103,-0.0380651490723
1421851142701828575,-1.78035476257,0.981200235723,-0.0401395045535
1421851142712914450,-1.77772661688,0.974336523838,-0.042110312288
1421851142727560200,-1.76987290539,0.959351374885,-0.0447656266122
1421851142782439825,-1.76658544124,0.953154175223,-0.0459934737874
1421851142797698950,-1.76137718397,0.945483470448,-0.0468073658017
1421851142837081450,-1.75950777208,0.941461450079,-0.0483228919662
1421851142891011950,-1.75348252928,0.927750390349,-0.048594286072
1421851142904569533,-1.74844342269,0.924715807076,-0.0496969918936
1421851142938850367,-1.74428799768,0.919972626996,-0.0497235284859
1421851143027064284,-1.7439053977,0.917843089009,-0.0506288346681
1421851143027797034,-1.74138928449,0.912352052899,-0.0506484103122
1421851143028383075,-1.74213687045,0.909606196201,-0.051117487157
1421851143028834075,-1.74273830791,0.903055650087,-0.0503729105053
1421851143204228367,-1.74107662539,0.903290597325,-0.0507133119859
1421851143204979908,-1.74289438865,0.897814867314,-0.0497311312796
1421851143205106450,-1.74905696381,0.893286905307,-0.048270667561
1421851143432116450,-1.75487563975,0.887167301909,-0.0456933894991
1421851143432510825,-1.75667135453,0.888198601275,-0.0448955866253
1421851143432899242,-1.76135578688,0.890857467251,-0.0452959693658
1421851143433224867,-1.76492369449,0.887277582567,-0.0436903898421
1421851143433812117,-1.77465549604,0.888259743371,-0.0414476175283
1421851143434295867,-1.7765663064,0.887446946994,-0.0405069754483
1421851143434913533,-1.78421341586,0.890324869388,-0.0402465249944
1421851143526690534,-1.79022171956,0.889395680647,-0.038970943111
1421851143527023492,-1.79750234429,0.891944128625,-0.0379466819986
1421851143527132700,-1.80305263417,0.895237033829,-0.0383101682807
1421851143615388867,-1.81937954265,0.900443260103,-0.0376889765619
1421851143615528450,-1.84969121637,0.916505427566,-0.0376625538346
1421851143794107617,-1.8598822996,0.919284844495,-0.0374346497539
1421851143794238409,-1.86566040598,0.924802950763,-0.0375300477528
1421851143794350325,-1.87451378728,0.929412662419,-0.0382381503332
1421851143794721075,-1.88216893514,0.933111982375,-0.0380810794808
1421851143871883200,-1.89309051557,0.921958520137,-0.0380232301217
1421851143933303742,-1.92676488443,0.965501398956,-0.0428987829256
1421851143953537575,-1.93922391947,0.977316826456,-0.0441461238079
1421851143982114575,-1.94455718086,0.983115833384,-0.0442931361386
1421851144019105159,-1.95057011051,0.990589378279,-0.0460383375136
1421851144064804367,-1.96439758511,1.00369528606,-0.0472313649418
1421851144090951325,-1.97063643938,1.00830813572,-0.0475589028666
1421851144129516367,-1.97779059455,1.01669194299,-0.0485354451428
1421851144140120284,-1.98516801907,1.02148676394,-0.0488225766259
1421851144194744617,-1.98993735504,1.02835750586,-0.0494052945154
1421851144195209409,-1.99985024191,1.03652701506,-0.0508299878157
1421851144232281367,-2.00751839555,1.04888844471,-0.0527203856353
1421851144263678075,-2.01487989269,1.05623190754,-0.0534499385088
1421851144336548075,-2.03298780291,1.07257581294,-0.0552124452303
1421851144409061367,-2.04525796074,1.08756701608,-0.0572281720828
1421851144409193867,-2.04679605775,1.09230718631,-0.0574119019496
1421851144470375659,-2.05720347761,1.10176069734,-0.0590773274708
1421851144471108492,-2.05970210567,1.10738629728,-0.0602680089024
1421851144471728034,-2.0655695773,1.11562686184,-0.0614382866586
1421851144517633617,-2.06928891265,1.11836787517,-0.0622333877591
1421851144544616242,-2.07037210933,1.11998551088,-0.0625444744253
1421851144558646034,-2.07390257201,1.12317316843,-0.0634876554396
1421851144600006492,-2.07653242916,1.12974248958,-0.0658047919413
1421851144656323742,-2.08230818552,1.13538987142,-0.0680163295572
1421851144682760534,-2.08177642634,1.13918020646,-0.0698511839061
1421851144723366325,-2.08244143384,1.14321441478,-0.0713475261784
1421851144757791075,-2.08373049969,1.14332373944,-0.0720315168811
1421851144795591617,-2.08427973916,1.14696931846,-0.0738991479418
1421851144796037075,-2.08340635495,1.14725317223,-0.0744107104407
1421851144859646825,-2.0836178464,1.15087899099,-0.076237627692
1421851144874478742,-2.08159953953,1.15066915356,-0.0781460625715
1421851144930190534,-2.0782622137,1.15036888975,-0.0787545823036
1421851144930586575,-2.07548989579,1.15209592926,-0.0802974907109
1421851144975932409,-2.07326341845,1.15231771325,-0.0818058536234
1421851145024336284,-2.06926773486,1.14872441725,-0.0818554013228
1421851145054565242,-2.06553239431,1.14828850543,-0.0822040067345
1421851145055615742,-2.06441559049,1.15001488485,-0.0838324585199
1421851145093327034,-2.05963194843,1.143089841,-0.0826773667905
1421851145129375825,-2.05903574494,1.14494401542,-0.0842881799179
1421851145164983242,-2.05499444195,1.140288814,-0.0842273533075
1421851145178406450,-2.04210951048,1.13781469622,-0.0844374590219
1421851145211724950,-2.04020746038,1.13611597681,-0.0845827597942
1421851145327357909,-2.03433890092,1.13783471079,-0.0852314560016
1421851145327830200,-2.03568914079,1.1333475172,-0.0841613045172
1421851145328190575,-2.02805896609,1.13265563388,-0.083695886444
1421851145383613742,-2.02428867634,1.12937230814,-0.083095963345
1421851145384050534,-2.02154275731,1.12398539765,-0.0820079260795
1421851145457943325,-2.01818234677,1.12101322864,-0.0816690419866
1421851145458343950,-2.01319164523,1.11660099743,-0.0807409152531
1421851145485252825,-2.01420071645,1.10913269133,-0.0785834166444
1421851145594200367,-2.00478913205,1.10398067205,-0.0758994864096
1421851145607518617,-2.00102979778,1.09513015501,-0.0724789818304
1421851145636359284,-2.00349742636,1.09415842472,-0.0716982459494
1421851145690927950,-1.99692663448,1.09125514504,-0.070232168749
1421851145741748659,-1.99827809129,1.08937698811,-0.0697020340373
1421851145760268284,-1.99618894426,1.09029954747,-0.068872619492
1421851145760726117,-1.99678644386,1.0792918697,-0.0651508858199
1421851145778333534,-1.99461845423,1.077159852,-0.063705938247
1421851145805603242,-1.99373038292,1.074812166,-0.0625733117063
1421851145836287825,-1.99157259854,1.07186544276,-0.0610241542589
1421851145878766450,-1.98947393801,1.06973757104,-0.0595957986668
1421851145911326075,-1.98888527748,1.06304311589,-0.0566617976877
1421851145948395617,-1.98882573138,1.05952381044,-0.0550088289811
1421851145948836950,-1.98972564583,1.05851203197,-0.0547046356893
1421851146012201744,-1.98552970718,1.05396218506,-0.0528514215878
1421851146029411535,-1.98510314019,1.05089557527,-0.0505230398509
1421851146101019368,-1.98465796711,1.04749958288,-0.0490917566227
1421851146126502744,-1.98566425505,1.0419866581,-0.0473670021091
1421851146191151868,-1.98640210475,1.03490798253,-0.0454916633273
1421851146268163285,-1.98557927343,1.03313691326,-0.0444237946472
1421851146268291327,-1.9846035003,1.02780932133,-0.0423944314138
1421851146377803411,-1.98508928479,1.02871212494,-0.042952116317
1421851146378195619,-1.98790637268,1.01642975826,-0.040736435989
1421851146412062536,-1.98775437841,1.01398615836,-0.0405694106845
1421851146442811952,-1.98580097409,1.01306359626,-0.0409705400672
1421851146471968119,-1.98804571274,1.00495212339,-0.039583183463
1421851146657847494,-1.98444162505,1.00299631441,-0.0392356482371
1421851146658247202,-1.98579610516,1.00239580498,-0.0402860201379
1421851146658711160,-1.98334899172,1.0019301608,-0.0401506976076
1421851146857474827,-1.98208277196,1.00064353463,-0.0413953145589
1421851146857856036,-1.9776832685,0.990658613062,-0.0410677021476
1421851146858190952,-1.97714236514,0.988773881556,-0.0415762258236
1421851146858526994,-1.9792319781,0.987670838835,-0.0421674507078
1421851146858919952,-1.97684188747,0.98440715738,-0.0419035245032
1421851147022469911,-1.9719700038,0.983699914564,-0.0434116567043
1421851147022855494,-1.96930147961,0.98229979946,-0.0454128076619
1421851147023244827,-1.96735573659,0.982353000596,-0.0458725021496
1421851147117579952,-1.96291913108,0.983783685579,-0.0465903323508
1421851147118125994,-1.96225520775,0.980812378857,-0.0461377313319
1421851147179527785,-1.95624268075,0.983345643082,-0.0471603794364
1421851147179640035,-1.94982865542,0.984812434841,-0.0477339357525
1421851147211499661,-1.94679448486,0.987104026633,-0.0470630329064
1421851147251568369,-1.93948060268,0.98907637902,-0.0469650186299
1421851147277860869,-1.93765993589,0.988394580239,-0.0461233408891
1421851147297843744,-1.93481860225,0.990025212954,-0.0452075803646
1421851147346298536,-1.92966959075,0.991521371841,-0.0449040046344
1421851147347247744,-1.92548391721,0.99155260177,-0.0445373077157
1421851147385235827,-1.92552402293,0.990939639663,-0.0439133130516
1421851147427570286,-1.92137045531,0.991559089824,-0.0431606614768
1421851147463491077,-1.91851605482,0.992195102128,-0.0429324380668
1421851147463966327,-1.91453932602,0.99184946366,-0.0419275323252
1421851147514592077,-1.91294976295,0.994726035426,-0.0426554779316
1421851147515037410,-1.91277670884,0.993114010944,-0.0418262817478
1421851147567155369,-1.90506558001,0.995944887617,-0.0425157897728
1421851147595598619,-1.90675682746,0.992286676824,-0.0406411799306
1421851147613335411,-1.90209711382,0.993434794363,-0.0413032313926
1421851147625165369,-1.90280116604,0.990637385127,-0.0395293765302
1421851147668992494,-1.90142937544,0.991560326407,-0.038829281591
1421851147696655994,-1.90164551159,0.989422677934,-0.0388474441305
1421851147727822577,-1.90030523982,0.988385407401,-0.0386206389137
1421851147771163035,-1.89284838605,0.990603182543,-0.0412497474431
1421851147785924410,-1.89422014156,0.988321279959,-0.0406702760473
1421851147825106410,-1.88771173949,0.9918612031,-0.0427441510136
1421851147834534327,-1.88983289486,0.984897455328,-0.0417242093069
1421851147892684369,-1.89009910039,0.97946072703,-0.0435871559875
1421851147946056785,-1.88938336187,0.97253677342,-0.0434905617192
1421851147974735911,-1.88836245561,0.962908236768,-0.0447555490707
1421851148012340911,-1.88820208804,0.960898339316,-0.0461992475994
1421851148131420411,-1.89780987506,0.946534925151,-0.0478418860457
1421851148143461869,-1.89862352849,0.945363616628,-0.0495710105092
1421851148244602119,-1.90184979674,0.936355630936,-0.0498649524262
1421851148260457577,-1.8930599448,0.937190051185,-0.059365388332
1421851148301811369,-1.88300564542,0.933208808576,-0.0608177591654
1421851148334874536,-1.89236950825,0.932855956923,-0.0626782812681
1421851148371509327,-1.88839608087,0.933727546765,-0.067589744032
1421851148427804119,-1.89397971391,0.934201550604,-0.0688919410861
1421851148460808077,-1.90199416477,0.942184662865,-0.072494651899
1421851148484397119,-1.89436228356,0.932957325917,-0.0707017581669
1421851148492190786,-1.89715055786,0.932886739145,-0.0728373146608
1421851148544829786,-1.89477047766,0.93324918554,-0.0746682357509
1421851148571599661,-1.88887403295,0.933415884337,-0.0767274281986
1421851148610511911,-1.88964317162,0.93634868003,-0.0799764886487
1421851148659133244,-1.89188862134,0.934600920192,-0.0811614116574
1421851148694053286,-1.88767986154,0.932977713005,-0.0847003791171
1421851148713951452,-1.8928079495,0.927557209291,-0.0862925108973
1421851148729136119,-1.89038946211,0.932264374864,-0.0888901689717
1421851148757878452,-1.88993592555,0.930828790056,-0.0900190193817
1421851148772943244,-1.89158509166,0.931711732093,-0.0920092732216
1421851148821692744,-1.89064911651,0.928676368306,-0.0924123335765
1421851148835141327,-1.88477346799,0.932761353179,-0.0941281329532
1421851148863997536,-1.89027211982,0.930066766727,-0.0950635184451
1421851148887354744,-1.89020715022,0.929963649472,-0.0961158150351
1421851148895280744,-1.88970968029,0.928066182278,-0.0968919491751
1421851148943006744,-1.8878675161,0.928056074265,-0.0980311625963
1421851148959705619,-1.89008133675,0.927709370708,-0.0984987425478
1421851148994971661,-1.88582683288,0.929219819483,-0.100444765267
1421851149057139036,-1.87389846642,0.922953547815,-0.101137337343
1421851149075901869,-1.87380023233,0.922856785545,-0.102764743807
1421851149107600161,-1.87252614963,0.92187906415,-0.103362996511
1421851149274274619,-1.87231857469,0.920417272162,-0.105199039512
1421851149274745202,-1.87263648352,0.918042838987,-0.104264591251
1421851149333425244,-1.87121607583,0.917970843166,-0.104278401264
1421851149333897994,-1.87281367282,0.916501893513,-0.10401225055
1421851149406679536,-1.87014073828,0.914935765915,-0.103577681581
1421851149420883411,-1.87437651308,0.914794249638,-0.103629098774
1421851149430205494,-1.87651031445,0.916124004034,-0.103341245539
1421851149469714869,-1.87801849148,0.915383545715,-0.103164687519
1421851149470219244,-1.88017654171,0.9150870931,-0.102789516569
1421851149508862452,-1.88000645342,0.916122025792,-0.102639519646
1421851149509409869,-1.88130258357,0.915735074465,-0.102213400945
1421851149554302827,-1.88377624866,0.914837285195,-0.101878042053
1421851149589954702,-1.88793863168,0.91580274731,-0.101861401457
1421851149609641036,-1.8889932195,0.916153161985,-0.101587473253
1421851149639770286,-1.89388187078,0.917219785591,-0.101558121855
1421851149649577702,-1.89268632343,0.915939558169,-0.100175833692
1421851149674972827,-1.89403162969,0.916174965631,-0.100395002085
1421851149742010952,-1.9017438965,0.91709562847,-0.0996494763146
1421851149774789952,-1.90565958756,0.917752355368,-0.0988136757204
1421851149791648744,-1.90664417813,0.917671793155,-0.0984434414509
1421851149838916702,-1.91325532958,0.915672664261,-0.0977742764452
1421851149910258286,-1.91596472465,0.916492586257,-0.097735441409
1421851149942289369,-1.91812958175,0.917724424586,-0.0977550985911
1421851149960251536,-1.92542958292,0.914915415441,-0.0964021768501
1421851150036645202,-1.92864042502,0.915021086384,-0.0957460646223
1421851150125997077,-1.93156965846,0.914336794481,-0.0956609173146
1421851150126485911,-1.93524453374,0.914293782099,-0.0954813566376
1421851150126832119,-1.93898621601,0.910876361629,-0.094711120106
1421851150200217787,-1.94465959831,0.907559608897,-0.0934650519495
1421851150355084121,-1.94693404347,0.908314872569,-0.0940637609587
1421851150355534245,-1.95100261682,0.906757397384,-0.0935502020051
1421851150355966162,-1.9564832298,0.905148408259,-0.0934593241125
1421851150356113329,-1.95775333186,0.902871123965,-0.0930569431482
1421851150496620538,-1.9582445626,0.901460375152,-0.0928755063689
1421851150496972996,-1.96071068216,0.899267292547,-0.0930173815201
1421851150497301329,-1.96437157574,0.898394717123,-0.0930375189599
1421851150497760788,-1.96892719283,0.894686539408,-0.0936698449569
1421851150498146871,-1.97046116792,0.89380125516,-0.0943268217904
1421851150776932663,-1.97315706337,0.891424282174,-0.0938236244005
1421851150777048371,-1.97407213945,0.891924665972,-0.0950326482472
1421851150777400746,-1.97642625736,0.886944056674,-0.0957285816049
1421851150777742121,-1.97742536967,0.886830455024,-0.0966285198361
1421851150778109912,-1.98003645879,0.883803294728,-0.0966727956886
1421851150778497662,-1.9783117177,0.886015809678,-0.0978437008402
1421851150778899871,-1.98243351704,0.879251842409,-0.099136923898
1421851150779271204,-1.98381900155,0.877425208466,-0.0996213368126
1421851150779752329,-1.98367483321,0.876307792601,-0.100423339933
1421851150780119454,-1.98781338524,0.874587408217,-0.1022386609
1421851150973350662,-1.9875585676,0.872768791115,-0.102665967907
1421851150973736496,-1.98777256578,0.869962588838,-0.103219333598
1421851150974126287,-1.98624777745,0.866038338334,-0.103718714382
1421851150974469204,-1.98286256067,0.859352464677,-0.104010331072
1421851150974844996,-1.98463499639,0.859997544801,-0.105054167423
1421851150975210787,-1.98221946801,0.855357277311,-0.105232129594
1421851150975668871,-1.98182878653,0.852568759441,-0.107770566419
1421851151101230746,-1.98009082233,0.847862916014,-0.109689691236
1421851151101619788,-1.98140513502,0.846956817329,-0.111243863101
1421851151102021163,-1.97999015861,0.84370684695,-0.111928038609
1421851151102129913,-1.97898642303,0.843939211859,-0.112486151812
1421851151102515246,-1.97931772119,0.847022739024,-0.114158108363
1421851151179724287,-1.97726601798,0.848386629703,-0.1165428169
1421851151179838704,-1.97900894614,0.850362877372,-0.117205119587
1421851151208279329,-1.98017980686,0.851426414864,-0.118204683419
1421851151338164871,-1.97566919839,0.845332903388,-0.12059537971
1421851151391978954,-1.97187987071,0.841804805628,-0.121343583664
1421851151479626454,-1.97044467099,0.84472674119,-0.122607230284
1421851151480076204,-1.97103350843,0.842863870177,-0.122746148387
1421851151480450787,-1.97068577778,0.845042899134,-0.123626246113
1421851151480841871,-1.97198141112,0.844932163598,-0.123875169251
1421851151511481038,-1.97050862873,0.847239247076,-0.124868826784
1421851151537753204,-1.96972097258,0.848374421552,-0.125559097293
1421851151573108621,-1.96820789046,0.848122088934,-0.126190478905
1421851151615420371,-1.96709879181,0.848368310472,-0.127249969374
1421851151665501371,-1.96526317288,0.848324726516,-0.127924757697
1421851151736394246,-1.96601436168,0.850824072659,-0.128084366256
1421851151778776329,-1.964905571,0.849922425032,-0.128136509111
1421851151789728287,-1.96325360845,0.850092793793,-0.127093973096
1421851151798288538,-1.96465138182,0.851013005019,-0.127317474424
1421851151885576662,-1.9646374149,0.85040808819,-0.127522110908
1421851151885703329,-1.96196741996,0.853670118303,-0.127774702177
1421851151985760829,-1.9617758316,0.852410315845,-0.125429381604
1421851152010716746,-1.96255177108,0.855184921971,-0.124898662508
1421851152027486329,-1.96052100519,0.854751128277,-0.124580117807
1421851152048180996,-1.9649935257,0.854611162724,-0.124371329683
1421851152160134329,-1.96195121394,0.8546748267,-0.122549323114
1421851152160524537,-1.9602632145,0.854785366041,-0.121702234699
1421851152223010954,-1.96173445259,0.857427372332,-0.120867322916
1421851152299606788,-1.9615478198,0.853908758133,-0.118280538888
1421851152309482788,-1.96207298375,0.854839876756,-0.118508622557
1421851152432392204,-1.96173254629,0.857877373004,-0.119271579691
1421851152458964913,-1.96044987541,0.857838101107,-0.119105888881
1421851152518909996,-1.9613403989,0.856875163916,-0.119114956878
1421851152577476413,-1.96107443083,0.858567451057,-0.120058848022
1421851152652022454,-1.95802103151,0.856758195512,-0.1194424425
1421851152652451079,-1.95928362344,0.853653948201,-0.119925062276
1421851152652967954,-1.9586501537,0.855340562573,-0.120582401994
1421851152653403204,-1.95755292449,0.853958185135,-0.120260037344
1421851152782806704,-1.95581903633,0.853641651209,-0.121019333236
1421851152783156954,-1.95586744539,0.853794113409,-0.121887598178
1421851152783657329,-1.95474749718,0.851462500607,-0.120943013324
1421851152784169246,-1.95547217477,0.850385617971,-0.121506768911
1421851152784787454,-1.95659424146,0.850462449942,-0.121736256151
1421851152939325829,-1.95465908845,0.852723532278,-0.12230179855
1421851152939684954,-1.9542571239,0.852985766166,-0.121727606167
1421851152940175746,-1.9536971444,0.854583839664,-0.120683989686
1421851153113322746,-1.95306964791,0.852906569306,-0.1206218367
1421851153113809121,-1.95271170432,0.852957561898,-0.121164914088
1421851153114148329,-1.95050788507,0.852160219105,-0.12128348399
1421851153114613871,-1.94810164478,0.846145501602,-0.121037056973
1421851153232415871,-1.94709126267,0.844023113988,-0.121097925898
1421851153232805204,-1.94715677522,0.839645578268,-0.120473016051
1421851153232946038,-1.94575418101,0.835682219318,-0.120524044907
1421851153363190621,-1.94485270592,0.834808766664,-0.119985306674
1421851153363701246,-1.9452451179,0.830897109676,-0.119312612269
1421851153364512496,-1.94179275627,0.832377088881,-0.119555368824
1421851153482808663,-1.94238714854,0.829181856443,-0.118819411086
1421851153483293663,-1.94365083287,0.82742754871,-0.118951066905
1421851153483817746,-1.94014618012,0.822012949693,-0.117881827601
1421851153484323913,-1.94119667185,0.818795620638,-0.117544031647
1421851153556344871,-1.93998847611,0.817515591689,-0.117340541487
1421851153556463288,-1.93946908212,0.813569601548,-0.117498092109
1421851153632587538,-1.94114652772,0.808094719294,-0.116528063172
1421851153662244496,-1.93942959556,0.803028536014,-0.115900724273
1421851153704209913,-1.93867183513,0.800069674855,-0.116157662386
1421851153760855621,-1.93965223823,0.796739540622,-0.115429776202
1421851153810392288,-1.94099776884,0.796372373129,-0.115923002614
1421851153855520163,-1.94267915318,0.793634982924,-0.115745925227
1421851153945187663,-1.94154083809,0.791244986033,-0.115340663942
1421851154148522121,-1.94112239075,0.790799810936,-0.115470366602
1421851154148971371,-1.94261705491,0.78774094186,-0.115963702329
1421851154149384329,-1.944040149,0.787445872338,-0.116427807556
1421851154149799496,-1.94415561037,0.785622087651,-0.116938308386
1421851154150264204,-1.94687270178,0.786560813463,-0.1194423295
1421851154358420788,-1.94609325678,0.785691358319,-0.120116224046
1421851154358541246,-1.94664460701,0.784916993113,-0.120986874282
1421851154358859371,-1.94918755889,0.785970417609,-0.122008622873
1421851154358972329,-1.94914818217,0.785220496585,-0.122598097529
1421851154359286704,-1.95197644881,0.785179666099,-0.122758963071
1421851154359669204,-1.95254849442,0.78633010857,-0.123305703113
1421851154359794996,-1.95371087287,0.786576096397,-0.123713802963
1421851154479035373,-1.95980211407,0.788707193955,-0.124148880722
1421851154479478914,-1.96273472866,0.793374242085,-0.125969145924
1421851154502570373,-1.96774972808,0.794478514027,-0.126716881795
1421851154523945789,-1.96880352157,0.796217434213,-0.126671155792
1421851154551069247,-1.96778655569,0.796688754355,-0.126697404815
1421851154582521373,-1.96972611395,0.797945705248,-0.12687803873
1421851154582949748,-1.97293743351,0.800933317541,-0.127503244425
1421851154613578498,-1.97560226141,0.801492801675,-0.127333867075
1421851154649629623,-1.97599347923,0.803983154485,-0.127575221755
1421851154650051498,-1.97880458443,0.807016534201,-0.128050793406
1421851154702506290,-1.98244659646,0.809136969125,-0.127938249523
1421851154748843789,-1.9837846538,0.81266352426,-0.12836243065
1421851154773699623,-1.98686742403,0.81249005229,-0.128121518053
1421851154820691164,-1.98885790564,0.816628125544,-0.128771205053
1421851154872960581,-1.99045470562,0.816779247729,-0.128045197194
1421851154873090414,-1.99398979257,0.822472562381,-0.129023287597
1421851154873218373,-1.996114891,0.82820433109,-0.129616153635
1421851154927049248,-1.99828553726,0.829634158096,-0.129362878022
1421851154952247623,-1.99898614911,0.835880857613,-0.129698714948
1421851155013654206,-2.00056559258,0.836288525315,-0.129370151887
1421851155014096039,-2.00086584574,0.83816831894,-0.12924316064
1421851155057646206,-2.00035589367,0.840032629202,-0.1289298838
1421851155113871581,-2.00141352578,0.845688251869,-0.129376377725
1421851155158812206,-2.00166637815,0.84858940169,-0.129534618673
1421851155188182123,-2.00104108041,0.848322078294,-0.129164475581
1421851155206326373,-2.00099590839,0.854230920299,-0.130528540748
1421851155221911831,-2.00138030129,0.855579101758,-0.130504691575
1421851155246500331,-2.00060610206,0.85511081977,-0.129499132036
1421851155282143748,-2.00281962768,0.857479643729,-0.130081908307
1421851155306635123,-1.99970717867,0.859005145211,-0.130422072011
1421851155332490915,-1.99943758841,0.862574227101,-0.131168132382
1421851155376724331,-1.99587920024,0.865286569893,-0.131220146417
1421851155459659956,-1.99834526047,0.864816604882,-0.131471229939
1421851155459793164,-1.99631949741,0.867561411685,-0.132373954349
1421851155508102665,-1.99332990968,0.869786740584,-0.132545241089
1421851155508556539,-1.99356950263,0.871070857105,-0.13328435337
1421851155556107206,-1.99164765988,0.872538263755,-0.134094837678
1421851155556343581,-1.99074668874,0.872520523877,-0.134467543008
1421851155621038539,-1.98916072007,0.873764985038,-0.135794360822
1421851155700048206,-1.98740161421,0.877183330682,-0.136884135261
1421851155700548748,-1.98663826478,0.876258357724,-0.137582693173
1421851155700701123,-1.98426206231,0.876269585556,-0.138043990209
1421851155703901623,-1.98356096128,0.876175195878,-0.139161592259
1421851155850147831,-1.98265033981,0.876442909689,-0.140047196333
1421851155850445956,-1.98026272965,0.879476928254,-0.142757545793
1421851155850810498,-1.97925672928,0.876558559054,-0.144860358871
1421851156024808373,-1.97529003391,0.879146367627,-0.147002126914
1421851156025260498,-1.9738784651,0.878103760365,-0.149284692163
1421851156025379331,-1.97291834116,0.878241097271,-0.150634261734
1421851156025714123,-1.97084245257,0.879077184477,-0.153112165383
1421851156025831081,-1.97053472846,0.87696942577,-0.154167591235
1421851156105779373,-1.96954320017,0.877062644411,-0.158132024757
1421851156106320081,-1.96799072903,0.87566911231,-0.161026705132
1421851156106734873,-1.9650738907,0.874186754837,-0.162266581771
1421851156138926415,-1.96654569528,0.873762296999,-0.163790091415
1421851156139263498,-1.96604587444,0.87372691202,-0.166056089122
1421851156171673956,-1.96452995317,0.872227735673,-0.166922284125
1421851156186916456,-1.96576451861,0.872417679197,-0.169157471659
1421851156226103831,-1.96412753255,0.870922006547,-0.1700121918
1421851156251319623,-1.9643086936,0.869129426313,-0.171216028523
1421851156287243998,-1.96294394632,0.867824547214,-0.172731713334
1421851156303448998,-1.96463330559,0.865695525234,-0.175333260454
1421851156327098456,-1.96489825279,0.865970014837,-0.17762016061
1421851156351472456,-1.96614935247,0.863327018978,-0.178797895057
1421851156384001540,-1.96493729749,0.861760754898,-0.179684209529
1421851156444786248,-1.96736336993,0.861420510116,-0.180986520339
1421851156473219498,-1.96605773371,0.862343169297,-0.182503240496
1421851156510331081,-1.96914285721,0.859686621785,-0.183105008697
1421851156552982248,-1.96833255313,0.86194749998,-0.185160064757
1421851156553421581,-1.97052746562,0.858503725877,-0.186387422036
1421851156611718415,-1.97326682137,0.858147191268,-0.187386352054
1421851156611878040,-1.97156807478,0.857437956212,-0.188269245697
1421851156611995498,-1.97295601635,0.85762289171,-0.189144504911
1421851156658937206,-1.9767127412,0.85609186958,-0.189747895353
1421851156720046165,-1.97411845364,0.855657312535,-0.190338683477
1421851156720551081,-1.97507956062,0.857680705149,-0.191549731742
1421851156824810873,-1.98014302626,0.855559110727,-0.193094499994
1421851156879222165,-1.98528519093,0.855199271054,-0.192978208679
1421851156985377623,-1.98675718298,0.854413967955,-0.19323723735
1421851156986284790,-1.98888575485,0.85554630502,-0.193388612945
1421851156986747665,-1.99046960459,0.854924474706,-0.193175737022
1421851157050531665,-1.9892209496,0.856414006245,-0.193271783321
1421851157051406540,-1.99145867734,0.857498820272,-0.193238170721
1421851157051912915,-1.99262547737,0.857686595148,-0.19331229128
1421851157162578665,-1.99208092387,0.859982609778,-0.19334695922
1421851157162964790,-1.99451659329,0.860741463822,-0.193558731508
1421851157163541956,-1.99543290319,0.860281167062,-0.193202865051
1421851157164305415,-1.99475446013,0.862993572779,-0.193619761729
1421851157288204915,-1.99604443764,0.864517245146,-0.193746228573
1421851157288336165,-1.99746967173,0.864303387338,-0.193628268278
1421851157288663248,-1.99814824569,0.86511196775,-0.19398808824
1421851157479909706,-1.99789966123,0.867941226146,-0.194635945337
1421851157480262873,-1.99535456661,0.870587759839,-0.194937875963
1421851157480627998,-1.99768897852,0.871362089399,-0.19519226189
1421851157481023956,-1.99826379127,0.871368256059,-0.194838206235
1421851157481539831,-1.99538712385,0.872441569656,-0.194571445194
1421851157482010748,-1.99498370591,0.873824899977,-0.194651105579
1421851157482427040,-1.99431009229,0.874392542036,-0.194782015337
1421851157602348956,-1.99511464579,0.874556058656,-0.194475879627
1421851157603133790,-1.99523720066,0.877263473177,-0.195391584055
1421851157603605581,-1.99634114473,0.878031167928,-0.195421162015
1421851157776377956,-1.99313568574,0.878047369039,-0.195576216396
1421851157776797748,-1.99118498826,0.880872228179,-0.196142330872
1421851157777183665,-1.99276462917,0.880670224947,-0.196146263122
1421851157778216831,-1.9901378988,0.882488064082,-0.197116752838
1421851157778794456,-1.98980039943,0.88338774037,-0.197363475324
1421851157928985790,-1.98812374488,0.883994629574,-0.197578937676
1421851157929124040,-1.98737197731,0.887054447852,-0.198945514072
1421851157929374456,-1.9835109016,0.890812170692,-0.200084807145
1421851158103123498,-1.97777093865,0.891129744133,-0.200555766403
1421851158124311498,-1.97052963189,0.893199678887,-0.200206821412
1421851158161819540,-1.96930223057,0.892523295047,-0.199430512546
1421851158196714290,-1.96873238248,0.89354581592,-0.198733536581
1421851158234495790,-1.96664809444,0.892783762543,-0.198235221815
1421851158385133248,-1.96474421993,0.89144557989,-0.197617902141
1421851158385518873,-1.96222339662,0.893675164853,-0.19724043686
1421851158385887915,-1.95963050437,0.893427985387,-0.197033447606
1421851158386300165,-1.95967148487,0.893451101057,-0.196873384358
1421851158445046873,-1.95837792456,0.893133343072,-0.197066851144
1421851158487471165,-1.95484917989,0.892060250081,-0.195889050287
1421851158512910415,-1.95450541545,0.890508511809,-0.195014871864
1421851158607096042,-1.95323705293,0.890346473119,-0.194015020071
1421851158655697999,-1.95282031424,0.88740558385,-0.191924113159
1421851158694334750,-1.9485718597,0.886782823278,-0.191406451122
1421851158721137791,-1.94982067236,0.887786426184,-0.191378873648
1421851158751447708,-1.95209523843,0.884242707933,-0.190449558953
1421851158766158916,-1.94873953824,0.885465773417,-0.190178257705
1421851158779532833,-1.95084703788,0.884818646404,-0.190118487931
1421851158792885958,-1.94928249368,0.884232798326,-0.189912346475
1421851158940846416,-1.95096971185,0.880497840022,-0.188711684915
1421851159019093000,-1.94729025887,0.879866744763,-0.188209064907
1421851159019233208,-1.94737380777,0.879748050834,-0.188431965966
1421851159019670541,-1.94756792818,0.879048445207,-0.188108858134
1421851159020255833,-1.94708091865,0.878134552693,-0.187927783546
1421851159105961708,-1.94596264478,0.877934634248,-0.18840885067
1421851159106199917,-1.94597147953,0.876151093385,-0.188283314957
1421851159211648458,-1.94315138239,0.8754652735,-0.189745969343
1421851159346731875,-1.94171568676,0.875466998551,-0.190497958713
1421851159397279167,-1.94011104385,0.875180421842,-0.191308248422
1421851159397689000,-1.93934229977,0.875182359402,-0.191694212212
1421851159451460500,-1.93838635477,0.874427980588,-0.191922490957
