%time,field.x,field.y,field.theta
1421850126276267090,0.0419047681972,-0.0836436108053,0.386830955091
1421850126297861090,0.0405534497637,-0.0862012558696,0.388052649738
1421850126329359132,0.0399019360105,-0.0897564691559,0.390916540868
1421850126329766715,0.0424701855712,-0.0897553630437,0.390918960516
1421850126382379674,0.0422067227113,-0.0900190101628,0.392587755928
1421850126438614424,0.0426160552749,-0.0907598013908,0.392360825491
1421850126460445340,0.0446486036108,-0.091933244054,0.393457020623
1421850126501894549,0.0461688029925,-0.0935525944197,0.394292915617
1421850126502310049,0.0455973668859,-0.094036197752,0.394409077639
1421850126531371715,0.0479935219454,-0.0943519336255,0.394858235482
1421850126564187674,0.0484760508214,-0.0959197696189,0.394749201025
1421850126585282757,0.048712718767,-0.0974375775355,0.395759842637
1421850126622967924,0.0491293754815,-0.0958760527944,0.395480849543
1421850126672962924,0.0507161540078,-0.0969702722983,0.395035666089
1421850126675255132,0.0532397078642,-0.0977808966991,0.395396941779
1421850126737225882,0.0552102762849,-0.0992381737894,0.394623666792
1421850126737364257,0.0567178050517,-0.101807988704,0.394993931318
1421850126737609132,0.0587621866469,-0.100392981544,0.394515862035
1421850126765926632,0.0603823821699,-0.100493808162,0.3939522496
1421850126851612549,0.0613464450303,-0.101153789852,0.393752443129
1421850126852050424,0.062931851204,-0.10219546711,0.393005592626
1421850126852700174,0.0653960754685,-0.102072071678,0.391937097568
1421850126892870590,0.0672304836275,-0.102889329464,0.391618449555
1421850126963916215,0.0682719311261,-0.102848939165,0.391364922793
1421850127024725215,0.0689583708826,-0.103063877092,0.390534514848
1421850127025169674,0.0728794416615,-0.102904271026,0.389672571753
1421850127083346674,0.0741532177213,-0.102546527262,0.389150453454
1421850127083796549,0.0755088701856,-0.102981631939,0.388751688034
1421850127158910965,0.0765322664206,-0.102274338948,0.388248520306
1421850127159065465,0.0778532938739,-0.102680808024,0.387875361029
1421850127343443674,0.0805715335844,-0.103044742704,0.387346394398
1421850127343821965,0.0818645193197,-0.102624411313,0.387077302997
1421850127344205007,0.0838883150159,-0.103395953098,0.387232229664
1421850127344330674,0.0856971770461,-0.102455777829,0.386871656669
1421850127344716965,0.0848392764618,-0.102452607376,0.386411801087
1421850127345138132,0.0866173717613,-0.101591380711,0.38655538776
1421850127491691799,0.0880635320272,-0.101343752776,0.386146882944
1421850127491828090,0.0884691181737,-0.100375540003,0.386003922558
1421850127491953257,0.0896263966982,-0.100560573935,0.385826301779
1421850127492414757,0.0897735528393,-0.0999373212449,0.386021537649
1421850127492559257,0.0901532344912,-0.0992369781709,0.385383834815
1421850127595823257,0.0905799445224,-0.0993163933529,0.385649159263
1421850127596262382,0.0914451356922,-0.0985115459338,0.386393001212
1421850127596701215,0.0908737590755,-0.0976568296727,0.385610357471
1421850127597139007,0.0928399408188,-0.0988157781161,0.386418563435
1421850127656784299,0.093840566069,-0.0968674444572,0.386192755501
1421850127657202007,0.0929898238373,-0.0970829077158,0.386838648163
1421850127686339132,0.0932492808929,-0.096439310401,0.387184695618
1421850127686833465,0.092439814877,-0.0962052646176,0.387828576402
1421850127726345757,0.0924179319263,-0.096392275325,0.388189149382
1421850127732843632,0.0931740458439,-0.0960725452501,0.388790448427
1421850127784449465,0.0915183566516,-0.0952169588355,0.38910738048
1421850127802549799,0.091321416268,-0.0951267700644,0.389603692811
1421850127820071632,0.0916805381811,-0.0939006829607,0.390118445389
1421850127904623132,0.0901110045876,-0.0951355343643,0.390739097229
1421850127918442549,0.0900304817906,-0.0952830493328,0.391946027026
1421850127971141757,0.0879222084762,-0.0937660820894,0.392652851524
1421850127971330549,0.0881077301369,-0.0929945159665,0.393340558017
1421850127986050674,0.087911506771,-0.0946087247489,0.395231107041
1421850128037792049,0.0868563805826,-0.0947159086298,0.395873301945
1421850128074035757,0.0856759505761,-0.0948607171562,0.3969874698
1421850128102010257,0.0859468930845,-0.0948066996678,0.39785227297
1421850128155673757,0.0852453668518,-0.0957967598783,0.399174211074
1421850128157269257,0.0840341777748,-0.0958962739094,0.399728929074
1421850128179202215,0.0816079584752,-0.0965858127845,0.402453994584
1421850128205930424,0.0821776267511,-0.0974875712567,0.404429172277
1421850128213254299,0.0804644804205,-0.0971990654353,0.404875312797
1421850128263668507,0.0809727772812,-0.0978643507433,0.406704719422
1421850128316581424,0.079042508345,-0.0989831314692,0.409175910278
1421850128350044799,0.0761592707838,-0.0995564482538,0.410663735667
1421850128404089549,0.0736663528701,-0.101843085109,0.413515794598
1421850128430870257,0.073490916372,-0.102292865622,0.41419738607
1421850128432460174,0.0723832986194,-0.103074920806,0.415744129142
1421850128487037465,0.0715253036789,-0.103687693779,0.416944525385
1421850128487415882,0.0708164076858,-0.102044578761,0.417821161974
1421850128511062799,0.0690847008081,-0.103697935028,0.418832907012
1421850128569094090,0.0681792170646,-0.104465925916,0.420448950711
1421850128580056340,0.0651738645896,-0.103010793862,0.421896940935
1421850128594357674,0.0653203634439,-0.101752228773,0.422108146087
1421850128624311965,0.0627970727816,-0.103445360961,0.424031256403
1421850128654381382,0.0613971585466,-0.10326805925,0.424850540747
1421850128670925299,0.0606264390265,-0.1016580706,0.424874736171
1421850128708232340,0.0597686247685,-0.101182059208,0.426097019817
1421850128738875757,0.0589807258191,-0.102680724671,0.427394769015
1421850128776884174,0.0574222513502,-0.101088710303,0.427916978054
1421850128799789549,0.0560883112249,-0.100104684583,0.430233624866
1421850128856414632,0.0527517626046,-0.0995695690669,0.431181537961
1421850128857018174,0.0547828121064,-0.0996434755382,0.430902299534
1421850128888893425,0.0524821717231,-0.0974699918671,0.431803997608
1421850128953068967,0.0520196337419,-0.0965830437928,0.432623410243
1421850129002933675,0.0503489720992,-0.095766690996,0.432468255658
1421850129003952300,0.0510828446468,-0.0944023358094,0.43313196256
1421850129108715842,0.0487996837284,-0.0924084404365,0.433164828534
1421850129109176550,0.0501199445576,-0.0916472256338,0.433630759578
1421850129109604467,0.0481369318444,-0.0910907775961,0.433354316258
1421850129179478300,0.0478883457922,-0.0912117553717,0.433903420858
1421850129179923342,0.0479365912277,-0.0900462916467,0.433405357642
1421850129254587717,0.0475342504136,-0.089755015131,0.433216563415
1421850129254757550,0.0480158869072,-0.0880213518792,0.433058769596
1421850129363691509,0.0476680803781,-0.0881415046918,0.433382800745
1421850129363842967,0.0491686336462,-0.0876556606642,0.433462910208
1421850129364371300,0.0478093135052,-0.086614823239,0.433108046947
1421850129365004300,0.0489335946293,-0.0873543862917,0.433187123665
1421850129526835092,0.0499558488711,-0.0871604702654,0.433040925594
1421850129527680551,0.0510186815898,-0.0862555456357,0.432973586645
1421850129528328592,0.0502466267214,-0.0867514909844,0.433483788577
1421850129528889009,0.0503645166689,-0.0850672451817,0.432404771048
1421850129529437384,0.0503690415,-0.085601873104,0.433135763628
1421850129530048467,0.0538490932219,-0.0854435740176,0.433636031614
1421850129745732134,0.0527089435613,-0.0849847256873,0.43333736433
1421850129745861050,0.0554771726776,-0.084691391075,0.433796117249
1421850129746323342,0.0549330884638,-0.0835735261243,0.433751004766
1421850129746459551,0.0570014729627,-0.0839212909221,0.433373220497
1421850129746589759,0.0567910324301,-0.0830582790943,0.433984268045
1421850129747589217,0.0569616503972,-0.0827905725981,0.433374366067
1421850129747728592,0.0581141762424,-0.081440319556,0.433490642397
1421850129748009842,0.0584685037889,-0.0805985363185,0.432949745157
1421850129933319967,0.0592898140493,-0.0808444784783,0.433008070856
1421850129933690967,0.0595446198056,-0.0792301768295,0.433189352956
1421850129934068675,0.0613403272243,-0.0775819359307,0.432543035989
1421850129934448259,0.0623998513812,-0.0739616043472,0.431493507227
1421850130058245551,0.0636677772045,-0.0746957708576,0.432149628908
1421850130058651675,0.0623989518518,-0.072933156567,0.432154266027
1421850130059200342,0.0656024171922,-0.0704612323014,0.431402319488
1421850130146102467,0.0644893406046,-0.0690487474438,0.431169294124
1421850130146613634,0.0662184802316,-0.0663925556171,0.430196578191
1421850130147336092,0.0654718472504,-0.0644780880583,0.430769583619
1421850130198068301,0.0691073136965,-0.0633454551418,0.430206594353
1421850130198542342,0.0671664789953,-0.0621583658388,0.430490501266
1421850130223492967,0.0700766475262,-0.0595280294559,0.429919339577
1421850130259516842,0.0698872691422,-0.0576525562464,0.430378993524
1421850130259962967,0.0699921057305,-0.057779129624,0.430088071877
1421850130311364926,0.0686880343084,-0.0551225920683,0.430462757137
1421850130370394550,0.0706323091532,-0.0518252744107,0.429219710642
1421850130370528092,0.0695877368392,-0.0513982873278,0.42955777418
1421850130426988467,0.0702400757132,-0.0484456808481,0.429519084352
1421850130427457467,0.0686521744469,-0.0457949562963,0.429352111774
1421850130500156259,0.0708782508099,-0.0453389632693,0.429801506472
1421850130520356092,0.0688404303759,-0.0436636713867,0.429375834992
1421850130532504134,0.0685019009044,-0.0423500678006,0.429847292289
1421850130559263509,0.0684284605347,-0.0411551997163,0.42973712366
1421850130571373342,0.0694226679554,-0.039322592753,0.42975518199
1421850130597032426,0.0686289219165,-0.0388647153289,0.429886096294
1421850130669914967,0.0678964014587,-0.0379724087033,0.430559320844
1421850130712032634,0.0680467777761,-0.0355308396072,0.43032504709
1421850130712504967,0.068065033503,-0.034337664366,0.430668521869
1421850130742846884,0.0673027395033,-0.0333123272038,0.431439484521
1421850130795252842,0.0681822309919,-0.0318743185668,0.431879554425
1421850130795748217,0.0683485298221,-0.0314164428442,0.432526836779
1421850130824676967,0.0682385430908,-0.0305825040139,0.431899544437
1421850130882338259,0.069584084833,-0.0305786157069,0.43253851894
1421850130894935926,0.0685741370459,-0.0318107444703,0.433558446654
1421850130932613551,0.0687497032502,-0.0300382306295,0.433291944779
1421850130958117092,0.0684782519322,-0.0283077760466,0.432950261067
1421850130999064801,0.0693076206111,-0.0283992431365,0.433119748809
1421850131038246384,0.0686974130249,-0.028628527532,0.432735619978
1421850131139635967,0.0686952209563,-0.0284410875725,0.432973464553
1421850131140075676,0.0696033053602,-0.0274148676157,0.432010486217
1421850131224869217,0.0704974575083,-0.0267507288831,0.431114519686
1421850131286674634,0.0724978507047,-0.0276609146966,0.43094627184
1421850131409747926,0.0718745436234,-0.0273224889603,0.429956932146
1421850131410166134,0.0722485604699,-0.0271346985022,0.42789352584
1421850131410526176,0.0742936469164,-0.0282229164909,0.426325420391
1421850131410998717,0.0741342706024,-0.0277537741637,0.424746401983
1421850131411126717,0.0744131297545,-0.0267823759061,0.424093549214
1421850131411565342,0.0757836974484,-0.0263013662803,0.421397205563
1421850131511227842,0.0750905867851,-0.0280692980739,0.421669714352
1421850131574677634,0.0759521793081,-0.0287840763014,0.420509708762
1421850131627230842,0.0759124075535,-0.0281823471417,0.419962829415
1421850131665225134,0.0741207161464,-0.0284298505878,0.417695706969
1421850131710476009,0.0739817812311,-0.0303897016392,0.417978026747
1421850131729995467,0.0746617078943,-0.030408178627,0.416895894256
1421850131752958342,0.0746802971214,-0.0328105960127,0.416769987751
1421850131772415967,0.0731516167453,-0.0339088861335,0.416779658736
1421850131811978676,0.0747309005038,-0.0351309101766,0.416658428565
1421850131846695967,0.0740655277153,-0.0354989099529,0.416942640897
1421850131873082217,0.073016907534,-0.0387709664374,0.418337816055
1421850131933899676,0.0705923718707,-0.039802622465,0.41811650287
1421850131934331301,0.0686382180184,-0.0425297593835,0.419717890931
1421850131957345301,0.0682911597736,-0.0450485569831,0.420124108021
1421850132032511967,0.0658597338459,-0.0466653226802,0.421329116177
1421850132032928384,0.0640419883261,-0.050654633593,0.422976328679
1421850132073120426,0.0632038645332,-0.0529036605306,0.423655905232
1421850132116081634,0.0597832789778,-0.056943043363,0.426123601961
1421850132153212051,0.0607552987494,-0.0586567167636,0.425821478912
1421850132166842551,0.0577203895533,-0.0592869866563,0.426866150189
1421850132181770134,0.05715362107,-0.0633490381846,0.42814804926
1421850132215730926,0.0564436875459,-0.0638724990542,0.429117621844
1421850132231919842,0.0539037212822,-0.0664653598429,0.42991212157
1421850132259935176,0.0532752516273,-0.0668508332844,0.430435296409
1421850132307965467,0.0509853658468,-0.0689252458412,0.431498245706
1421850132320137592,0.0500507826069,-0.0706965532719,0.431876104317
1421850132416399759,0.0493041153876,-0.0727706809822,0.432839467964
1421850132417935051,0.0468470582578,-0.0739468906537,0.433447225268
1421850132498138842,0.0449940942035,-0.0772790661482,0.435409978065
1421850132499358551,0.0456919539358,-0.0785321071503,0.436317372566
1421850132581494634,0.0437791671606,-0.0796709184614,0.436537873203
1421850132581931092,0.0421092630956,-0.08220008503,0.43895860163
1421850132605523176,0.0414145614974,-0.0843524080208,0.440188796993
1421850132629642301,0.0396694326,-0.0843882131443,0.440822428181
1421850132678400676,0.0385544905872,-0.0857573674321,0.441902297182
1421850132717656842,0.0382199421851,-0.0870918231082,0.442837008335
1421850132723371384,0.037201331734,-0.0875873403012,0.444213638784
1421850132819757384,0.0366829205294,-0.0879948901773,0.444648638071
1421850132820143676,0.0374788316506,-0.0890014098533,0.446152348801
1421850132854546426,0.0361381695391,-0.0885800809283,0.445906736153
1421850132903013801,0.0351534831375,-0.0868028201578,0.446475344938
1421850132965332467,0.036695070248,-0.0873038690048,0.446755178243
1421850132966002634,0.0366045675439,-0.084471682172,0.446448105429
1421850132966157134,0.0377117693722,-0.0827994687593,0.446382741279
1421850133023627717,0.0383049165851,-0.0814312762266,0.446807469394
1421850133023886551,0.0398686926262,-0.0804745599872,0.446712051723
1421850133087243553,0.0383963255656,-0.0793645622835,0.446395104443
1421850133087783886,0.0388086628323,-0.0783544862097,0.446309501559
1421850133150676177,0.0393128077295,-0.0727797647101,0.44552984475
1421850133255951844,0.041081211751,-0.0718706850001,0.445564125332
1421850133256085969,0.0402499246244,-0.0669618615977,0.444969945785
1421850133256523428,0.0438816162694,-0.0636967736,0.444459147579
1421850133258144594,0.0429996415336,-0.06071659632,0.443903207487
1421850133258518552,0.0451647909728,-0.0578027911342,0.443097615091
1421850133317059011,0.045185044774,-0.0553710495903,0.443077724763
1421850133317510636,0.0455155244614,-0.0523291339953,0.442583285395
1421850133350025927,0.047030502145,-0.0501069914919,0.442218512823
1421850133356991053,0.0469352439779,-0.0457356806317,0.441183948641
1421850133368865636,0.0488792883499,-0.0405880960164,0.439800952345
1421850133431319553,0.0496195975369,-0.0370905882436,0.439934828765
1421850133481306386,0.0518223633858,-0.0330809901411,0.438018753161
1421850133505025677,0.0538060887544,-0.0295872930773,0.43769384424
1421850133543947011,0.0528593334568,-0.0263571994444,0.436939699411
1421850133544443636,0.0537425687923,-0.0195377401594,0.435777549453
1421850133637590719,0.0554387607692,-0.013400293971,0.43331700564
1421850133717487636,0.0558824084357,-0.00935243848105,0.43208172428
1421850133717988511,0.056006179375,-0.00378832083783,0.43044476115
1421850133777738094,0.0558089922258,0.00127466903962,0.429165381092
1421850133778318636,0.0557773538221,0.00339141908081,0.427750663176
1421850133779236469,0.0576303065435,0.00771898025649,0.426554984175
1421850133823470802,0.0589202756389,0.0124733870094,0.423991250431
1421850133843553011,0.0588344874505,0.0162620574595,0.423590070155
1421850133852640678,0.0581160133816,0.018813998076,0.422099270392
1421850133887214636,0.0586953088121,0.0210846703199,0.421137408632
1421850133911279011,0.0597372417375,0.0240531998503,0.420045873046
1421850133931661636,0.0594039583123,0.0259361258509,0.419183784784
1421850133956239136,0.0585186933489,0.029911206475,0.417979477274
1421850134041106802,0.0588188571502,0.0315585412064,0.416440550702
1421850134041349511,0.0591443448055,0.0328750630768,0.416455948992
1421850134088810261,0.0580345783644,0.037317353836,0.41458979614
1421850134090716552,0.0590034468294,0.039875183495,0.414350492076
1421850134136704178,0.0592119060009,0.0397020582528,0.414056534909
1421850134137305178,0.0591436547983,0.0418455367653,0.413579575968
1421850134175710761,0.0604074286726,0.0443472049501,0.411929633153
1421850134206963636,0.0603413680831,0.0447128335623,0.411729624582
1421850134247576469,0.0612341312507,0.0466303893591,0.411510215692
1421850134272656761,0.0612820383626,0.0483325603289,0.410077148249
1421850134313130969,0.0608934985305,0.0485782961167,0.410142053182
1421850134344206386,0.0607019195597,0.0486477272569,0.409424643592
1421850134365526427,0.060620768807,0.0495151981978,0.408907533642
1421850134370658052,0.0622665886011,0.0489243244745,0.408510432739
1421850134562796928,0.0619652405192,0.0449923728476,0.406473916815
1421850134563285886,0.0620325272455,0.0450174496373,0.405786502028
1421850134601616178,0.0614650930592,0.0444456585719,0.405066722156
1421850134638054761,0.0617976433088,0.0423603741486,0.404765673969
1421850134664813261,0.0606903676664,0.0421062196825,0.40437855709
1421850134679942719,0.0609382230181,0.0398198268878,0.404466671459
1421850134698455761,0.0598438124272,0.0404704653557,0.403720823822
1421850134714951677,0.06011796394,0.0362841602889,0.403298047101
1421850134753663178,0.0587104442034,0.0339526219612,0.403460214733
1421850134802307761,0.0574004460552,0.0316605435664,0.403540655285
1421850134831717928,0.0588800791099,0.0301561419048,0.403262258815
1421850134832150344,0.0568766179259,0.0283943032555,0.40362248338
1421850134845930969,0.0564984040799,0.0273709017759,0.403480956628
1421850134895391136,0.0561912883544,0.024928778428,0.403241619584
1421850135027184803,0.0571479964837,0.0219472464882,0.403370960436
1421850135027334136,0.0559715479242,0.0216455074784,0.403050279318
1421850135027454886,0.05674495039,0.0171135202762,0.403279993481
1421850135126562428,0.0531515797158,0.0126456587147,0.403059086499
1421850135126948928,0.0529731990966,0.0122320839404,0.403166121101
1421850135127337261,0.0531718952742,0.01039433609,0.402881414495
1421850135127840011,0.0502378574609,0.00886308669012,0.403288092401
1421850135248522928,0.0488417357231,0.00466858264562,0.403566206039
1421850135248964761,0.0454084536351,0.00219232543513,0.404228844948
1421850135383644178,0.0456435303211,-0.000244290848105,0.404699559976
1421850135384089594,0.0457922929958,-0.00243455521087,0.404864103294
1421850135384547261,0.0434662036824,-0.00700922402661,0.40648763424
1421850135385016094,0.0437195206828,-0.00826564413447,0.406091264004
1421850135440625094,0.0448400479729,-0.0090979126636,0.406096513076
1421850135441052469,0.042998258358,-0.0115571967347,0.40721438532
1421850135471027927,0.0430868620818,-0.0138769607798,0.408028548372
1421850135513662428,0.0429125483505,-0.0184307861823,0.408348673094
1421850135526986094,0.0421748300087,-0.0187976553833,0.40882115321
1421850135610455011,0.0440889951974,-0.0221410780935,0.409445810689
1421850135650646303,0.0446859932135,-0.0230911025965,0.409338530929
1421850135681537761,0.045031641551,-0.0256252903129,0.40975556632
1421850135734790969,0.045648815794,-0.0286644211824,0.410531283266
1421850135734950094,0.048492623972,-0.0331164560566,0.410699054462
1421850135788124803,0.0501137739178,-0.0378417881168,0.411373051181
1421850135839160553,0.052161404222,-0.0382320413,0.410351083668
1421850135902439969,0.0536670721538,-0.0397921853947,0.410786028641
1421850135902841219,0.0538122145455,-0.0424999776546,0.410730300827
1421850135928355386,0.0563265963221,-0.0422481312914,0.409830418043
1421850135998676178,0.0568977197147,-0.0436601180706,0.410157972167
1421850135999088553,0.0567832107552,-0.0461131216545,0.409713799424
1421850136084777219,0.0593657976877,-0.0461739529193,0.410075190521
1421850136084910844,0.0603934504358,-0.0490606805851,0.410081373307
1421850136085267553,0.0611863299772,-0.0484511436318,0.410023420314
1421850136085733094,0.0629368411289,-0.0490070052611,0.409520317604
1421850136172784469,0.0624367133656,-0.0501129309277,0.410115056211
1421850136172929761,0.06374730708,-0.0484550650474,0.409329846616
1421850136245516219,0.0634809329619,-0.049675925972,0.40929502096
1421850136245908469,0.0640882444976,-0.0491930146289,0.409019183889
1421850136246340094,0.0660701793614,-0.0478546671794,0.409239033678
1421850136286000011,0.0661535448524,-0.0478349961844,0.409132230843
1421850136313087553,0.0664541846034,-0.0460816809324,0.4079803679
1421850136336941511,0.0675353408283,-0.0458582986382,0.407668147728
1421850136337402261,0.068020470719,-0.0439549081382,0.406876039427
1421850136369901261,0.06889253307,-0.0445727652505,0.406776778968
1421850136384625178,0.0694736084332,-0.0438786851369,0.405870798748
1421850136424751094,0.069485598087,-0.0417772193509,0.405679024179
1421850136425217344,0.069876662681,-0.0403360732735,0.404644729073
1421850136456459344,0.070531234774,-0.0396689549473,0.403879988332
1421850136531806761,0.0718620674435,-0.0374659825601,0.40332794834
1421850136549510761,0.0712112163394,-0.0342902729022,0.401623963028
1421850136566225053,0.0720578031402,-0.0326928747469,0.400400796459
1421850136576803719,0.0723751338933,-0.0308146090676,0.400224124179
1421850136621150886,0.0723713151222,-0.0297126853527,0.39873882679
1421850136621680886,0.0720116834372,-0.0282877855309,0.398424428263
1421850136654823428,0.0746859528854,-0.0251303928701,0.396683636812
1421850136654958094,0.0729776598661,-0.025073578591,0.396103574758
1421850136709248594,0.0734410487788,-0.0230619413643,0.395339726973
1421850136730440219,0.0730963733373,-0.0217905012526,0.394479208197
1421850136765065969,0.0740226125302,-0.0191677991442,0.393477926022
1421850136799854469,0.0726081345803,-0.0173896225902,0.392677143577
1421850136829643344,0.072005998069,-0.0160568685243,0.391821120915
1421850136878706803,0.0719599576694,-0.0150384406275,0.390398320349
1421850136879158511,0.0714638353044,-0.0127711436756,0.389291862904
1421850136966396261,0.0706661701639,-0.0107622540116,0.388724696091
1421850136966853303,0.0695506732533,-0.00933838438404,0.388883614482
1421850137051424386,0.0681765240076,-0.00850332895189,0.387908487179
1421850137051874136,0.0682892067035,-0.00725188346979,0.387767659004
1421850137162308678,0.0686289038957,-0.0060210981813,0.387718054831
1421850137162688261,0.0678872873509,-0.00465227011751,0.388660759186
1421850137163048886,0.0674703249496,-0.00235899239209,0.388358427857
1421850137163173344,0.0673975097654,-0.0022993803904,0.388381321838
1421850137163635803,0.0674444208725,-0.00145362825313,0.389293112967
1421850137236440386,0.0665525177713,-0.00046256843664,0.389577581985
1421850137236910386,0.0669098701954,-0.000573746625487,0.389999198503
1421850137303010679,0.0666294733862,0.00164611970096,0.390104085274
1421850137303433513,0.0654118396134,0.00150951193206,0.39093568213
1421850137331786846,0.0664405612523,0.00262860927487,0.391114203727
1421850137384069096,0.0663842134997,0.00491331591448,0.39111027543
1421850137384176221,0.0655334976425,0.00495632170677,0.391808187314
1421850137450601137,0.0648910314004,0.00684929155053,0.391715165945
1421850137517108721,0.0654811073222,0.00820405545206,0.391442479081
1421850137517505471,0.0654282964293,0.00744846954682,0.392043826583
1421850137518005513,0.0660941208625,0.00869429505332,0.39146149021
1421850137574734138,0.0651021352107,0.00965464633723,0.391467838639
1421850137592959846,0.0658907657919,0.0101826957901,0.39104773842
1421850137599770554,0.0635898028868,0.0107824148782,0.390547208833
1421850137627872013,0.0643317492833,0.0109203556588,0.390388365411
1421850137645977971,0.0647599391312,0.0100362188014,0.390764901894
1421850137697986304,0.0653677832912,0.0114305027301,0.389986183008
1421850137823264263,0.0653188833155,0.0110155077204,0.389918624694
1421850137823683096,0.0668788477698,0.0110541893045,0.390075346273
1421850137824213263,0.065555159639,0.0131250722408,0.39005278628
1421850137935201304,0.0647853181711,0.0118478601969,0.389831436996
1421850137935605679,0.0668519782818,0.0116061540498,0.389839844418
1421850137936050554,0.0671788663324,0.0100904727113,0.390295538875
1421850137936527721,0.066688742037,0.0103629721953,0.390379180156
1421850138071739430,0.0676700272176,0.01016311701,0.390877444755
1421850138072158805,0.0667271743506,0.00996110093981,0.390593288664
1421850138072641680,0.06961485072,0.00794588993471,0.391862070564
1421850138159751138,0.0696055476428,0.00685394414359,0.392230307047
1421850138160161638,0.0680770254068,0.00688076369873,0.392049935085
1421850138160538138,0.0687386125762,0.00660058082321,0.392798636469
1421850138230933096,0.069637265062,0.00369396094182,0.39258566571
1421850138251902096,0.0705124028522,0.00342709402513,0.393051507247
1421850138283520638,0.0697101783099,0.00236006613703,0.393514335765
1421850138308345138,0.0698103354592,0.00211735446363,0.393144727007
1421850138342576596,0.0688036400712,0.000645065317263,0.393469396304
1421850138386052096,0.0686147990918,0.00219710135315,0.392821988887
1421850138410433929,0.0703387834355,0.000763207093021,0.393161357982
1421850138416269346,0.068900932149,0.00139309047603,0.392461295817
1421850138440799596,0.0691365603393,0.0014799194041,0.39257378289
1421850138461885846,0.0689545282698,0.00266137002043,0.391900098041
1421850138506605555,0.0685794473516,0.00136910506793,0.390904933968
1421850138554708554,0.0687715431848,0.00389683893261,0.390599898627
1421850138575364888,0.0676786448289,0.00447203711711,0.38996404708
1421850138600610304,0.0681465237613,0.00535362220977,0.389105602579
1421850138608440096,0.06809089748,0.00724042534524,0.388686348378
1421850138621588846,0.0687531326645,0.00758216379804,0.388046008724
1421850138701471138,0.0692948567361,0.0093485857183,0.386838798513
1421850138739584054,0.0695942321569,0.0113081339834,0.385524117796
1421850138756753471,0.070666959731,0.0121657988426,0.385087014869
1421850138794664388,0.0721227937192,0.0150063505227,0.383464287365
1421850138856838096,0.0718289621691,0.0161308600087,0.383490452589
1421850138901849013,0.0738678221965,0.0175854553603,0.38227409158
1421850138938181763,0.0741386038544,0.017849871262,0.382536973828
1421850138974184138,0.0740578718554,0.0181102504006,0.381304423941
1421850139022450138,0.0747828599895,0.0201988110969,0.380472326075
1421850139062109388,0.0762520735279,0.0208028635018,0.380383672324
1421850139103162680,0.0748366500017,0.0205023652918,0.380249646233
1421850139103619263,0.0764183042244,0.0206248373521,0.37897085185
1421850139258867805,0.0750085482963,0.0222167992662,0.379040607163
1421850139259270096,0.0749534883007,0.0220562381413,0.378591277853
1421850139259761013,0.0750909002696,0.0231381507527,0.378231608203
1421850139260082638,0.0750246075078,0.0231019142697,0.378205197836
1421850139260540846,0.074440777647,0.0235363260216,0.377954408737
1421850139261361596,0.0750800686552,0.0224422446993,0.379228202375
1421850139517185305,0.07479255007,0.0235752890059,0.378945763465
1421850139517533096,0.0727510238791,0.0242447791277,0.378957929505
1421850139517893346,0.0743896940238,0.0233493013988,0.379902713093
1421850139518237055,0.0746298475173,0.0239508646713,0.380720620111
1421850139518578930,0.0739235499999,0.0235738448944,0.38097261149
1421850139518962138,0.0724586782827,0.0247731867778,0.381226333431
1421850139519386555,0.0705928190872,0.0246646530179,0.382329906429
1421850139519822013,0.0714178683756,0.0246090553479,0.382554959571
1421850139680097596,0.0715509384569,0.0246742447632,0.383804987083
1421850139680481805,0.0709152068201,0.0247834116237,0.384072710771
1421850139680948971,0.0692120061529,0.0228184164605,0.385229062115
1421850139681087763,0.0684783904408,0.0242253038716,0.385894224361
1421850139681377638,0.0688614729492,0.0238130087107,0.38656050181
1421850139681774805,0.0688007600783,0.0236786542007,0.387346633767
1421850139743039346,0.067044937387,0.0233702079399,0.388651934444
1421850139743420430,0.0677965554497,0.0224026763154,0.389510977215
1421850139800269388,0.0661784171492,0.0222593345132,0.390053193126
1421850139800710305,0.0661543435462,0.0213972810058,0.390919891748
1421850139852983680,0.0645538357333,0.0203355270187,0.391970833109
1421850139853424013,0.0638014298389,0.0212133849602,0.391320731416
1421850139868459346,0.0653705101846,0.0199284868589,0.391294219298
1421850139919161263,0.0643837155971,0.0193144052685,0.391590653203
1421850139945363346,0.0645306885897,0.0183026269121,0.391586859834
1421850139986684638,0.0619457899493,0.0183382508292,0.390947772421
1421850140077243305,0.0597207825074,0.0177938401298,0.390467290084
1421850140077382888,0.0606905459596,0.0169095847624,0.390441129004
1421850140077504471,0.0598186246962,0.0166741083254,0.390203891857
1421850140077914596,0.0577868315665,0.0143021701176,0.389185175916
1421850140171497513,0.0560088933827,0.0132311335268,0.388419366499
1421850140171936721,0.0568411778862,0.0122809185477,0.387886830658
1421850140172517388,0.0537389598153,0.0111171077156,0.388143631953
1421850140322897638,0.0524013841117,0.00800447989869,0.387753135376
1421850140323351846,0.0498628728913,0.00772053630698,0.386046646637
1421850140409068180,0.0493155315719,0.0056962871124,0.386142065813
1421850140409523138,0.0476128167353,0.00482381381715,0.384825377324
1421850140453555638,0.0454203840938,0.00372730267622,0.384648130719
1421850140453956180,0.046034723399,0.00198405077592,0.384375951362
1421850140482019471,0.0451428401921,-0.000100697156179,0.383203986402
1421850140530182763,0.0445356225412,-0.00128477433217,0.382701445842
1421850140556718888,0.043860942225,-0.00152642392829,0.382334319524
1421850140557213638,0.0434489585822,-0.00366996859785,0.382149231902
1421850140577431263,0.0421701518717,-0.00348540076087,0.380657684399
1421850140660094013,0.0423639189537,-0.00591185502047,0.380760463557
1421850140660503846,0.0426301532703,-0.00501512068235,0.379876098987
1421850140698587513,0.0433266153547,-0.00530630722875,0.379676321381
1421850140699034180,0.0424448697468,-0.00758630708975,0.380038675853
1421850140731827805,0.043212346397,-0.00722992927722,0.378976958812
1421850140760631263,0.043628948721,-0.00775316531687,0.379092767503
1421850140787545846,0.043205072746,-0.00898142334926,0.379152062206
1421850140814333096,0.0440826414277,-0.00860040746518,0.378193468918
1421850140834514763,0.0440739313379,-0.00868126961259,0.377880379538
1421850140844100846,0.0437870505298,-0.00892049920546,0.377642579703
1421850140958595846,0.0485177417891,-0.00803253851287,0.376684255819
1421850140980194013,0.0486029803955,-0.00869272159426,0.376930658324
1421850140985343555,0.0504595288797,-0.0059194647071,0.375560388077
1421850141008423513,0.0522814526525,-0.00675736244353,0.375025011479
1421850141078878638,0.0541579144677,-0.00767215539073,0.374815641538
1421850141079307555,0.0546119006362,-0.00652225313635,0.374790850086
1421850141137124638,0.0560252355661,-0.00577194175914,0.374014880453
1421850141137677596,0.0578412296367,-0.00373098581111,0.373637957691
1421850141278539221,0.059369976264,-0.00335376726899,0.37399395997
1421850141278921680,0.0609471836145,-0.00138555659032,0.3726000605
1421850141298405513,0.0630789123674,-0.00161501441459,0.373167121266
1421850141298524846,0.063555498645,-0.00107346883927,0.372769658614
1421850141299290846,0.0660273725938,0.000531437420076,0.372383210795
1421850141299530346,0.0675660497956,0.00213592642444,0.37213704743
1421850141300019596,0.0700881885427,0.00308977248203,0.371749614537
1421850141527245182,0.0687894432655,0.00491944754024,0.371393445985
1421850141528491556,0.0719391288407,0.00646143458546,0.370727068249
1421850141528963848,0.0736466465568,0.00643910623108,0.37020843213
1421850141529367390,0.0757268843665,0.00944929681292,0.369830766285
1421850141529741681,0.0773480570722,0.0100613887478,0.369574428526
1421850141529866098,0.0791598178791,0.0103693276122,0.369512733516
1421850141530310473,0.0790931671805,0.0126820522066,0.368725796336
1421850141530426973,0.0807507393872,0.011912185194,0.369014931656
1421850141530557931,0.0823390879231,0.0135789635142,0.368348695566
1421850141703645056,0.0839922157696,0.0131714317733,0.36828957652
1421850141704068348,0.0837053695568,0.014441745971,0.368221722889
1421850141704518640,0.0845487656444,0.0162267718511,0.367092713176
1421850141704879431,0.0840212642097,0.0162477542886,0.367265603613
1421850141705339723,0.0869441273836,0.0154638058339,0.367171781962
1421850141844562098,0.0898741071954,0.017677161771,0.366253755887
1421850141844941640,0.0907703819245,0.0179811343481,0.365531541171
1421850141845438015,0.0926542205527,0.0198577994046,0.364013770568
1421850141845820223,0.0908969994373,0.0200155913712,0.364095825523
1421850141846302973,0.0922649838148,0.0211529498522,0.362293784494
1421850141903556806,0.0918346266471,0.0219360286706,0.361818224047
1421850141969827265,0.0883698144697,0.0267649825131,0.358665308729
1421850141997073848,0.0866685361821,0.0274459397088,0.357953088118
1421850142031939307,0.0862995376403,0.0298285406073,0.356185924478
1421850142032369598,0.0866655629592,0.0302636031891,0.355938160284
1421850142066306765,0.084254216682,0.0324110312516,0.354787755252
1421850142084024390,0.0827991991245,0.0344190527685,0.353806464196
1421850142110792181,0.0811606930262,0.0335502482838,0.353843752166
1421850142156995473,0.0799011464807,0.0346552733377,0.352958516361
1421850142195453056,0.0773456773184,0.0365112854349,0.351445626842
1421850142238997431,0.0764456159181,0.0367558850869,0.351238936141
1421850142239142140,0.0756627514441,0.038626322788,0.350385390568
1421850142280201806,0.0720887440285,0.0394702964479,0.350086059979
1421850142350981765,0.0704815360346,0.0408068513747,0.349691087193
1421850142376895223,0.065667469377,0.0417434336678,0.348945160738
1421850142381252640,0.063240155654,0.0425196058292,0.348881905403
1421850142421617140,0.0620159941689,0.0435224301641,0.348744772798
1421850142474727556,0.0594416936175,0.041059211195,0.349174686002
1421850142492253848,0.0574367916384,0.0423855733538,0.348918970468
1421850142492469307,0.0583196661266,0.0427557746369,0.349065093048
1421850142581277932,0.0534198866938,0.0436185745294,0.348961182748
1421850142581710348,0.0535996715253,0.0419672401182,0.34954881471
1421850142582256515,0.0530019893141,0.0423203598979,0.350133788222
1421850142678807431,0.0518039211946,0.0428590986557,0.350365557822
1421850142679249848,0.0485962779863,0.0423066982585,0.350500154775
1421850142829466848,0.0483157688833,0.0424514382579,0.3506785838
1421850142829882848,0.0460726291647,0.0422854878232,0.35105817508
1421850142830281556,0.0451302953025,0.0397835256199,0.351767972821
1421850142830727931,0.0443336950091,0.0395238552864,0.352129858152
1421850143047081098,0.0420826612888,0.0400924770101,0.351822711362
1421850143047546348,0.0409950849583,0.0377941749401,0.352667882103
1421850143061453390,0.0389369392407,0.0381312550117,0.35228482243
1421850143061956973,0.0404891301676,0.0367475041724,0.352579690119
1421850143062405973,0.0397904700201,0.036128000131,0.352997271221
1421850143220668390,0.0399941298244,0.03633493818,0.353206586074
1421850143221031056,0.0391026329976,0.0377537094805,0.353040165075
1421850143221162348,0.0406522082468,0.0355385152974,0.353439529391
1421850143313290515,0.0413951957762,0.0357049068751,0.354410550511
1421850143313733098,0.0409242422457,0.0347117681994,0.355493647451
1421850143368003182,0.0409092912951,0.0350652436032,0.355189358043
1421850143422740390,0.0423262348404,0.0345119872973,0.355660510216
1421850143458248015,0.0417163207834,0.0351825919427,0.355997483826
1421850143574146140,0.0432455206963,0.0331735384369,0.356854314586
1421850143574630432,0.049529387071,0.0324354583364,0.358721058325
1421850143575120556,0.0552135083085,0.0321427945217,0.361252677053
1421850143646542765,0.0576619790743,0.0307526130558,0.363237926803
1421850143713980682,0.058662031281,0.0302335385505,0.364558976123
1421850143749328723,0.0636206060081,0.0296473872027,0.367273983221
1421850143763472390,0.068268611527,0.0300052039826,0.371650095354
1421850143818993598,0.0779751352521,0.0291548233974,0.378094651917
1421850143830115432,0.0805880507908,0.0290029083282,0.380237300848
1421850143926720723,0.0831247435751,0.0284401869585,0.381860627524
1421850143954633973,0.0835457807415,0.0303615675525,0.381847254343
1421850144010690265,0.0871359174616,0.0295347702161,0.383388526217
1421850144076580848,0.0917649595735,0.0300681350985,0.386524880394
1421850144077459807,0.0941322093561,0.0305771459028,0.387586401167
1421850144077909473,0.0959535316768,0.0318385860722,0.38798348292
1421850144078466015,0.0971458790899,0.0316607975133,0.389478235737
1421850144128069265,0.0981920205635,0.0330117721314,0.390636347375
1421850144128494973,0.0996949378998,0.0330893537916,0.391496257181
1421850144129032682,0.10163254513,0.0343323353714,0.392201267961
1421850144192135265,0.101533888529,0.0340924540946,0.392802743408
1421850144247469182,0.102849941836,0.0349956093094,0.393305984573
1421850144247912265,0.10377440007,0.0358976056117,0.39448448868
1421850144307822265,0.103743265507,0.0379131316504,0.395038722558
1421850144341150015,0.105337746925,0.0375071691069,0.39566536807
1421850144375923390,0.105247132611,0.0377754804275,0.396450391946
1421850144395242348,0.104248698169,0.0392759778082,0.396390302967
1421850144424494640,0.104065123159,0.0376885587466,0.39805633839
1421850144458272348,0.102305646014,0.0382318547598,0.398457348186
1421850144558241848,0.102321792418,0.0390026843678,0.398621241507
1421850144558375515,0.10131050296,0.040482839939,0.399309148811
1421850144558882598,0.0992549289144,0.0403231429086,0.399653347918
1421850144559315182,0.0985829559749,0.0397110525545,0.400312965694
1421850144602737973,0.0985671913723,0.0415367833201,0.400067148121
1421850144685233265,0.0974487041858,0.0416501331237,0.400439813654
1421850144685680348,0.0974667951604,0.0423788437978,0.400732641362
1421850144713408473,0.0938589945403,0.04249230125,0.401987136223
1421850144764328640,0.0927402575751,0.0419418502538,0.402945853208
1421850144789207348,0.0926647776138,0.0428710242508,0.403336894583
1421850144855848182,0.0902647536746,0.0439977615243,0.403225318386
1421850144856295682,0.0902686833015,0.0452166019562,0.40439421181
1421850144895680390,0.0852065365835,0.044576501299,0.40519090115
1421850144918777765,0.0844501369071,0.0451616042369,0.405439829399
1421850144937715182,0.0828209680062,0.0459060762506,0.406072649929
1421850144973044932,0.0818098991764,0.0462992065334,0.405945725151
1421850145016395140,0.0801720189348,0.0475082647505,0.405840212737
1421850145033499890,0.0798387024314,0.0484486447577,0.405754143485
1421850145048787557,0.076905749286,0.0477272364213,0.406497416253
1421850145078813057,0.0748739481519,0.0489991029322,0.406260456934
1421850145145201640,0.0745236880479,0.0496865803081,0.406003502999
1421850145186402390,0.07187668332,0.0519344915666,0.405069679919
1421850145226125307,0.0701291384799,0.0522602156838,0.405250821075
1421850145226323765,0.0675118597327,0.0518176702319,0.405418158681
1421850145282365682,0.0670647735584,0.0528026229764,0.405073661128
1421850145314625557,0.0651610413859,0.0539388159206,0.404606535081
1421850145314778015,0.0656543500368,0.0556537674543,0.403976920727
1421850145448505848,0.0647799708614,0.0564858380548,0.403851812321
1421850145449165765,0.0632540773992,0.0580315539484,0.403190353143
1421850145449316765,0.063963387357,0.0582253448904,0.403456402242
1421850145586352223,0.0642529744495,0.0576547340008,0.403350239786
1421850145586731140,0.0628293922319,0.0582332192953,0.402909366364
1421850145587637515,0.0635502224539,0.0595383822415,0.402557511095
1421850145588124182,0.0637265375088,0.0596473279122,0.402353760213
1421850145816976350,0.0636018752974,0.061201202867,0.4018822547
1421850145817405309,0.0643388246113,0.0627368066867,0.401270794032
1421850145818100517,0.0636618765624,0.0621332652221,0.40015674418
1421850145818785558,0.0659421844619,0.0632857011331,0.40037905271
1421850145819125975,0.066516289773,0.0644337916542,0.399630059079
1421850145819866600,0.067839131637,0.0660146323246,0.398114520364
1421850145820001892,0.0702023478688,0.0666343494244,0.396879627555
1421850145969659183,0.0706746174405,0.0662471942293,0.396386169411
1421850145971424350,0.0724376941665,0.0666813828527,0.39535303523
1421850145971573934,0.0720183249356,0.0666544953715,0.395058166872
1421850145972158892,0.0767135173732,0.0662163074675,0.393543911377
1421850146195622017,0.0761381803373,0.0664591120663,0.392707988597
1421850146196055433,0.0776590355139,0.0666424828722,0.392107792992
1421850146196467309,0.0780176362064,0.0659165652911,0.392274807774
1421850146196828225,0.0807629844476,0.0666989054635,0.391035399878
1421850146197635892,0.0816729360805,0.065537900914,0.390102425743
1421850146198140933,0.0839034847453,0.0660177727897,0.388926915578
1421850146198725725,0.0853622570655,0.0650878779829,0.388546738527
1421850146199258850,0.0849815205653,0.0634842726378,0.387846508439
1421850146456212850,0.087711026976,0.0643359259485,0.385886384073
1421850146456576100,0.0877297570658,0.0623264789675,0.384945057558
1421850146456928392,0.0899067675453,0.0621597111984,0.38199759624
1421850146457565850,0.0900960406357,0.0631942411296,0.380030825555
1421850146458020184,0.0902084753493,0.0638617779413,0.376370991574
1421850146458383475,0.0905444042297,0.0640316264165,0.374511145589
1421850146458751892,0.0909045476408,0.0614127565522,0.373904623918
1421850146459095058,0.0893780844686,0.0618497048875,0.372826103209
1421850146650428058,0.0892589399374,0.0623669879946,0.369301371429
1421850146650945725,0.0885882419979,0.0609725052232,0.368193342964
1421850146651475475,0.088008561036,0.0615887854304,0.366670263142
1421850146652095475,0.0867264947143,0.061759469005,0.364935392001
1421850146652763684,0.0858208679933,0.0604751558632,0.364266529855
1421850146653274267,0.0850863886985,0.0599477628448,0.362919936027
1421850146654202267,0.085531007234,0.0594213569619,0.36172098224
1421850146655141683,0.083549346227,0.059833971757,0.360377969858
1421850146914490725,0.0826813956863,0.0577527283621,0.360170620355
1421850146914978558,0.0813846627458,0.0587166946507,0.358331328144
1421850146916482850,0.0780776936364,0.0565220056581,0.356975348735
1421850146917095809,0.0776502612744,0.0561850325759,0.35619130035
1421850146917536600,0.0748005177186,0.0553510834564,0.353563783522
1421850146918091184,0.0740841660283,0.0543994210673,0.352796251436
1421850146918516767,0.0741830234825,0.0549290428718,0.351364700051
1421850146919038683,0.0711541960985,0.0539573286405,0.350047402465
1421850147240878392,0.0702259550306,0.0515148884409,0.349942238579
1421850147241366350,0.0686208998185,0.0507815270384,0.349815328817
1421850147241516975,0.0640768665513,0.0509454942974,0.347250008179
1421850147241630559,0.0637642303883,0.0496080842516,0.346210797378
1421850147241847809,0.058510245964,0.0480569418508,0.344466424322
1421850147241997684,0.0578091498358,0.0480927641871,0.343603184406
1421850147243193059,0.056119598849,0.0474018746709,0.342933254529
1421850147243339975,0.0549482610869,0.0466355031418,0.342394303101
1421850147243782642,0.0546809048891,0.0454680761049,0.341977871403
1421850147243927934,0.0540809570841,0.046664000447,0.340728552563
1421850147244298350,0.0524899465363,0.0455188431762,0.340194704737
1421850147244709142,0.0508950236448,0.0466446215627,0.339316448974
1421850147636094808,0.0498690867506,0.0464023218031,0.338736091283
1421850147636749184,0.0501190340521,0.0453057073301,0.338560029247
1421850147637130975,0.0487413030861,0.0461363175614,0.33824794538
1421850147637558600,0.0468207050884,0.0459395058165,0.33787136797
1421850147638302809,0.0474199091663,0.0461962909337,0.337598053546
1421850147639020017,0.0439451686071,0.0467561051002,0.33797355885
1421850147639145017,0.0449582861076,0.047153095847,0.338331563168
1421850147639504684,0.0445784445829,0.0476920604757,0.338592976793
1421850147639977308,0.0441357261899,0.0482634842747,0.339200696441
1421850147640122267,0.0438732237633,0.0490205261914,0.339142482922
1421850147640568850,0.0433128188561,0.0503230501574,0.339952343584
1421850147640980017,0.0441867674354,0.0494798008225,0.340498767895
1421850147641754392,0.0437894286162,0.0492925298611,0.341642635927
1421850148049881225,0.0442664083605,0.051568348739,0.341447498837
1421850148050312975,0.0436166405277,0.0508102608529,0.342275221238
1421850148050692684,0.0445249564858,0.0516619211278,0.34299019034
1421850148051048850,0.0460152083391,0.0532422951955,0.343871600138
1421850148051451725,0.0468215988431,0.0533238420362,0.344549452612
1421850148051824392,0.0472349715666,0.0543386542391,0.346368423088
1421850148052220142,0.0509811206783,0.0549903563566,0.347652426961
1421850148052615934,0.049906763005,0.0565246620614,0.347929275717
1421850148053218059,0.0509090920244,0.0560960361152,0.348569265697
1421850148053607517,0.0525002452767,0.0564012208025,0.349059604397
1421850148054071267,0.0525600987337,0.0586081778669,0.348874422265
1421850148054521059,0.0542078358247,0.0591564664629,0.348508415192
1421850148241159225,0.0570612159195,0.0581318024752,0.349304321335
1421850148241525642,0.0552858260393,0.0589664395117,0.34953382925
1421850148241837059,0.0584651772818,0.0596185920825,0.349510819681
1421850148241951309,0.0615360963797,0.0590984894564,0.349799961661
1421850148242317684,0.0623470377139,0.0596142153616,0.349308145107
1421850148242843017,0.0669283800069,0.0602856678464,0.349332482806
1421850148334172475,0.0671917180837,0.0613412599446,0.349251699481
1421850148334523434,0.0675260393954,0.0606473749705,0.348957611854
1421850148386508475,0.0731910901395,0.0608459510262,0.348675998854
1421850148386651392,0.0731196310824,0.0619366228902,0.34829131304
1421850148386792184,0.0752439535655,0.061445535687,0.34798640346
1421850148408754892,0.0765982842817,0.0615438284508,0.348061820879
1421850148584232850,0.0815995377234,0.0627602751843,0.347318145495
1421850148584772142,0.0862501857416,0.0628169960207,0.346088608572
1421850148607586850,0.0883578549027,0.0628977818785,0.346114432083
1421850148639799434,0.0893023113162,0.0615861278768,0.345973224015
1421850148649555475,0.0880058364434,0.0615932479249,0.345812131545
1421850148680333392,0.0901710958043,0.0625410806176,0.345028967886
1421850148704033809,0.0903192963902,0.0620023410065,0.345120178829
1421850148751343892,0.0931980653064,0.0625585661354,0.343867001884
1421850148780071642,0.0969257038949,0.0636793829229,0.343229572528
1421850148828421934,0.0977576088202,0.0638905280636,0.342682636744
1421850148883252850,0.0983714093811,0.063994211626,0.342273902753
1421850148885341434,0.0984488754078,0.0621526476676,0.341166596321
1421850148956995225,0.100415531144,0.0620607659598,0.3410161254
1421850148957416309,0.0982632885471,0.0612848193478,0.340728031044
1421850148988566767,0.0983962142484,0.0598456611823,0.341820226278
1421850149000568892,0.0970637379752,0.0595281308939,0.341457547908
1421850149000937559,0.0960691650915,0.059897047606,0.341923770088
1421850149021922059,0.0969510623425,0.0598593356804,0.3421791923
1421850149054239975,0.0948485124731,0.0581910434298,0.342810614814
1421850149074564475,0.0945713023376,0.0577575623549,0.342602218613
1421850149097452725,0.0944381605101,0.0565131519644,0.34353139323
1421850149122862267,0.0929871341398,0.0574983065005,0.343269518317
1421850149123287725,0.0895059016392,0.0544352881402,0.344440551117
1421850149260448225,0.086532231909,0.0545930939821,0.344992150056
1421850149260924434,0.0827372473482,0.0522949572195,0.347034123963
1421850149400057767,0.0762635238598,0.0494420156372,0.349144963363
1421850149400444767,0.0743948581753,0.0507827041222,0.349751385717
1421850149445670017,0.072087069566,0.0500067715517,0.35049881615
1421850149450936434,0.0714920883451,0.0486855001403,0.351181028051
1421850149507284017,0.0677344774283,0.0482135696323,0.353026442182
1421850149532715850,0.0629969489588,0.0475824787396,0.35466946899
1421850149576764600,0.0614582483572,0.0477842357057,0.355713710743
1421850149623838975,0.0610769880637,0.0469852015527,0.356509095771
1421850149659763517,0.0583388919676,0.0455401242833,0.357517091889
1421850149852292019,0.0581209909693,0.0456641832943,0.358039017091
1421850149852965727,0.0533743764488,0.0464027779016,0.358949886294
1421850149853339310,0.0533405265311,0.0449691254659,0.359824518599
1421850149854010602,0.0502506915758,0.0442068710763,0.361243063391
1421850149854648144,0.0458264072447,0.041587931524,0.363255300664
1421850149854774185,0.0453166857623,0.0417971216429,0.363670236921
1421850150152467102,0.040615925913,0.0413654635533,0.364188443574
1421850150152910144,0.0377012924439,0.0392149794388,0.364896061594
1421850150153453935,0.0358668106288,0.0369099268207,0.364496531709
1421850150153908727,0.0340588567033,0.0370662856201,0.36427465595
1421850150214644560,0.0353017130894,0.0371282033218,0.363485890084
1421850150238669769,0.0368470503949,0.0376909379347,0.362077683281
1421850150302390769,0.0359599646211,0.0374031599267,0.361107057156
1421850150310279060,0.0377718460463,0.0363941024556,0.360612523571
1421850150348105977,0.0382934319692,0.0359371339584,0.359369590509
1421850150357941602,0.038807895953,0.0376985045829,0.356679554325
1421850150422194311,0.0421351269481,0.0372938681477,0.355076381299
1421850150523729144,0.0439665343031,0.0366169139145,0.354144625319
1421850150524128144,0.0461295591228,0.0381397253685,0.352571308741
1421850150524534685,0.0473254642228,0.0390353825446,0.350243153715
1421850150578093561,0.0528495751313,0.0406058306829,0.347306039166
1421850150616950727,0.0551578390528,0.0406564895284,0.346260837865
1421850150664876310,0.0598338514,0.0437742700686,0.343118402816
1421850150758195561,0.0636255408095,0.0456948024254,0.340991081379
1421850150758401935,0.0649195694111,0.0448779993097,0.340184463752
1421850150789366394,0.0654093504135,0.047620898544,0.338304547804
1421850150819175769,0.0702799910378,0.0493120986787,0.335049158505
1421850150995458727,0.0791334426483,0.0559222991182,0.327138609284
1421850151038349352,0.0858776122384,0.061251489617,0.320417726214
1421850151048596977,0.0897679179495,0.0660145432211,0.315859117955
1421850151088235561,0.0932684559881,0.0672144643246,0.314929528836
1421850151100889144,0.0934751045113,0.0696476976011,0.313352859974
1421850151136430602,0.0933758310475,0.0700755136033,0.312859667381
1421850151160686185,0.0951836320521,0.070875124164,0.311415886839
1421850151179497310,0.0990979672059,0.0744338119131,0.309855256023
1421850151221465144,0.0991071848883,0.0746672280833,0.309397185835
1421850151247628394,0.102217466273,0.0784024497826,0.308535202928
1421850151258808727,0.103063777786,0.0789429460997,0.307892358286
1421850151298337144,0.102558022556,0.080724310235,0.308565477634
1421850151341292477,0.103579867123,0.0810402369322,0.308742638941
1421850151386912727,0.106558604926,0.0846479232262,0.308755294947
1421850151387898894,0.107653185439,0.0852189744611,0.309628064964
1421850151422017894,0.107455425064,0.0860234870917,0.311489571852
1421850151442753519,0.107042414009,0.0863125133374,0.311944059554
1421850151506699686,0.107892732848,0.0871715318329,0.313411814215
1421850151507177269,0.108948634555,0.0882696551745,0.314713541243
1421850151537355019,0.108999889365,0.0888833291477,0.316258438311
1421850151553545644,0.110510661633,0.0884773329839,0.319287831436
1421850151605528185,0.112820489598,0.0898748335972,0.320938396909
1421850151639103644,0.111752346895,0.0918992002462,0.322225600517
1421850151666629436,0.11356795646,0.0896352755651,0.324266967333
1421850151733030811,0.115747449527,0.090996114441,0.325068184242
1421850151770139935,0.116032417384,0.0913158521832,0.326402288752
1421850151787395769,0.120142782906,0.0906681349757,0.327458112477
1421850151795839935,0.123648435996,0.0914259650093,0.329727422678
1421850151872956686,0.124887154599,0.090400866158,0.330680946243
1421850151873344602,0.129062028306,0.0918398359901,0.331645413885
1421850151873475269,0.13043529566,0.0923359621723,0.331861948091
1421850151907243936,0.137272460695,0.0913665248977,0.333914283345
1421850151944109436,0.144148720537,0.091160546546,0.334297050014
1421850151961831769,0.14970141552,0.0910778089333,0.334143092197
1421850151969642102,0.153558608542,0.0890049008701,0.334628523872
1421850152010392394,0.158689108765,0.088859972812,0.334663533452
1421850152059977686,0.164391102153,0.0894938759493,0.334041073268
1421850152192847019,0.167358618927,0.0879890262703,0.333965058359
1421850152193359102,0.175944711704,0.086714485286,0.333228887428
1421850152193895852,0.182096934886,0.0857746176766,0.33251085237
1421850152194370436,0.188701206398,0.0837058003086,0.332263675935
1421850152194881686,0.194410821546,0.0837385094332,0.331301502998
1421850152366296769,0.201451831259,0.0822575885947,0.33027405565
1421850152367333102,0.20768170702,0.0801175400088,0.329921086684
1421850152367994769,0.215251080318,0.0784217452159,0.329398205459
1421850152368642936,0.221974176316,0.076751831355,0.327883745675
1421850152369104352,0.236217422112,0.0734091779667,0.326423827986
1421850152369664477,0.243664753918,0.0718249212196,0.325536315307
1421850152370110686,0.251518599861,0.0711166957301,0.323681722961
1421850152588453269,0.260002110596,0.0667122471852,0.32377043763
1421850152589137019,0.277252003029,0.0642988865354,0.321012837346
1421850152589560102,0.287103233264,0.0617015452857,0.31990391874
1421850152590340852,0.294141015091,0.0585557368401,0.319429196492
1421850152591427144,0.324384302958,0.0528841077455,0.315440432155
1421850152592355561,0.335174145827,0.0524422673145,0.314520544427
1421850152842883019,0.343593607732,0.0511034893589,0.313478728625
1421850152843328311,0.353917377188,0.0478929944474,0.312808679559
1421850152843754186,0.364042180515,0.047362490414,0.311592087276
1421850152844203686,0.375538556414,0.045309855331,0.311336513551
1421850152844596352,0.385154939464,0.0443993816902,0.310730043501
1421850152845115769,0.396200757818,0.042980700838,0.310714334601
1421850152845566352,0.406525094797,0.0412739553216,0.31078895872
1421850152846064186,0.418301560911,0.040215261467,0.310537272495
1421850152846541186,0.428582710055,0.0381499701322,0.310508003378
1421850153041121394,0.440651217698,0.0370134000564,0.310393485998
1421850153041644519,0.449485668388,0.0362377360165,0.310688810968
1421850153041768269,0.472249749525,0.035254547352,0.310967023297
1421850153041875686,0.484338138544,0.0350684223691,0.31074023588
1421850153042056977,0.506875508961,0.0328406489365,0.312077753126
1421850153042430602,0.515490079123,0.0330702523377,0.312573616638
1421850153211467727,0.528333484322,0.0314846566695,0.313541791284
1421850153212089977,0.54017322884,0.0314886765914,0.313823442917
1421850153212656394,0.551611427612,0.0296614350391,0.314706569368
1421850153213023144,0.560636819828,0.0302096309625,0.315427208923
1421850153213361894,0.57343963618,0.0284910734132,0.316022218689
1421850153214122686,0.586467505513,0.0290656484473,0.316355383702
1421850153215134894,0.597975921022,0.0266871645033,0.317768593052
1421850153508627144,0.610455492715,0.0261858092053,0.318154204847
1421850153509007311,0.623866102664,0.0269015571412,0.318719797866
1421850153509439644,0.648235157507,0.0262434235892,0.319243281445
1421850153509936394,0.660705977677,0.0253265653676,0.320179947659
1421850153510300852,0.673657618541,0.0258655961999,0.321029898163
1421850153510866769,0.686359820688,0.0253169204788,0.321973177248
1421850153511287102,0.711851320299,0.024670040519,0.322365757924
1421850153511735352,0.725407034036,0.0235895672685,0.322393284978
1421850153512002644,0.735466446221,0.0234621506232,0.32280009293
1421850153512247561,0.746846186617,0.0224153668045,0.323659729337
1421850153744431811,0.770645497795,0.0225729924168,0.323659246034
1421850153744933936,0.783462370087,0.0208159824371,0.324066509964
1421850153745419561,0.793782865574,0.0212751370057,0.324246238374
1421850153745871644,0.805543879842,0.0204145848319,0.324320529855
1421850153746407602,0.816453167525,0.0204644241018,0.324811353107
1421850153746859977,0.82866151515,0.0200660061508,0.324149469058
1421850153747793936,0.849163647557,0.0184777511633,0.324907808311
1421850153748628936,0.858968985116,0.0189307726803,0.32418504878
1421850154006763519,0.867566233788,0.0198730429576,0.323915332079
1421850154006906186,0.877560826973,0.0211302011773,0.323271007996
1421850154008387769,0.887830415923,0.0214100326303,0.323584524956
1421850154008867311,0.895545016639,0.0206000455099,0.324116357707
1421850154009296602,0.91235568035,0.0209662397528,0.323739222584
1421850154009702144,0.920796480967,0.0209925212257,0.323824011225
1421850154010122477,0.936308216605,0.0222781373903,0.324376112169
1421850154010560727,0.94184126626,0.0213539486487,0.324522247443
1421850154169105229,0.956188581967,0.0225326570671,0.324714232557
1421850154169475271,0.962500402079,0.0236411812002,0.32560671969
1421850154169843687,0.969507800797,0.0246670551717,0.324749207848
1421850154170190146,0.975670699066,0.0248928174824,0.326477577387
1421850154170322520,0.981639020528,0.0260363376634,0.326968827744
1421850154264009146,0.985375359021,0.0257866971453,0.327461101959
1421850154264370937,0.991104788285,0.0269844024783,0.327319922793
1421850154264811021,0.996780541975,0.0291766618855,0.327827294738
1421850154265247396,1.0013276106,0.0288675300503,0.329139412147
1421850154265663229,1.00296556166,0.030259112963,0.328866982373
1421850154310694687,1.00778842366,0.030242313916,0.32981586504
1421850154331806563,1.01058592304,0.0309017577455,0.330741878125
1421850154363064896,1.01318936928,0.0323913272901,0.330919759727
1421850154371890063,1.01633447981,0.0334434563102,0.33209668863
1421850154424610396,1.02016244435,0.0332612828412,0.333563495329
1421850154444599146,1.025882658,0.0360954234963,0.334352568161
1421850154511023020,1.02661990912,0.0366808590488,0.336317068804
1421850154529651479,1.03065208466,0.0376922472883,0.337590542371
1421850154536635438,1.03108543204,0.0383380742528,0.33903318261
1421850154554622146,1.03446602153,0.0386368326031,0.341136881953
1421850154604831937,1.03458960323,0.041869135717,0.341758935595
1421850154616882813,1.03726850647,0.0425674473662,0.345926783785
1421850154643569396,1.03841612105,0.0449403021604,0.347575962671
1421850154675779146,1.03965032896,0.0431427470234,0.350171652205
1421850154700203937,1.04200599273,0.0454001059376,0.352447650525
1421850154719632354,1.04215886652,0.0474879638777,0.354103472673
1421850154733575312,1.04466964814,0.0466725701374,0.356529889127
1421850154833854437,1.04567198127,0.0482247687701,0.358899418011
1421850154834384062,1.04706305207,0.048086967302,0.361429698814
1421850154834883062,1.04914129807,0.0500653511106,0.363489001423
1421850154899046771,1.05221098812,0.0514607242253,0.367576339524
1421850155058662646,1.05426009042,0.0509230624991,0.369690390145
1421850155059380062,1.0540592967,0.0529805266254,0.371624431628
1421850155060139062,1.05570287481,0.0532321598033,0.372880254343
1421850155060582979,1.05834155978,0.0548592535346,0.377642421577
1421850155061399521,1.0616676306,0.0560857394404,0.3791374554
1421850155062223396,1.06131782251,0.0567343491123,0.380792176512
1421850155332685021,1.06266924192,0.0576980979299,0.382187124606
1421850155333065938,1.06451958737,0.0554821610663,0.384062524042
1421850155333197813,1.06375763093,0.05679456847,0.385549116803
1421850155333538521,1.06652266368,0.0575108409423,0.388427232804
1421850155333934396,1.06819963261,0.0575865658026,0.389970397551
1421850155334341104,1.07032545348,0.0578832673174,0.391369460632
