%time,field.header.seq,field.header.stamp,field.header.frame_id,field.pose.position.x,field.pose.position.y,field.pose.position.z,field.pose.orientation.x,field.pose.orientation.y,field.pose.orientation.z,field.pose.orientation.w
1421850805148141861,160777,1421850805148141861,fcu,0.1640625,-0.11328125,0.0078125,-0.00157154237047,0.0145960574559,-0.172912541044,-0.984827770989
1421850805153141975,160778,1421850805153141975,fcu,0.1640625,-0.11328125,0.0078125,-0.000609795903855,0.0147649103725,-0.172898204633,-0.984828836096
1421850805158143997,160779,1421850805158143997,fcu,0.1640625,-0.11328125,0.0078125,-0.00174042901529,0.0155577913813,-0.172909045478,-0.984813377258
1421850805163143873,160780,1421850805163143873,fcu,0.1640625,-0.11328125,0.0078125,-0.000778696524527,0.0157266404257,-0.172893769876,-0.9848146073
1421850805168145895,160781,1421850805168145895,fcu,0.1640625,-0.11328125,0.0078125,-0.000778696524527,0.0157266404257,-0.172893769876,-0.9848146073
1421850805173146009,160782,1421850805173146009,fcu,0.166015625,-0.11328125,0.0078125,-0.000609795903855,0.0147649103725,-0.172898204633,-0.984828836096
1421850805178145885,160783,1421850805178145885,fcu,0.166015625,-0.11328125,0.0078125,-0.000778696524527,0.0157266404257,-0.172893769876,-0.9848146073
1421850805183147907,160784,1421850805183147907,fcu,0.166015625,-0.11328125,0.0078125,-0.000609795903855,0.0147649103725,-0.172898204633,-0.984828836096
1421850805188148022,160785,1421850805188148022,fcu,0.166015625,-0.11328125,0.009765625,-0.000778696524527,0.0157266404257,-0.172893769876,-0.9848146073
1421850805193150043,160786,1421850805193150043,fcu,0.166015625,-0.11328125,0.009765625,-0.000609795903855,0.0147649103725,-0.172898204633,-0.984828836096
1421850805198149920,160787,1421850805198149920,fcu,0.16796875,-0.11328125,0.009765625,-0.000778696524527,0.0157266404257,-0.172893769876,-0.9848146073
1421850805203150034,160788,1421850805203150034,fcu,0.16796875,-0.11328125,0.009765625,-0.000778696524527,0.0157266404257,-0.172893769876,-0.9848146073
1421850805218153954,160791,1421850805218153954,fcu,0.16796875,-0.11328125,0.009765625,-0.000778696524527,0.0157266404257,-0.172893769876,-0.9848146073
1421850805223153830,160792,1421850805223153830,fcu,0.16796875,-0.11328125,0.009765625,-0.000778696524527,0.0157266404257,-0.172893769876,-0.9848146073
1421850805228155851,160793,1421850805228155851,fcu,0.16796875,-0.11328125,0.009765625,-0.000778696524527,0.0157266404257,-0.172893769876,-0.9848146073
1421850805233155966,160794,1421850805233155966,fcu,0.169921875,-0.11328125,0.009765625,-0.000778696524527,0.0157266404257,-0.172893769876,-0.9848146073
1421850805238155842,160795,1421850805238155842,fcu,0.169921875,-0.11328125,0.009765625,-0.000778696524527,0.0157266404257,-0.172893769876,-0.9848146073
1421850805243157864,160796,1421850805243157864,fcu,0.169921875,-0.11328125,0.009765625,-0.000778696524527,0.0157266404257,-0.172893769876,-0.9848146073
1421850805253160000,160798,1421850805253160000,fcu,0.169921875,-0.11328125,0.009765625,-0.000778696524527,0.0157266404257,-0.172893769876,-0.9848146073
1421850805258159876,160799,1421850805258159876,fcu,0.169921875,-0.11328125,0.009765625,-0.000778696524527,0.0157266404257,-0.172893769876,-0.9848146073
1421850805263159990,160800,1421850805263159990,fcu,0.171875,-0.11328125,0.009765625,-0.000778696524527,0.0157266404257,-0.172893769876,-0.9848146073
1421850805268162012,160801,1421850805268162012,fcu,0.171875,-0.11328125,0.009765625,-0.000778696524527,0.0157266404257,-0.172893769876,-0.9848146073
1421850805283164024,160804,1421850805283164024,fcu,0.171875,-0.11328125,0.009765625,-0.000778696524527,0.0157266404257,-0.172893769876,-0.9848146073
1421850805288166046,160805,1421850805288166046,fcu,0.171875,-0.11328125,0.009765625,0.000183036708862,0.0158954744719,-0.172878329389,-0.984814898149
1421850805293165922,160806,1421850805293165922,fcu,0.171875,-0.11328125,0.009765625,0.000183036708862,0.0158954744719,-0.172878329389,-0.984814898149
1421850805303167820,160808,1421850805303167820,fcu,0.173828125,-0.11328125,0.009765625,1.41220988643e-05,0.0168571845766,-0.172872790575,-0.984799895109
1421850805308167934,160809,1421850805308167934,fcu,0.173828125,-0.11328125,0.009765625,0.000183036708862,0.0158954744719,-0.172878329389,-0.984814898149
1421850805313169956,160810,1421850805313169956,fcu,0.173828125,-0.11328125,0.009765625,1.41220988643e-05,0.0168571845766,-0.172872790575,-0.984799895109
1421850805323169947,160812,1421850805323169947,fcu,0.17578125,-0.11328125,0.01171875,3.05841838269e-05,0.0168571627474,-0.171910989648,-0.984968246578
1421850805328171968,160813,1421850805328171968,fcu,0.177734375,-0.11328125,0.01171875,3.05841838269e-05,0.0168571627474,-0.171910989648,-0.984968246578
1421850805333171844,160814,1421850805333171844,fcu,0.177734375,-0.11328125,0.01171875,3.05841838269e-05,0.0168571627474,-0.171910989648,-0.984968246578
1421850805338173866,160815,1421850805338173866,fcu,0.1796875,-0.11328125,0.01171875,3.05841838269e-05,0.0168571627474,-0.171910989648,-0.984968246578
1421850805343173981,160816,1421850805343173981,fcu,0.1796875,-0.11328125,0.01171875,0.000992467069655,0.0170250365084,-0.171894445604,-0.984967747041
1421850805348176003,160817,1421850805348176003,fcu,0.181640625,-0.11328125,0.01171875,0.000992467069655,0.0170250365084,-0.171894445604,-0.984967747041
1421850805353175879,160818,1421850805353175879,fcu,0.181640625,-0.11328125,0.01171875,0.000992467069655,0.0170250365084,-0.171894445604,-0.984967747041
1421850805358175993,160819,1421850805358175993,fcu,0.181640625,-0.11328125,0.01171875,0.000992467069655,0.0170250365084,-0.171894445604,-0.984967747041
1421850805363178015,160820,1421850805363178015,fcu,0.18359375,-0.11328125,0.01171875,0.000992467069655,0.0170250365084,-0.171894445604,-0.984967747041
1421850805368177891,160821,1421850805368177891,fcu,0.18359375,-0.11328125,0.01171875,0.000992467069655,0.0170250365084,-0.171894445604,-0.984967747041
1421850805373179913,160822,1421850805373179913,fcu,0.185546875,-0.11328125,0.01171875,0.000824476187005,0.0179868890205,-0.171887818185,-0.984951963307
1421850805378180027,160823,1421850805378180027,fcu,0.185546875,-0.11328125,0.01171875,0.000824476187005,0.0179868890205,-0.171887818185,-0.984951963307
1421850805383179903,160824,1421850805383179903,fcu,0.185546875,-0.11328125,0.01171875,0.000824476187005,0.0179868890205,-0.171887818185,-0.984951963307
1421850805388181925,160825,1421850805388181925,fcu,0.185546875,-0.11328125,0.01171875,0.000824476187005,0.0179868890205,-0.171887818185,-0.984951963307
1421850805393182039,160826,1421850805393182039,fcu,0.1875,-0.11328125,0.01171875,0.000824476187005,0.0179868890205,-0.171887818185,-0.984951963307
1421850805398183823,160827,1421850805398183823,fcu,0.1875,-0.11328125,0.01171875,0.000656484518072,0.018948724379,-0.171881026841,-0.984935240249
1421850805403183937,160828,1421850805403183937,fcu,0.1875,-0.11328125,0.01171875,0.00161833487271,0.0191165678821,-0.171862440271,-0.984934129497
1421850805408185959,160829,1421850805408185959,fcu,0.189453125,-0.11328125,0.01171875,0.00161833487271,0.0191165678821,-0.171862440271,-0.984934129497
1421850805413185835,160830,1421850805413185835,fcu,0.189453125,-0.11328125,0.01171875,0.00161833487271,0.0191165678821,-0.171862440271,-0.984934129497
1421850805418185949,160831,1421850805418185949,fcu,0.189453125,-0.11328125,0.01171875,0.00161833487271,0.0191165678821,-0.171862440271,-0.984934129497
1421850805423187971,160832,1421850805423187971,fcu,0.19140625,-0.11328125,0.01171875,0.00161833487271,0.0191165678821,-0.171862440271,-0.984934129497
1421850805433189869,160834,1421850805433189869,fcu,0.193359375,-0.11328125,0.01171875,0.00145032540941,0.0200783779188,-0.171854545737,-0.984916631196
1421850805438189983,160835,1421850805438189983,fcu,0.193359375,-0.111328125,0.01171875,0.00145032540941,0.0200783779188,-0.171854545737,-0.984916631196
1421850805443189859,160836,1421850805443189859,fcu,0.193359375,-0.111328125,0.01171875,0.00145032540941,0.0200783779188,-0.171854545737,-0.984916631196
1421850805448191881,160837,1421850805448191881,fcu,0.1953125,-0.111328125,0.013671875,0.0024516959363,0.0202414451647,-0.169910867865,-0.985248481382
1421850805453191996,160838,1421850805453191996,fcu,0.1953125,-0.111328125,0.013671875,0.00228554596538,0.0212035540715,-0.1699019059,-0.985230190334
1421850805458194017,160839,1421850805458194017,fcu,0.1953125,-0.111328125,0.013671875,0.00228554596538,0.0212035540715,-0.1699019059,-0.985230190334
1421850805463193893,160840,1421850805463193893,fcu,0.197265625,-0.111328125,0.013671875,0.00228554596538,0.0212035540715,-0.1699019059,-0.985230190334
1421850805468195915,160841,1421850805468195915,fcu,0.197265625,-0.111328125,0.013671875,0.00228554596538,0.0212035540715,-0.1699019059,-0.985230190334
1421850805473196030,160842,1421850805473196030,fcu,0.197265625,-0.111328125,0.013671875,0.00228554596538,0.0212035540715,-0.1699019059,-0.985230190334
1421850805488198042,160845,1421850805488198042,fcu,0.19921875,-0.109375,0.013671875,0.00211939381479,0.022165642757,-0.169892781905,-0.985210959697
1421850805493199825,160846,1421850805493199825,fcu,0.19921875,-0.109375,0.013671875,0.00308151272909,0.022331543081,-0.169871054761,-0.985208420192
1421850805498199940,160847,1421850805498199940,fcu,0.19921875,-0.109375,0.013671875,0.00308151272909,0.022331543081,-0.169871054761,-0.985208420192
1421850805503200054,160848,1421850805503200054,fcu,0.201171875,-0.109375,0.013671875,0.00291533893905,0.0232936011006,-0.169860829229,-0.985188412254
1421850805508201838,160849,1421850805508201838,fcu,0.201171875,-0.109375,0.013671875,0.00291533893905,0.0232936011006,-0.169860829229,-0.985188412254
1421850805513201952,160850,1421850805513201952,fcu,0.201171875,-0.109375,0.013671875,0.00291533893905,0.0232936011006,-0.169860829229,-0.985188412254
1421850805518203974,160851,1421850805518203974,fcu,0.203125,-0.109375,0.013671875,0.00274916236873,0.0242556369057,-0.169850441705,-0.985167464768
1421850805523203850,160852,1421850805523203850,fcu,0.203125,-0.109375,0.013671875,0.00274916236873,0.0242556369057,-0.169850441705,-0.985167464768
1421850805528205872,160853,1421850805528205872,fcu,0.205078125,-0.109375,0.013671875,0.00274916236873,0.0242556369057,-0.169850441705,-0.985167464768
1421850805533205986,160854,1421850805533205986,fcu,0.205078125,-0.109375,0.013671875,0.0025829831766,0.0252176495788,-0.169839892198,-0.985145577753
1421850805538205862,160855,1421850805538205862,fcu,0.20703125,-0.109375,0.013671875,0.00356982489705,0.025380022743,-0.168853050478,-0.985307950917
1421850805543207884,160856,1421850805543207884,fcu,0.20703125,-0.109375,0.013671875,0.00356982489705,0.025380022743,-0.168853050478,-0.985307950917
1421850805548207998,160857,1421850805548207998,fcu,0.208984375,-0.109375,0.013671875,0.00356982489705,0.025380022743,-0.168853050478,-0.985307950917
1421850805553210020,160858,1421850805553210020,fcu,0.208984375,-0.107421875,0.013671875,0.00340456053977,0.0263421622973,-0.168841421702,-0.985285275324
1421850805558209896,160859,1421850805558209896,fcu,0.208984375,-0.107421875,0.013671875,0.00340456053977,0.0263421622973,-0.168841421702,-0.985285275324
1421850805563210011,160860,1421850805563210011,fcu,0.2109375,-0.107421875,0.013671875,0.00340456053977,0.0263421622973,-0.168841421702,-0.985285275324
1421850805568212032,160861,1421850805568212032,fcu,0.2109375,-0.107421875,0.013671875,0.00340456053977,0.0263421622973,-0.168841421702,-0.985285275324
1421850805573211908,160862,1421850805573211908,fcu,0.2109375,-0.107421875,0.013671875,0.00340456053977,0.0263421622973,-0.168841421702,-0.985285275324
1421850805578213930,160863,1421850805578213930,fcu,0.212890625,-0.107421875,0.013671875,0.00323929293565,0.0273042767297,-0.168829631905,-0.98526166009
1421850805583214045,160864,1421850805583214045,fcu,0.212890625,-0.107421875,0.013671875,0.00323929293565,0.0273042767297,-0.168829631905,-0.98526166009
1421850805588215828,160865,1421850805588215828,fcu,0.212890625,-0.107421875,0.013671875,0.00420146082803,0.0274691363712,-0.168802887073,-0.98525802691
1421850805593215942,160866,1421850805593215942,fcu,0.212890625,-0.107421875,0.013671875,0.00323929293565,0.0273042767297,-0.168829631905,-0.98526166009
1421850805598215818,160867,1421850805598215818,fcu,0.212890625,-0.107421875,0.013671875,0.00403616623415,0.0284312126348,-0.168789996734,-0.985233633466
1421850805603217840,160868,1421850805603217840,fcu,0.212890625,-0.107421875,0.013671875,0.00403616623415,0.0284312126348,-0.168789996734,-0.985233633466
1421850805608217955,160869,1421850805608217955,fcu,0.21484375,-0.107421875,0.013671875,0.00387086779107,0.0293932617842,-0.168776945426,-0.98520830043
1421850805613219976,160870,1421850805613219976,fcu,0.21484375,-0.107421875,0.013671875,0.00387086779107,0.0293932617842,-0.168776945426,-0.98520830043
1421850805618219852,160871,1421850805618219852,fcu,0.21484375,-0.107421875,0.013671875,0.00387086779107,0.0293932617842,-0.168776945426,-0.98520830043
1421850805623219967,160872,1421850805623219967,fcu,0.21484375,-0.107421875,0.013671875,0.00387086779107,0.0293932617842,-0.168776945426,-0.98520830043
1421850805628221989,160873,1421850805628221989,fcu,0.21484375,-0.107421875,0.013671875,0.00387086779107,0.0293932617842,-0.168776945426,-0.98520830043
1421850805633221865,160874,1421850805633221865,fcu,0.21484375,-0.107421875,0.013671875,0.00370556565645,0.0303552829021,-0.168763733158,-0.985182027827
1421850805638223886,160875,1421850805638223886,fcu,0.21484375,-0.107421875,0.013671875,0.00370556565645,0.0303552829021,-0.168763733158,-0.985182027827
1421850805643224001,160876,1421850805643224001,fcu,0.21484375,-0.107421875,0.013671875,0.00370556565645,0.0303552829021,-0.168763733158,-0.985182027827
1421850805648226023,160877,1421850805648226023,fcu,0.21484375,-0.107421875,0.013671875,0.00370556565645,0.0303552829021,-0.168763733158,-0.985182027827
1421850805653225899,160878,1421850805653225899,fcu,0.21484375,-0.10546875,0.013671875,0.00373520771575,0.0303516497117,-0.167801561014,-0.985346366363
1421850805658226013,160879,1421850805658226013,fcu,0.216796875,-0.10546875,0.013671875,0.00373520771575,0.0303516497117,-0.167801561014,-0.985346366363
1421850805663228035,160880,1421850805663228035,fcu,0.216796875,-0.10546875,0.013671875,0.00376484621287,0.0303479875757,-0.166839228843,-0.985509765199
1421850805668227911,160881,1421850805668227911,fcu,0.21875,-0.10546875,0.013671875,0.00376484621287,0.0303479875757,-0.166839228843,-0.985509765199
1421850805673229933,160882,1421850805673229933,fcu,0.220703125,-0.10546875,0.013671875,0.00376484621287,0.0303479875757,-0.166839228843,-0.985509765199
1421850805678230047,160883,1421850805678230047,fcu,0.220703125,-0.103515625,0.013671875,0.00376484621287,0.0303479875757,-0.166839228843,-0.985509765199
1421850805683229923,160884,1421850805683229923,fcu,0.22265625,-0.103515625,0.013671875,0.00376484621287,0.0303479875757,-0.166839228843,-0.985509765199
1421850805688231945,160885,1421850805688231945,fcu,0.22265625,-0.103515625,0.013671875,0.00376484621287,0.0303479875757,-0.166839228843,-0.985509765199
1421850805693231821,160886,1421850805693231821,fcu,0.22265625,-0.103515625,0.013671875,0.00376484621287,0.0303479875757,-0.166839228843,-0.985509765199
1421850805698233843,160887,1421850805698233843,fcu,0.224609375,-0.103515625,0.013671875,0.0036014197494,0.0313103007721,-0.166825908804,-0.985482526985
1421850805703233957,160888,1421850805703233957,fcu,0.224609375,-0.103515625,0.013671875,0.0036014197494,0.0313103007721,-0.166825908804,-0.985482526985
1421850805708235979,160889,1421850805708235979,fcu,0.224609375,-0.1015625,0.013671875,0.0036014197494,0.0313103007721,-0.166825908804,-0.985482526985
1421850805713235855,160890,1421850805713235855,fcu,0.2265625,-0.1015625,0.013671875,0.0036014197494,0.0313103007721,-0.166825908804,-0.985482526985
1421850805718235970,160891,1421850805718235970,fcu,0.2265625,-0.1015625,0.013671875,0.00263903290482,0.0311473699415,-0.166856405716,-0.985485574081
1421850805723237991,160892,1421850805723237991,fcu,0.2265625,-0.1015625,0.013671875,0.00263903290482,0.0311473699415,-0.166856405716,-0.985485574081
1421850805728237867,160893,1421850805728237867,fcu,0.2265625,-0.1015625,0.013671875,0.00263903290482,0.0311473699415,-0.166856405716,-0.985485574081
1421850805733239889,160894,1421850805733239889,fcu,0.2265625,-0.1015625,0.013671875,0.00263903290482,0.0311473699415,-0.166856405716,-0.985485574081
1421850805738240004,160895,1421850805738240004,fcu,0.228515625,-0.1015625,0.013671875,0.00263903290482,0.0311473699415,-0.166856405716,-0.985485574081
1421850805743239880,160896,1421850805743239880,fcu,0.228515625,-0.1015625,0.013671875,0.00263903290482,0.0311473699415,-0.166856405716,-0.985485574081
1421850805748241901,160897,1421850805748241901,fcu,0.228515625,-0.1015625,0.013671875,0.00263903290482,0.0311473699415,-0.166856405716,-0.985485574081
1421850805753242016,160898,1421850805753242016,fcu,0.228515625,-0.099609375,0.013671875,0.00167664354346,0.0309844094065,-0.166886743501,-0.985487681345
1421850805758244038,160899,1421850805758244038,fcu,0.228515625,-0.099609375,0.013671875,0.00167664354346,0.0309844094065,-0.166886743501,-0.985487681345
1421850805763243914,160900,1421850805763243914,fcu,0.228515625,-0.099609375,0.013671875,0.00167664354346,0.0309844094065,-0.166886743501,-0.985487681345
1421850805768244028,160901,1421850805768244028,fcu,0.228515625,-0.099609375,0.013671875,0.00167664354346,0.0309844094065,-0.166886743501,-0.985487681345
1421850805773246050,160902,1421850805773246050,fcu,0.228515625,-0.099609375,0.013671875,0.00151326899233,0.031946717234,-0.166875143849,-0.985459184157
1421850805778245926,160903,1421850805778245926,fcu,0.228515625,-0.099609375,0.013671875,0.000714252583129,0.0308214193224,-0.166916922131,-0.985488848775
1421850805783246040,160904,1421850805783246040,fcu,0.228515625,-0.099609375,0.013671875,0.000550905939187,0.0317837380189,-0.166906262238,-0.985460192055
1421850805788247824,160905,1421850805788247824,fcu,0.228515625,-0.099609375,0.013671875,0.000714252583129,0.0308214193224,-0.166916922131,-0.985488848775
1421850805793247938,160906,1421850805793247938,fcu,0.228515625,-0.099609375,0.013671875,0.000550905939187,0.0317837380189,-0.166906262238,-0.985460192055
1421850805798248053,160907,1421850805798248053,fcu,0.228515625,-0.099609375,0.013671875,0.000550905939187,0.0317837380189,-0.166906262238,-0.985460192055
1421850805803249836,160908,1421850805803249836,fcu,0.228515625,-0.099609375,0.013671875,-0.000411457639346,0.0316207284924,-0.166937221453,-0.985460260145
1421850805808249950,160909,1421850805808249950,fcu,0.228515625,-0.099609375,0.013671875,-0.000411457639346,0.0316207284924,-0.166937221453,-0.985460260145
1421850805813249826,160910,1421850805813249826,fcu,0.228515625,-0.099609375,0.013671875,-0.000411457639346,0.0316207284924,-0.166937221453,-0.985460260145
1421850805818251848,160911,1421850805818251848,fcu,0.228515625,-0.099609375,0.013671875,-0.000411457639346,0.0316207284924,-0.166937221453,-0.985460260145
1421850805823251963,160912,1421850805823251963,fcu,0.228515625,-0.099609375,0.013671875,-0.00115096695951,0.0304976572795,-0.165051702588,-0.985812610818
1421850805828253984,160913,1421850805828253984,fcu,0.23046875,-0.09765625,0.013671875,-0.00131237744573,0.0314603120514,-0.165042978853,-0.985783618023
1421850805833253860,160914,1421850805833253860,fcu,0.23046875,-0.09765625,0.01171875,-0.00115096695951,0.0304976572795,-0.165051702588,-0.985812610818
1421850805838253975,160915,1421850805838253975,fcu,0.232421875,-0.09765625,0.01171875,-0.00131237744573,0.0314603120514,-0.165042978853,-0.985783618023
1421850805848255873,160917,1421850805848255873,fcu,0.232421875,-0.095703125,0.01171875,-0.00211367388542,0.0303364594594,-0.165081406749,-0.985811016755
1421850805853255987,160918,1421850805853255987,fcu,0.234375,-0.095703125,0.01171875,-0.00211367388542,0.0303364594594,-0.165081406749,-0.985811016755
1421850805858258009,160919,1421850805858258009,fcu,0.234375,-0.095703125,0.01171875,-0.00211367388542,0.0303364594594,-0.165081406749,-0.985811016755
1421850805868257999,160921,1421850805868257999,fcu,0.236328125,-0.09375,0.01171875,-0.00304690933264,0.0301782225952,-0.164148171302,-0.985969253619
1421850805873260021,160922,1421850805873260021,fcu,0.236328125,-0.091796875,0.01171875,-0.00304690933264,0.0301782225952,-0.164148171302,-0.985969253619
1421850805878259897,160923,1421850805878259897,fcu,0.236328125,-0.091796875,0.01171875,-0.00304690933264,0.0301782225952,-0.164148171302,-0.985969253619
1421850805883260012,160924,1421850805883260012,fcu,0.23828125,-0.091796875,0.01171875,-0.00304690933264,0.0301782225952,-0.164148171302,-0.985969253619
1421850805888262033,160925,1421850805888262033,fcu,0.23828125,-0.08984375,0.01171875,-0.00304690933264,0.0301782225952,-0.164148171302,-0.985969253619
1421850805893261909,160926,1421850805893261909,fcu,0.240234375,-0.087890625,0.01171875,-0.00304690933264,0.0301782225952,-0.164148171302,-0.985969253619
1421850805898263931,160927,1421850805898263931,fcu,0.240234375,-0.087890625,0.01171875,-0.00304690933264,0.0301782225952,-0.164148171302,-0.985969253619
1421850805903264046,160928,1421850805903264046,fcu,0.240234375,-0.087890625,0.01171875,-0.00400976832595,0.0300179072821,-0.164177563946,-0.985965807976
1421850805908263922,160929,1421850805908263922,fcu,0.2421875,-0.0859375,0.01171875,-0.00400976832595,0.0300179072821,-0.164177563946,-0.985965807976
1421850805913265944,160930,1421850805913265944,fcu,0.2421875,-0.0859375,0.01171875,-0.00497262349525,0.0298575633416,-0.164206800018,-0.985961422042
1421850805918265820,160931,1421850805918265820,fcu,0.2421875,-0.083984375,0.01171875,-0.00400976832595,0.0300179072821,-0.164177563946,-0.985965807976
1421850805923265934,160932,1421850805923265934,fcu,0.244140625,-0.083984375,0.01171875,-0.00497262349525,0.0298575633416,-0.164206800018,-0.985961422042
1421850805928267956,160933,1421850805928267956,fcu,0.244140625,-0.08203125,0.01171875,-0.00497262349525,0.0298575633416,-0.164206800018,-0.985961422042
1421850805933267832,160934,1421850805933267832,fcu,0.244140625,-0.08203125,0.01171875,-0.00497262349525,0.0298575633416,-0.164206800018,-0.985961422042
1421850805938267946,160935,1421850805938267946,fcu,0.244140625,-0.08203125,0.01171875,-0.00497262349525,0.0298575633416,-0.164206800018,-0.985961422042
1421850805943269968,160936,1421850805943269968,fcu,0.244140625,-0.080078125,0.01171875,-0.00497262349525,0.0298575633416,-0.164206800018,-0.985961422042
1421850805948269844,160937,1421850805948269844,fcu,0.244140625,-0.080078125,0.01171875,-0.00590646993363,0.0297029731264,-0.163272953579,-0.986116012257
1421850805953269958,160938,1421850805953269958,fcu,0.24609375,-0.080078125,0.01171875,-0.00494346335206,0.0298624051813,-0.16324386892,-0.986121310076
1421850805958271980,160939,1421850805958271980,fcu,0.24609375,-0.078125,0.01171875,-0.00593547392229,0.0296971909268,-0.16423587949,-0.985956095822
1421850805963271856,160940,1421850805963271856,fcu,0.24609375,-0.078125,0.01171875,-0.00593547392229,0.0296971909268,-0.16423587949,-0.985956095822
1421850805968273878,160941,1421850805968273878,fcu,0.24609375,-0.078125,0.01171875,-0.00593547392229,0.0296971909268,-0.16423587949,-0.985956095822
1421850805973273993,160942,1421850805973273993,fcu,0.24609375,-0.076171875,0.01171875,-0.00593547392229,0.0296971909268,-0.16423587949,-0.985956095822
1421850805978273869,160943,1421850805978273869,fcu,0.24609375,-0.076171875,0.01171875,-0.00593547392229,0.0296971909268,-0.16423587949,-0.985956095822
1421850805983275890,160944,1421850805983275890,fcu,0.248046875,-0.076171875,0.01171875,-0.00593547392229,0.0296971909268,-0.16423587949,-0.985956095822
1421850805988276005,160945,1421850805988276005,fcu,0.248046875,-0.07421875,0.01171875,-0.00593547392229,0.0296971909268,-0.16423587949,-0.985956095822
1421850805993275881,160946,1421850805993275881,fcu,0.248046875,-0.07421875,0.01171875,-0.0060658563776,0.030665972157,-0.163268988565,-0.986086223872
1421850805998277903,160947,1421850805998277903,fcu,0.248046875,-0.07421875,0.01171875,-0.00590646993363,0.0297029731264,-0.163272953579,-0.986116012257
1421850806003278017,160948,1421850806003278017,fcu,0.248046875,-0.07421875,0.009765625,-0.0060658563776,0.030665972157,-0.163268988565,-0.986086223872
1421850806013279915,160950,1421850806013279915,fcu,0.248046875,-0.072265625,0.009765625,-0.0060658563776,0.030665972157,-0.163268988565,-0.986086223872
1421850806018280029,160951,1421850806018280029,fcu,0.248046875,-0.072265625,0.009765625,-0.00702882816011,0.030506515188,-0.163298857946,-0.986079829983
1421850806023279905,160952,1421850806023279905,fcu,0.248046875,-0.072265625,0.009765625,-0.00622523703671,0.0316289419422,-0.163264867846,-0.986055495083
1421850806028281927,160953,1421850806028281927,fcu,0.248046875,-0.0703125,0.009765625,-0.00718817873465,0.0314694885382,-0.163295677629,-0.986048945563
1421850806033282042,160954,1421850806033282042,fcu,0.248046875,-0.0703125,0.009765625,-0.00718817873465,0.0314694885382,-0.163295677629,-0.986048945563
1421850806038283825,160955,1421850806038283825,fcu,0.248046875,-0.0703125,0.009765625,-0.007347522454,0.0324324318767,-0.16329234158,-0.986017120773
1421850806043283939,160956,1421850806043283939,fcu,0.248046875,-0.0703125,0.009765625,-0.00718817873465,0.0314694885382,-0.163295677629,-0.986048945563
1421850806048284054,160957,1421850806048284054,fcu,0.25,-0.068359375,0.009765625,-0.00737919124215,0.032425241098,-0.164255170908,-0.985857185452
1421850806053285837,160958,1421850806053285837,fcu,0.25,-0.068359375,0.009765625,-0.00834193872812,0.0322648202216,-0.164286757854,-0.985849509118
1421850806058285952,160959,1421850806058285952,fcu,0.25,-0.068359375,0.009765625,-0.00750685916621,0.0333953442853,-0.163288849804,-0.985984355644
1421850806063285828,160960,1421850806063285828,fcu,0.25,-0.06640625,0.009765625,-0.00846973078093,0.0332358666191,-0.163321384577,-0.985976554574
1421850806068287849,160961,1421850806068287849,fcu,0.25,-0.06640625,0.009765625,-0.00846973078093,0.0332358666191,-0.163321384577,-0.985976554574
1421850806073287964,160962,1421850806073287964,fcu,0.25,-0.06640625,0.009765625,-0.00846973078093,0.0332358666191,-0.163321384577,-0.985976554574
1421850806078287840,160963,1421850806078287840,fcu,0.25,-0.064453125,0.009765625,-0.00846973078093,0.0332358666191,-0.163321384577,-0.985976554574
1421850806083289862,160964,1421850806083289862,fcu,0.25,-0.064453125,0.009765625,-0.00846973078093,0.0332358666191,-0.163321384577,-0.985976554574
1421850806088289976,160965,1421850806088289976,fcu,0.25,-0.064453125,0.009765625,-0.00943259431828,0.0330763572568,-0.163353763596,-0.985967813204
1421850806093289852,160966,1421850806093289852,fcu,0.25,-0.0625,0.0078125,-0.00943259431828,0.0330763572568,-0.163353763596,-0.985967813204
1421850806098291874,160967,1421850806098291874,fcu,0.25,-0.0625,0.0078125,-0.00943259431828,0.0330763572568,-0.163353763596,-0.985967813204
1421850806103291988,160968,1421850806103291988,fcu,0.25,-0.0625,0.0078125,-0.00943259431828,0.0330763572568,-0.163353763596,-0.985967813204
1421850806108294010,160969,1421850806108294010,fcu,0.251953125,-0.0625,0.0078125,-0.01039544886,0.0329168163503,-0.163385986827,-0.985958131541
1421850806113293886,160970,1421850806113293886,fcu,0.251953125,-0.0625,0.0078125,-0.00943259431828,0.0330763572568,-0.163353763596,-0.985967813204
1421850806118294001,160971,1421850806118294001,fcu,0.251953125,-0.060546875,0.0078125,-0.01039544886,0.0329168163503,-0.163385986827,-0.985958131541
1421850806123296022,160972,1421850806123296022,fcu,0.251953125,-0.060546875,0.0078125,-0.010236208823,0.0319538978443,-0.16338665756,-0.985991363336
1421850806128295898,160973,1421850806128295898,fcu,0.251953125,-0.060546875,0.0078125,-0.01039544886,0.0329168163503,-0.163385986827,-0.985958131541
1421850806133296013,160974,1421850806133296013,fcu,0.251953125,-0.060546875,0.0078125,-0.0111990859798,0.0317943253501,-0.163417784625,-0.985980896882
1421850806138298035,160975,1421850806138298035,fcu,0.251953125,-0.060546875,0.0078125,-0.010236208823,0.0319538978443,-0.16338665756,-0.985991363336
1421850806143297911,160976,1421850806143297911,fcu,0.251953125,-0.060546875,0.0078125,-0.0111990859798,0.0317943253501,-0.163417784625,-0.985980896882
1421850806148298025,160977,1421850806148298025,fcu,0.251953125,-0.060546875,0.0078125,-0.0111990859798,0.0317943253501,-0.163417784625,-0.985980896882
1421850806153300047,160978,1421850806153300047,fcu,0.251953125,-0.060546875,0.0078125,-0.0111990859798,0.0317943253501,-0.163417784625,-0.985980896882
1421850806168301821,160981,1421850806168301821,fcu,0.251953125,-0.05859375,0.0078125,-0.0120027660302,0.0306717743858,-0.163447389998,-0.986002092577
1421850806173301935,160982,1421850806173301935,fcu,0.251953125,-0.05859375,0.005859375,-0.0120027660302,0.0306717743858,-0.163447389998,-0.986002092577
1421850806178303957,160983,1421850806178303957,fcu,0.251953125,-0.05859375,0.005859375,-0.0120027660302,0.0306717743858,-0.163447389998,-0.986002092577
1421850806183303833,160984,1421850806183303833,fcu,0.251953125,-0.05859375,0.005859375,-0.0118435681575,0.0297087969863,-0.163445868278,-0.986033754705
1421850806188303947,160985,1421850806188303947,fcu,0.251953125,-0.05859375,0.005859375,-0.0118435681575,0.0297087969863,-0.163445868278,-0.986033754705
1421850806193305969,160986,1421850806193305969,fcu,0.251953125,-0.05859375,0.005859375,-0.0118435681575,0.0297087969863,-0.163445868278,-0.986033754705
1421850806198305845,160987,1421850806198305845,fcu,0.251953125,-0.056640625,0.005859375,-0.0118435681575,0.0297087969863,-0.163445868278,-0.986033754705
1421850806208307981,160989,1421850806208307981,fcu,0.25,-0.0546875,0.005859375,-0.0116843589899,0.0287457912543,-0.163444190684,-0.986064476478
1421850806213307858,160990,1421850806213307858,fcu,0.25,-0.0546875,0.005859375,-0.0116843589899,0.0287457912543,-0.163444190684,-0.986064476478
1421850806218307972,160991,1421850806218307972,fcu,0.25,-0.052734375,0.005859375,-0.0124881157043,0.0276231332087,-0.163469410877,-0.986082532644
1421850806223309994,160992,1421850806223309994,fcu,0.25,-0.052734375,0.005859375,-0.0124881157043,0.0276231332087,-0.163469410877,-0.986082532644
1421850806228309870,160993,1421850806228309870,fcu,0.25,-0.05078125,0.005859375,-0.0124881157043,0.0276231332087,-0.163469410877,-0.986082532644
1421850806233309984,160994,1421850806233309984,fcu,0.25,-0.05078125,0.005859375,-0.0124881157043,0.0276231332087,-0.163469410877,-0.986082532644
1421850806238312006,160995,1421850806238312006,fcu,0.25,-0.05078125,0.005859375,-0.0124881157043,0.0276231332087,-0.163469410877,-0.986082532644
1421850806243311882,160996,1421850806243311882,fcu,0.25,-0.048828125,0.005859375,-0.0123289126433,0.0266600759688,-0.163466481053,-0.986111529105
1421850806248313904,160997,1421850806248313904,fcu,0.25,-0.048828125,0.005859375,-0.0123289126433,0.0266600759688,-0.163466481053,-0.986111529105
1421850806253314018,160998,1421850806253314018,fcu,0.25,-0.048828125,0.005859375,-0.0123289126433,0.0266600759688,-0.163466481053,-0.986111529105
1421850806258313894,160999,1421850806258313894,fcu,0.25,-0.046875,0.005859375,-0.0123289126433,0.0266600759688,-0.163466481053,-0.986111529105
1421850806263315916,161000,1421850806263315916,fcu,0.25,-0.046875,0.00390625,-0.0132919061515,0.0265004280462,-0.163492438333,-0.986099018939
1421850806268316031,161001,1421850806268316031,fcu,0.25,-0.046875,0.00390625,-0.0132919061515,0.0265004280462,-0.163492438333,-0.986099018939
1421850806273315907,161002,1421850806273315907,fcu,0.25,-0.046875,0.00390625,-0.0131327188071,0.0255373488539,-0.163488412106,-0.986127230441
1421850806278317928,161003,1421850806278317928,fcu,0.25,-0.044921875,0.00390625,-0.0131327188071,0.0255373488539,-0.163488412106,-0.986127230441
1421850806283318043,161004,1421850806283318043,fcu,0.25,-0.044921875,0.00390625,-0.0131327188071,0.0255373488539,-0.163488412106,-0.986127230441
1421850806288317919,161005,1421850806288317919,fcu,0.248046875,-0.044921875,0.00390625,-0.0140957272654,0.0253776800497,-0.163513272962,-0.9861139353
1421850806293319941,161006,1421850806293319941,fcu,0.248046875,-0.044921875,0.00390625,-0.0140957272654,0.0253776800497,-0.163513272962,-0.9861139353
1421850806298319817,161007,1421850806298319817,fcu,0.248046875,-0.04296875,0.00390625,-0.0140957272654,0.0253776800497,-0.163513272962,-0.9861139353
1421850806303319931,161008,1421850806303319931,fcu,0.248046875,-0.04296875,0.00390625,-0.0140957272654,0.0253776800497,-0.163513272962,-0.9861139353
1421850806308321953,161009,1421850806308321953,fcu,0.248046875,-0.04296875,0.00390625,-0.0140957272654,0.0253776800497,-0.163513272962,-0.9861139353
1421850806313321829,161010,1421850806313321829,fcu,0.248046875,-0.04296875,0.00390625,-0.0150587222809,0.0252179870434,-0.163537977879,-0.986099699728
1421850806318323851,161011,1421850806318323851,fcu,0.248046875,-0.04296875,0.00390625,-0.0150587222809,0.0252179870434,-0.163537977879,-0.986099699728
1421850806323323965,161012,1421850806323323965,fcu,0.248046875,-0.041015625,0.00390625,-0.0150587222809,0.0252179870434,-0.163537977879,-0.986099699728
1421850806328323841,161013,1421850806328323841,fcu,0.248046875,-0.041015625,0.00390625,-0.0150587222809,0.0252179870434,-0.163537977879,-0.986099699728
1421850806333325863,161014,1421850806333325863,fcu,0.24609375,-0.041015625,0.00390625,-0.0160217029353,0.0250582699874,-0.163562526835,-0.986084523738
1421850806338325977,161015,1421850806338325977,fcu,0.24609375,-0.041015625,0.00390625,-0.0160217029353,0.0250582699874,-0.163562526835,-0.986084523738
1421850806343325853,161016,1421850806343325853,fcu,0.24609375,-0.0390625,0.00390625,-0.0159972243326,0.0250739042305,-0.162599475828,-0.986243782541
1421850806348327875,161017,1421850806348327875,fcu,0.24609375,-0.0390625,0.00390625,-0.0159972243326,0.0250739042305,-0.162599475828,-0.986243782541
1421850806353327990,161018,1421850806353327990,fcu,0.24609375,-0.0390625,0.00390625,-0.0159972243326,0.0250739042305,-0.162599475828,-0.986243782541
1421850806358327866,161019,1421850806358327866,fcu,0.24609375,-0.0390625,0.00390625,-0.0169603452454,0.0249151037489,-0.162623884525,-0.986227689977
1421850806363329887,161020,1421850806363329887,fcu,0.24609375,-0.037109375,0.00390625,-0.0169603452454,0.0249151037489,-0.162623884525,-0.986227689977
1421850806368330002,161021,1421850806368330002,fcu,0.244140625,-0.037109375,0.00390625,-0.0171184806141,0.0258783147545,-0.162631700893,-0.986198864485
1421850806373329878,161022,1421850806373329878,fcu,0.244140625,-0.037109375,0.00390625,-0.0169603452454,0.0249151037489,-0.162623884525,-0.986227689977
1421850806383332014,161024,1421850806383332014,fcu,0.244140625,-0.037109375,0.00390625,-0.0179234499835,0.0247562795065,-0.162648138132,-0.986210656872
1421850806388334036,161025,1421850806388334036,fcu,0.244140625,-0.03515625,0.001953125,-0.0180815571269,0.0257194824196,-0.162656895132,-0.986181676965
1421850806393333912,161026,1421850806393333912,fcu,0.244140625,-0.03515625,0.001953125,-0.0190695688591,0.0255420151132,-0.163644906864,-0.986004209659
1421850806398334026,161027,1421850806398334026,fcu,0.244140625,-0.03515625,0.001953125,-0.0190695688591,0.0255420151132,-0.163644906864,-0.986004209659
1421850806403336048,161028,1421850806403336048,fcu,0.244140625,-0.03515625,0.001953125,-0.0190695688591,0.0255420151132,-0.163644906864,-0.986004209659
1421850806408335924,161029,1421850806408335924,fcu,0.244140625,-0.03515625,0.001953125,-0.0190695688591,0.0255420151132,-0.163644906864,-0.986004209659
1421850806413336039,161030,1421850806413336039,fcu,0.244140625,-0.033203125,0.001953125,-0.0190695688591,0.0255420151132,-0.163644906864,-0.986004209659
1421850806418337822,161031,1421850806418337822,fcu,0.244140625,-0.033203125,0.001953125,-0.0200324543489,0.0253821934798,-0.163669772202,-0.985985116873
1421850806423337936,161032,1421850806423337936,fcu,0.244140625,-0.033203125,0.001953125,-0.0200324543489,0.0253821934798,-0.163669772202,-0.985985116873
1421850806428338051,161033,1421850806428338051,fcu,0.244140625,-0.033203125,0.001953125,-0.0200324543489,0.0253821934798,-0.163669772202,-0.985985116873
1421850806433339834,161034,1421850806433339834,fcu,0.244140625,-0.033203125,0.001953125,-0.0200324543489,0.0253821934798,-0.163669772202,-0.985985116873
1421850806438339949,161035,1421850806438339949,fcu,0.244140625,-0.033203125,0.001953125,-0.0209953207344,0.0252223476402,-0.163694481453,-0.985965083778
1421850806443339825,161036,1421850806443339825,fcu,0.244140625,-0.033203125,0.001953125,-0.0211542627979,0.0261853419333,-0.163705875425,-0.985934689208
1421850806448341846,161037,1421850806448341846,fcu,0.244140625,-0.033203125,0.001953125,-0.0209953207344,0.0252223476402,-0.163694481453,-0.985965083778
1421850806453341961,161038,1421850806453341961,fcu,0.244140625,-0.033203125,0.001953125,-0.0211542627979,0.0261853419333,-0.163705875425,-0.985934689208
1421850806463343859,161040,1421850806463343859,fcu,0.244140625,-0.03125,0.001953125,-0.0219581670971,0.0250624777466,-0.163719034592,-0.985944110393
1421850806468343973,161041,1421850806468343973,fcu,0.244140625,-0.03125,0.001953125,-0.0219581670971,0.0250624777466,-0.163719034592,-0.985944110393
1421850806473345995,161042,1421850806473345995,fcu,0.244140625,-0.03125,0.001953125,-0.0219581670971,0.0250624777466,-0.163719034592,-0.985944110393
1421850806478345871,161043,1421850806478345871,fcu,0.2421875,-0.03125,0.001953125,-0.0219826316987,0.0250410222767,-0.164681792417,-0.985783758414
1421850806483345985,161044,1421850806483345985,fcu,0.2421875,-0.03125,0.001953125,-0.0219826316987,0.0250410222767,-0.164681792417,-0.985783758414
1421850806488348007,161045,1421850806488348007,fcu,0.2421875,-0.03125,0.001953125,-0.0221424843411,0.0260038493368,-0.164694096968,-0.985753196612
1421850806493347883,161046,1421850806493347883,fcu,0.2421875,-0.03125,0.001953125,-0.0219826316987,0.0250410222767,-0.164681792417,-0.985783758414
1421850806498347998,161047,1421850806498347998,fcu,0.2421875,-0.029296875,0.001953125,-0.0221424843411,0.0260038493368,-0.164694096968,-0.985753196612
1421850806503350019,161048,1421850806503350019,fcu,0.2421875,-0.029296875,0.001953125,-0.0229453005151,0.0248801882989,-0.16470616801,-0.985761820946
1421850806508349895,161049,1421850806508349895,fcu,0.2421875,-0.029296875,0.001953125,-0.0221424843411,0.0260038493368,-0.164694096968,-0.985753196612
1421850806513350010,161050,1421850806513350010,fcu,0.2421875,-0.029296875,0.001953125,-0.0221424843411,0.0260038493368,-0.164694096968,-0.985753196612
1421850806518352032,161051,1421850806518352032,fcu,0.240234375,-0.029296875,0.001953125,-0.0223023158668,0.0269666515976,-0.164706244455,-0.985721694722
1421850806523351908,161052,1421850806523351908,fcu,0.240234375,-0.029296875,0.001953125,-0.0223023158668,0.0269666515976,-0.164706244455,-0.985721694722
1421850806528353930,161053,1421850806528353930,fcu,0.240234375,-0.029296875,0.001953125,-0.0223023158668,0.0269666515976,-0.164706244455,-0.985721694722
1421850806533354044,161054,1421850806533354044,fcu,0.240234375,-0.029296875,0.001953125,-0.0223023158668,0.0269666515976,-0.164706244455,-0.985721694722
1421850806538353920,161055,1421850806538353920,fcu,0.240234375,-0.029296875,0.001953125,-0.0224621261234,0.0279294281411,-0.164718234865,-0.985689252775
1421850806553355932,161058,1421850806553355932,fcu,0.240234375,-0.02734375,0.001953125,-0.0214995284047,0.028090272449,-0.164690881494,-0.985710718429
1421850806558357954,161059,1421850806558357954,fcu,0.240234375,-0.02734375,0.001953125,-0.0216593497631,0.0290530334537,-0.164701774626,-0.985677492515
1421850806563357830,161060,1421850806563357830,fcu,0.23828125,-0.02734375,0.001953125,-0.0216593497631,0.0290530334537,-0.164701774626,-0.985677492515
1421850806568357944,161061,1421850806568357944,fcu,0.23828125,-0.02734375,0.001953125,-0.0216593497631,0.0290530334537,-0.164701774626,-0.985677492515
1421850806573359966,161062,1421850806573359966,fcu,0.23828125,-0.02734375,-0.0,-0.0216593497631,0.0290530334537,-0.164701774626,-0.985677492515
1421850806578359842,161063,1421850806578359842,fcu,0.23828125,-0.025390625,-0.0,-0.0206967639118,0.0292138611514,-0.164673323991,-0.985698174212
1421850806583359957,161064,1421850806583359957,fcu,0.23828125,-0.025390625,-0.0,-0.0207252831996,0.0291936355409,-0.165635841189,-0.985536890428
1421850806588361979,161065,1421850806588361979,fcu,0.23828125,-0.025390625,-0.0,-0.0207252831996,0.0291936355409,-0.165635841189,-0.985536890428
1421850806593361855,161066,1421850806593361855,fcu,0.23828125,-0.025390625,-0.0,-0.0207252831996,0.0291936355409,-0.165635841189,-0.985536890428
1421850806603363991,161068,1421850806603363991,fcu,0.23828125,-0.025390625,-0.0,-0.0207252831996,0.0291936355409,-0.165635841189,-0.985536890428
1421850806608363867,161069,1421850806608363867,fcu,0.23828125,-0.025390625,-0.0,-0.0207537827222,0.0291733820891,-0.166598200425,-0.985374666762
1421850806623365879,161072,1421850806623365879,fcu,0.236328125,-0.025390625,-0.0,-0.019791493031,0.0293360617074,-0.166569631358,-0.985394464261
1421850806628367901,161073,1421850806628367901,fcu,0.236328125,-0.025390625,-0.0,-0.019791493031,0.0293360617074,-0.166569631358,-0.985394464261
1421850806633368015,161074,1421850806633368015,fcu,0.236328125,-0.0234375,-0.0,-0.019791493031,0.0293360617074,-0.166569631358,-0.985394464261
1421850806638367891,161075,1421850806638367891,fcu,0.236328125,-0.0234375,-0.0,-0.0188291844651,0.0294987133486,-0.166540903438,-0.985413322015
1421850806643369913,161076,1421850806643369913,fcu,0.236328125,-0.0234375,-0.0,-0.0188291844651,0.0294987133486,-0.166540903438,-0.985413322015
1421850806648370028,161077,1421850806648370028,fcu,0.234375,-0.0234375,-0.0,-0.0188291844651,0.0294987133486,-0.166540903438,-0.985413322015
1421850806653369904,161078,1421850806653369904,fcu,0.234375,-0.0234375,-0.0,-0.0188291844651,0.0294987133486,-0.166540903438,-0.985413322015
1421850806658371925,161079,1421850806658371925,fcu,0.234375,-0.0234375,-0.0,-0.0187230855112,0.0284997245939,-0.168457275478,-0.985118956322
1421850806663372040,161080,1421850806663372040,fcu,0.234375,-0.0234375,-0.0,-0.0187230855112,0.0284997245939,-0.168457275478,-0.985118956322
1421850806668373823,161081,1421850806668373823,fcu,0.232421875,-0.0234375,-0.0,-0.0188867631892,0.0294618813568,-0.168465219958,-0.985086167494
1421850806673373938,161082,1421850806673373938,fcu,0.232421875,-0.0234375,-0.0,-0.0177610465054,0.0286642200361,-0.168429363393,-0.985136770841
1421850806678374052,161083,1421850806678374052,fcu,0.232421875,-0.0234375,-0.0,-0.0188867631892,0.0294618813568,-0.168465219958,-0.985086167494
1421850806683375835,161084,1421850806683375835,fcu,0.232421875,-0.021484375,-0.0,-0.0177610465054,0.0286642200361,-0.168429363393,-0.985136770841
1421850806688375950,161085,1421850806688375950,fcu,0.23046875,-0.021484375,-0.0,-0.0179247561257,0.0296263840985,-0.168436368263,-0.98510414187
1421850806693375826,161086,1421850806693375826,fcu,0.23046875,-0.021484375,-0.0,-0.0177610465054,0.0286642200361,-0.168429363393,-0.985136770841
1421850806698377848,161087,1421850806698377848,fcu,0.23046875,-0.021484375,-0.0,-0.0177610465054,0.0286642200361,-0.168429363393,-0.985136770841
1421850806708377838,161089,1421850806708377838,fcu,0.23046875,-0.021484375,-0.0,-0.0177610465054,0.0286642200361,-0.168429363393,-0.985136770841
1421850806713379860,161090,1421850806713379860,fcu,0.23046875,-0.021484375,-0.0,-0.0177610465054,0.0286642200361,-0.168429363393,-0.985136770841
1421850806718379974,161091,1421850806718379974,fcu,0.228515625,-0.021484375,-0.0,-0.0166352331342,0.0278664902046,-0.168395064828,-0.985185175428
1421850806723379850,161092,1421850806723379850,fcu,0.228515625,-0.021484375,-0.0,-0.0166352331342,0.0278664902046,-0.168395064828,-0.985185175428
1421850806728381872,161093,1421850806728381872,fcu,0.228515625,-0.021484375,-0.0,-0.0166352331342,0.0278664902046,-0.168395064828,-0.985185175428
1421850806733381987,161094,1421850806733381987,fcu,0.228515625,-0.021484375,-0.0,-0.0166352331342,0.0278664902046,-0.168395064828,-0.985185175428
1421850806738384008,161095,1421850806738384008,fcu,0.228515625,-0.0234375,-0.0,-0.0166352331342,0.0278664902046,-0.168395064828,-0.985185175428
1421850806743383884,161096,1421850806743383884,fcu,0.2265625,-0.0234375,-0.0,-0.0164714598424,0.0269042656916,-0.16838867838,-0.98521576545
1421850806748383999,161097,1421850806748383999,fcu,0.2265625,-0.0234375,-0.0,-0.0164714598424,0.0269042656916,-0.16838867838,-0.98521576545
1421850806778388023,161103,1421850806778388023,fcu,0.224609375,-0.0234375,-0.0,-0.0151816769804,0.025144157797,-0.168350949166,-0.985289422417
1421850806783390045,161104,1421850806783390045,fcu,0.224609375,-0.0234375,-0.0,-0.0151816769804,0.025144157797,-0.168350949166,-0.985289422417
1421850806788389921,161105,1421850806788389921,fcu,0.224609375,-0.0234375,-0.0,-0.0159800463414,0.024017441876,-0.168368555535,-0.985301897954
1421850806793390036,161106,1421850806793390036,fcu,0.224609375,-0.0234375,-0.0,-0.0150414379156,0.0241671754369,-0.169307163961,-0.985152164393
1421850806808393955,161109,1421850806808393955,fcu,0.224609375,-0.0234375,-0.0,-0.0148766369076,0.023205007873,-0.169301101019,-0.985178841875
1421850806813393831,161110,1421850806813393831,fcu,0.22265625,-0.0234375,-0.0,-0.0148766369076,0.023205007873,-0.169301101019,-0.985178841875
1421850806818393946,161111,1421850806818393946,fcu,0.22265625,-0.025390625,-0.0,-0.0147118217123,0.022242818179,-0.169294876619,-0.985204579817
1421850806823395967,161112,1421850806823395967,fcu,0.22265625,-0.025390625,-0.0,-0.015695480954,0.0220621634755,-0.170278535861,-0.985023925113
1421850806828395844,161113,1421850806828395844,fcu,0.22265625,-0.025390625,0.001953125,-0.0147335361958,0.0222284405617,-0.170256909588,-0.985038783033
1421850806833395958,161114,1421850806833395958,fcu,0.22265625,-0.025390625,0.001953125,-0.0147552366283,0.0222140417457,-0.171218780187,-0.984872046843
1421850806838397980,161115,1421850806838397980,fcu,0.220703125,-0.025390625,0.001953125,-0.0145885284001,0.0212521546065,-0.171212442781,-0.984896857646
1421850806843397856,161116,1421850806843397856,fcu,0.220703125,-0.025390625,0.001953125,-0.0145885284001,0.0212521546065,-0.171212442781,-0.984896857646
1421850806848397970,161117,1421850806848397970,fcu,0.21875,-0.02734375,0.001953125,-0.0145885284001,0.0212521546065,-0.171212442781,-0.984896857646
1421850806853399992,161118,1421850806853399992,fcu,0.21875,-0.02734375,0.001953125,-0.0145885284001,0.0212521546065,-0.171212442781,-0.984896857646
1421850806858399868,161119,1421850806858399868,fcu,0.21875,-0.02734375,0.001953125,-0.0146300086627,0.0212236208698,-0.173135741672,-0.984560580015
1421850806863399982,161120,1421850806863399982,fcu,0.216796875,-0.02734375,0.001953125,-0.0144614081156,0.0202620409266,-0.173129287622,-0.984584464198
1421850806868402004,161121,1421850806868402004,fcu,0.216796875,-0.029296875,0.001953125,-0.0146300086627,0.0212236208698,-0.173135741672,-0.984560580015
1421850806873401880,161122,1421850806873401880,fcu,0.21484375,-0.029296875,0.001953125,-0.0144614081156,0.0202620409266,-0.173129287622,-0.984584464198
1421850806878403902,161123,1421850806878403902,fcu,0.21484375,-0.029296875,0.001953125,-0.0144614081156,0.0202620409266,-0.173129287622,-0.984584464198
1421850806883404016,161124,1421850806883404016,fcu,0.21484375,-0.029296875,0.001953125,-0.0144614081156,0.0202620409266,-0.173129287622,-0.984584464198
1421850806893405914,161126,1421850806893405914,fcu,0.212890625,-0.029296875,0.001953125,-0.0142927937769,0.01930044166,-0.173122668463,-0.984607409408
1421850806898406029,161127,1421850806898406029,fcu,0.212890625,-0.03125,0.001953125,-0.0144614081156,0.0202620409266,-0.173129287622,-0.984584464198
1421850806908407927,161129,1421850806908407927,fcu,0.2109375,-0.03125,0.001953125,-0.0142927937769,0.01930044166,-0.173122668463,-0.984607409408
1421850806913408041,161130,1421850806913408041,fcu,0.2109375,-0.03125,0.001953125,-0.0133312564411,0.0194694975359,-0.173103737827,-0.984620897715
1421850806918407917,161131,1421850806918407917,fcu,0.2109375,-0.03125,0.001953125,-0.0142927937769,0.01930044166,-0.173122668463,-0.984607409408
1421850806923409939,161132,1421850806923409939,fcu,0.2109375,-0.03125,0.001953125,-0.013369257352,0.0194434228071,-0.175026494126,-0.984280926678
1421850806928410053,161133,1421850806928410053,fcu,0.208984375,-0.03125,0.001953125,-0.013369257352,0.0194434228071,-0.175026494126,-0.984280926678
1421850806933409929,161134,1421850806933409929,fcu,0.208984375,-0.033203125,0.001953125,-0.0131987301239,0.0184821301948,-0.175020691618,-0.984302779582
1421850806943411827,161136,1421850806943411827,fcu,0.20703125,-0.033203125,0.001953125,-0.0131987301239,0.0184821301948,-0.175020691618,-0.984302779582
1421850806948413849,161137,1421850806948413849,fcu,0.20703125,-0.033203125,0.001953125,-0.013369257352,0.0194434228071,-0.175026494126,-0.984280926678
1421850806953413963,161138,1421850806953413963,fcu,0.205078125,-0.033203125,0.001953125,-0.0131987301239,0.0184821301948,-0.175020691618,-0.984302779582
1421850806958413839,161139,1421850806958413839,fcu,0.205078125,-0.033203125,0.00390625,-0.0122374907999,0.0186530399988,-0.175002559209,-0.984315199612
1421850806968415976,161141,1421850806968415976,fcu,0.203125,-0.03515625,0.00390625,-0.0122557008211,0.0186410804316,-0.175963720921,-0.984143829345
1421850806973415852,161142,1421850806973415852,fcu,0.203125,-0.03515625,0.00390625,-0.0120842019597,0.0176799318432,-0.175958710546,-0.984164581895
1421850806978417873,161143,1421850806978417873,fcu,0.203125,-0.03515625,0.00390625,-0.0120842019597,0.0176799318432,-0.175958710546,-0.984164581895
1421850806983417988,161144,1421850806983417988,fcu,0.201171875,-0.03515625,0.00390625,-0.0111230981258,0.0178517580637,-0.175941361087,-0.984175913585
1421850806988417864,161145,1421850806988417864,fcu,0.201171875,-0.03515625,0.00390625,-0.0111230981258,0.0178517580637,-0.175941361087,-0.984175913585
1421850806993419886,161146,1421850806993419886,fcu,0.201171875,-0.037109375,0.00390625,-0.0111230981258,0.0178517580637,-0.175941361087,-0.984175913585
1421850806998420000,161147,1421850806998420000,fcu,0.19921875,-0.037109375,0.00390625,-0.0111230981258,0.0178517580637,-0.175941361087,-0.984175913585
1421850807003419876,161148,1421850807003419876,fcu,0.19921875,-0.037109375,0.00390625,-0.0111230981258,0.0178517580637,-0.175941361087,-0.984175913585
1421850807008421898,161149,1421850807008421898,fcu,0.19921875,-0.037109375,0.00390625,-0.0109515684723,0.0168905880159,-0.175937121545,-0.984195560063
1421850807013422012,161150,1421850807013422012,fcu,0.197265625,-0.037109375,0.00390625,-0.0099904349263,0.0170623935298,-0.175920542939,-0.984205785651
1421850807018424034,161151,1421850807018424034,fcu,0.197265625,-0.037109375,0.00390625,-0.0100070926535,0.0170526291113,-0.176881597364,-0.984033518967
1421850807023423910,161152,1421850807023423910,fcu,0.197265625,-0.0390625,0.00390625,-0.0100070926535,0.0170526291113,-0.176881597364,-0.984033518967
1421850807048427820,161157,1421850807048427820,fcu,0.1953125,-0.0390625,0.00390625,-0.00887360290876,0.0162643319701,-0.176862348003,-0.984061197556
1421850807053427935,161158,1421850807053427935,fcu,0.1953125,-0.041015625,0.00390625,-0.00887360290876,0.0162643319701,-0.176862348003,-0.984061197556
1421850807058428049,161159,1421850807058428049,fcu,0.193359375,-0.041015625,0.005859375,-0.00870107955385,0.0153032915418,-0.176859667273,-0.984078634345
1421850807063429832,161160,1421850807063429832,fcu,0.193359375,-0.041015625,0.005859375,-0.00873095218016,0.0152862680679,-0.178781357301,-0.983731328547
1421850807068429947,161161,1421850807068429947,fcu,0.19140625,-0.041015625,0.005859375,-0.00873095218016,0.0152862680679,-0.178781357301,-0.983731328547
1421850807073429823,161162,1421850807073429823,fcu,0.19140625,-0.04296875,0.005859375,-0.00873095218016,0.0152862680679,-0.178781357301,-0.983731328547
1421850807088433981,161165,1421850807088433981,fcu,0.189453125,-0.044921875,0.005859375,-0.00855654379693,0.0143255518541,-0.178778540133,-0.983747832379
1421850807093433857,161166,1421850807093433857,fcu,0.189453125,-0.044921875,0.005859375,-0.00855654379693,0.0143255518541,-0.178778540133,-0.983747832379
1421850807098433971,161167,1421850807098433971,fcu,0.1875,-0.044921875,0.005859375,-0.00839517483853,0.0133566299356,-0.179736173512,-0.983588343469
1421850807103435993,161168,1421850807103435993,fcu,0.1875,-0.046875,0.005859375,-0.00743463549641,0.0135321471457,-0.179723044225,-0.983596072869
1421850807108435869,161169,1421850807108435869,fcu,0.185546875,-0.046875,0.005859375,-0.00839517483853,0.0133566299356,-0.179736173512,-0.983588343469
1421850807113435984,161170,1421850807113435984,fcu,0.185546875,-0.046875,0.005859375,-0.00743463549641,0.0135321471457,-0.179723044225,-0.983596072869
1421850807118438005,161171,1421850807118438005,fcu,0.18359375,-0.048828125,0.005859375,-0.0082319137635,0.0123880250388,-0.180693493563,-0.983426984486
1421850807123437881,161172,1421850807123437881,fcu,0.18359375,-0.048828125,0.005859375,-0.00727153207633,0.0125644775935,-0.180681309723,-0.983434554529
1421850807128437996,161173,1421850807128437996,fcu,0.181640625,-0.05078125,0.005859375,-0.00727153207633,0.0125644775935,-0.180681309723,-0.983434554529
1421850807133440018,161174,1421850807133440018,fcu,0.181640625,-0.05078125,0.005859375,-0.00727153207633,0.0125644775935,-0.180681309723,-0.983434554529
1421850807138439894,161175,1421850807138439894,fcu,0.181640625,-0.05078125,0.005859375,-0.00709521028135,0.0116040628965,-0.180678945721,-0.983448078085
1421850807143440008,161176,1421850807143440008,fcu,0.1796875,-0.05078125,0.005859375,-0.00709521028135,0.0116040628965,-0.180678945721,-0.983448078085
1421850807148442030,161177,1421850807148442030,fcu,0.1796875,-0.052734375,0.005859375,-0.00613480853699,0.0117805016181,-0.180667527476,-0.983454538055
1421850807153441906,161178,1421850807153441906,fcu,0.1796875,-0.052734375,0.005859375,-0.00613480853699,0.0117805016181,-0.180667527476,-0.983454538055
1421850807158443928,161179,1421850807158443928,fcu,0.1796875,-0.052734375,0.005859375,-0.00595846776887,0.0108200738358,-0.180665929082,-0.98346695152
1421850807163444042,161180,1421850807163444042,fcu,0.177734375,-0.052734375,0.005859375,-0.00595846776887,0.0108200738358,-0.180665929082,-0.98346695152
1421850807168443918,161181,1421850807168443918,fcu,0.177734375,-0.0546875,0.005859375,-0.00578212131832,0.00985963573458,-0.180664158392,-0.983478427079
1421850807173445940,161182,1421850807173445940,fcu,0.177734375,-0.0546875,0.005859375,-0.00482169056241,0.0100360608473,-0.180654443695,-0.983483604721
1421850807178446054,161183,1421850807178446054,fcu,0.177734375,-0.0546875,0.0078125,-0.00482169056241,0.0100360608473,-0.180654443695,-0.983483604721
1421850807183445930,161184,1421850807183445930,fcu,0.177734375,-0.0546875,0.0078125,-0.00482169056241,0.0100360608473,-0.180654443695,-0.983483604721
1421850807188447952,161185,1421850807188447952,fcu,0.177734375,-0.0546875,0.0078125,-0.00464532839102,0.00907561190374,-0.180653438648,-0.983493970138
1421850807193447828,161186,1421850807193447828,fcu,0.177734375,-0.0546875,0.0078125,-0.00464532839102,0.00907561190374,-0.180653438648,-0.983493970138
1421850807198447943,161187,1421850807198447943,fcu,0.17578125,-0.0546875,0.0078125,-0.00464532839102,0.00907561190374,-0.180653438648,-0.983493970138
1421850807203449965,161188,1421850807203449965,fcu,0.17578125,-0.0546875,0.0078125,-0.00464532839102,0.00907561190374,-0.180653438648,-0.983493970138
1421850807218451977,161191,1421850807218451977,fcu,0.17578125,-0.056640625,0.0078125,-0.00368488299841,0.00925202692179,-0.180644489605,-0.983498037624
1421850807223451853,161192,1421850807223451853,fcu,0.17578125,-0.056640625,0.0078125,-0.00350850727447,0.00829156863132,-0.18064425022,-0.98350729287
1421850807228453875,161193,1421850807228453875,fcu,0.17578125,-0.056640625,0.0078125,-0.00350850727447,0.00829156863132,-0.18064425022,-0.98350729287
1421850807243455887,161196,1421850807243455887,fcu,0.17578125,-0.056640625,0.0078125,-0.00254804941345,0.00846797505016,-0.180636066849,-0.983510250173
1421850807248456001,161197,1421850807248456001,fcu,0.17578125,-0.056640625,0.0078125,-0.00254804941345,0.00846797505016,-0.180636066849,-0.983510250173
1421850807253455877,161198,1421850807253455877,fcu,0.17578125,-0.056640625,0.0078125,-0.00254804941345,0.00846797505016,-0.180636066849,-0.983510250173
1421850807258457899,161199,1421850807258457899,fcu,0.17578125,-0.056640625,0.0078125,-0.00255631770401,0.0084654826832,-0.181596439791,-0.983333378818
1421850807293462038,161206,1421850807293462038,fcu,0.169921875,-0.0625,0.0078125,-0.00160446962538,0.00864125614744,-0.182548287869,-0.983157605354
1421850807298463821,161207,1421850807298463821,fcu,0.169921875,-0.0625,0.0078125,-0.000644354163941,0.00881952181101,-0.182539762098,-0.983158703413
1421850807303463936,161208,1421850807303463936,fcu,0.169921875,-0.0625,0.0078125,-0.00160446962538,0.00864125614744,-0.182548287869,-0.983157605354
1421850807308464050,161209,1421850807308464050,fcu,0.16796875,-0.0625,0.009765625,-0.00160446962538,0.00864125614744,-0.182548287869,-0.983157605354
1421850807318465948,161211,1421850807318465948,fcu,0.16796875,-0.064453125,0.009765625,-0.000644354163941,0.00881952181101,-0.182539762098,-0.983158703413
1421850807323465824,161212,1421850807323465824,fcu,0.16796875,-0.064453125,0.009765625,-0.000822631796662,0.00977963031394,-0.182537170581,-0.983149969976
1421850807338467836,161215,1421850807338467836,fcu,0.166015625,-0.06640625,0.009765625,-0.000822631796662,0.00977963031394,-0.182537170581,-0.983149969976
1421850807343469858,161216,1421850807343469858,fcu,0.166015625,-0.06640625,0.009765625,0.000315761912006,0.00899777906362,-0.182531062243,-0.983158863858
1421850807358471870,161219,1421850807358471870,fcu,0.1640625,-0.068359375,0.009765625,0.000306974869219,0.00899808313434,-0.183491091131,-0.982980142089
1421850807363471985,161220,1421850807363471985,fcu,0.162109375,-0.068359375,0.009765625,0.000306974869219,0.00899808313434,-0.183491091131,-0.982980142089
1421850807373473883,161222,1421850807373473883,fcu,0.162109375,-0.0703125,0.009765625,0.000306974869219,0.00899808313434,-0.183491091131,-0.982980142089
1421850807378473997,161223,1421850807378473997,fcu,0.16015625,-0.0703125,0.009765625,0.00126691611527,0.00917726933392,-0.183482216447,-0.982979373588
1421850807383476019,161224,1421850807383476019,fcu,0.16015625,-0.0703125,0.009765625,0.0012579533355,0.00917850218043,-0.184442069598,-0.982799723043
1421850807388475895,161225,1421850807388475895,fcu,0.16015625,-0.072265625,0.009765625,0.0012579533355,0.00917850218043,-0.184442069598,-0.982799723043
1421850807393476009,161226,1421850807393476009,fcu,0.16015625,-0.072265625,0.009765625,0.00126691611527,0.00917726933392,-0.183482216447,-0.982979373588
1421850807398478031,161227,1421850807398478031,fcu,0.158203125,-0.07421875,0.009765625,0.00126691611527,0.00917726933392,-0.183482216447,-0.982979373588
1421850807408478022,161229,1421850807408478022,fcu,0.15625,-0.076171875,0.009765625,0.0022268561531,0.00935644678138,-0.18347316678,-0.982977667644
1421850807413480043,161230,1421850807413480043,fcu,0.15625,-0.076171875,0.009765625,0.00126691611527,0.00917726933392,-0.183482216447,-0.982979373588
1421850807418479919,161231,1421850807418479919,fcu,0.15625,-0.078125,0.009765625,0.0024060939926,0.00839651564937,-0.183478404143,-0.982984936024
1421850807423480034,161232,1421850807423480034,fcu,0.15625,-0.078125,0.009765625,0.0024060939926,0.00839651564937,-0.183478404143,-0.982984936024
