%time,field.header.seq,field.header.stamp,field.header.frame_id,field.orientation.x,field.orientation.y,field.orientation.z,field.orientation.w,field.orientation_covariance0,field.orientation_covariance1,field.orientation_covariance2,field.orientation_covariance3,field.orientation_covariance4,field.orientation_covariance5,field.orientation_covariance6,field.orientation_covariance7,field.orientation_covariance8,field.angular_velocity.x,field.angular_velocity.y,field.angular_velocity.z,field.angular_velocity_covariance0,field.angular_velocity_covariance1,field.angular_velocity_covariance2,field.angular_velocity_covariance3,field.angular_velocity_covariance4,field.angular_velocity_covariance5,field.angular_velocity_covariance6,field.angular_velocity_covariance7,field.angular_velocity_covariance8,field.linear_acceleration.x,field.linear_acceleration.y,field.linear_acceleration.z,field.linear_acceleration_covariance0,field.linear_acceleration_covariance1,field.linear_acceleration_covariance2,field.linear_acceleration_covariance3,field.linear_acceleration_covariance4,field.linear_acceleration_covariance5,field.linear_acceleration_covariance6,field.linear_acceleration_covariance7,field.linear_acceleration_covariance8
1421850805013119936,433471,1421850805013119936,fcu,-0.00955790548761,-0.00975964974941,-0.756515068781,0.65383357698,0.0,0.0,0.0,0.0,0.0,0.0,0.0,0.0,0.0,0.0348193185773,-0.0798488132787,-0.049480084294,0.000169,0.0,0.0,0.0,0.000169,0.0,0.0,0.0,0.000169,0.2943,0.00981,10.25145,0.006889,0.0,0.0,0.0,0.006889,0.0,0.0,0.0,0.006889
1421850805015120029,433472,1421850805015120029,fcu,-0.00973804082426,-0.00968466864814,-0.756515804174,0.653831182943,0.0,0.0,0.0,0.0,0.0,0.0,0.0,0.0,0.0,-0.0466002910282,-0.0565486677646,-0.0178023583703,0.000169,0.0,0.0,0.0,0.000169,0.0,0.0,0.0,0.000169,0.2943,0.00981,10.25145,0.006889,0.0,0.0,0.0,0.006889,0.0,0.0,0.0,0.006889
1421850805017119884,433473,1421850805017119884,fcu,-0.00968098325278,-0.00975068706931,-0.756514956147,0.653832030258,0.0,0.0,0.0,0.0,0.0,0.0,0.0,0.0,0.0,0.0971275728735,-0.0693768377668,-0.0204203522483,0.000169,0.0,0.0,0.0,0.000169,0.0,0.0,0.0,0.000169,0.32373,-0.05886,10.38879,0.006889,0.0,0.0,0.0,0.006889,0.0,0.0,0.0,0.006889
1421850805019119978,433474,1421850805019119978,fcu,-0.00961496319453,-0.00969363131837,-0.756515917591,0.653832740406,0.0,0.0,0.0,0.0,0.0,0.0,0.0,0.0,0.0,-0.0285361332701,0.184044969623,0.0845612022591,0.000169,0.0,0.0,0.0,0.000169,0.0,0.0,0.0,0.000169,0.32373,-0.05886,10.38879,0.006889,0.0,0.0,0.0,0.006889,0.0,0.0,0.0,0.006889
1421850805021119833,433475,1421850805021119833,fcu,-0.00954810207685,-0.00963740875941,-0.756459812661,0.653899461636,0.0,0.0,0.0,0.0,0.0,0.0,0.0,0.0,0.0,-0.0102101761242,0.153938040026,0.103934356956,0.000169,0.0,0.0,0.0,0.000169,0.0,0.0,0.0,0.000169,0.35316,-0.01962,10.38879,0.006889,0.0,0.0,0.0,0.006889,0.0,0.0,0.0,0.006889
1421850805025121927,433477,1421850805025121927,fcu,-0.0097470032373,-0.00980774274598,-0.756513988942,0.653831315131,0.0,0.0,0.0,0.0,0.0,0.0,0.0,0.0,0.0,0.0670206432766,-0.140062672473,-0.0871791961371,0.000169,0.0,0.0,0.0,0.000169,0.0,0.0,0.0,0.000169,0.35316,-0.01962,10.38879,0.006889,0.0,0.0,0.0,0.006889,0.0,0.0,0.0,0.006889
1421850805027122021,433478,1421850805027122021,fcu,-0.0097470032373,-0.00980774274598,-0.756513988942,0.653831315131,0.0,0.0,0.0,0.0,0.0,0.0,0.0,0.0,0.0,0.0418879020479,-0.130637894512,-0.0230383461263,0.000169,0.0,0.0,0.0,0.000169,0.0,0.0,0.0,0.000169,0.31392,0.0,10.34955,0.006889,0.0,0.0,0.0,0.006889,0.0,0.0,0.0,0.006889
1421850805037123919,433483,1421850805037123919,fcu,-0.00986111818028,-0.00967570599783,-0.756515689194,0.653829603999,0.0,0.0,0.0,0.0,0.0,0.0,0.0,0.0,0.0,-0.247138622082,-0.119642320224,-0.0489564855184,0.000169,0.0,0.0,0.0,0.000169,0.0,0.0,0.0,0.000169,0.36297,0.03924,10.33974,0.006889,0.0,0.0,0.0,0.006889,0.0,0.0,0.0,0.006889
1421850805039124012,433484,1421850805039124012,fcu,-0.0100681396819,-0.00996994670624,-0.756510935433,0.653827528708,0.0,0.0,0.0,0.0,0.0,0.0,0.0,0.0,0.0,0.15943582717,-0.128543499409,-0.0513126800086,0.000169,0.0,0.0,0.0,0.000169,0.0,0.0,0.0,0.000169,0.36297,0.03924,10.33974,0.006889,0.0,0.0,0.0,0.006889,0.0,0.0,0.0,0.006889
1421850805041123867,433485,1421850805041123867,fcu,-0.0100681396819,-0.00996994670624,-0.756510935433,0.653827528708,0.0,0.0,0.0,0.0,0.0,0.0,0.0,0.0,0.0,0.0240855436775,0.0233001455141,-0.00340339204139,0.000169,0.0,0.0,0.0,0.000169,0.0,0.0,0.0,0.000169,0.38259,-0.02943,10.43784,0.006889,0.0,0.0,0.0,0.006889,0.0,0.0,0.0,0.006889
1421850805043123960,433486,1421850805043123960,fcu,-0.00993610036536,-0.00985583570773,-0.756512900213,0.65382900534,0.0,0.0,0.0,0.0,0.0,0.0,0.0,0.0,0.0,0.0209439510239,0.212581102893,0.074351026135,0.000169,0.0,0.0,0.0,0.000169,0.0,0.0,0.0,0.000169,0.38259,-0.02943,10.43784,0.006889,0.0,0.0,0.0,0.006889,0.0,0.0,0.0,0.006889
1421850805045124054,433487,1421850805045124054,fcu,-0.00991733689815,-0.00961055300048,-0.756459470476,0.653894756997,0.0,0.0,0.0,0.0,0.0,0.0,0.0,0.0,0.0,-0.11780972451,-0.0814196096055,-0.0609992573572,0.000169,0.0,0.0,0.0,0.000169,0.0,0.0,0.0,0.000169,0.38259,-0.02943,10.43784,0.006889,0.0,0.0,0.0,0.006889,0.0,0.0,0.0,0.006889
1421850805051126003,433490,1421850805051126003,fcu,-0.0104284064057,-0.00981998535292,-0.756512421519,0.653822431793,0.0,0.0,0.0,0.0,0.0,0.0,0.0,0.0,0.0,0.143727863902,-0.159959425945,0.0178023583703,0.000169,0.0,0.0,0.0,0.000169,0.0,0.0,0.0,0.000169,0.35316,-0.01962,10.46727,0.006889,0.0,0.0,0.0,0.006889,0.0,0.0,0.0,0.006889
1421850805053125858,433491,1421850805053125858,fcu,-0.0103053303277,-0.00982894791015,-0.756512543539,0.653824107401,0.0,0.0,0.0,0.0,0.0,0.0,0.0,0.0,0.0,0.114929931244,0.211272105954,0.014398966329,0.000169,0.0,0.0,0.0,0.000169,0.0,0.0,0.0,0.000169,0.35316,-0.01962,10.46727,0.006889,0.0,0.0,0.0,0.006889,0.0,0.0,0.0,0.006889
1421850805055125952,433492,1421850805055125952,fcu,-0.0101634920553,-0.00959264926232,-0.75645923454,0.653891513164,0.0,0.0,0.0,0.0,0.0,0.0,0.0,0.0,0.0,-0.0871791961371,0.0890117918517,0.0191113553093,0.000169,0.0,0.0,0.0,0.000169,0.0,0.0,0.0,0.000169,0.35316,-0.01962,10.46727,0.006889,0.0,0.0,0.0,0.006889,0.0,0.0,0.0,0.006889
1421850805057126045,433493,1421850805057126045,fcu,-0.0101634920553,-0.00959264926232,-0.75645923454,0.653891513164,0.0,0.0,0.0,0.0,0.0,0.0,0.0,0.0,0.0,-0.126972703083,-0.0285361332701,-0.0767072206252,0.000169,0.0,0.0,0.0,0.000169,0.0,0.0,0.0,0.000169,0.3924,0.00981,10.3986,0.006889,0.0,0.0,0.0,0.006889,0.0,0.0,0.0,0.006889
1421850805059125900,433494,1421850805059125900,fcu,-0.0105995763587,-0.00962193052984,-0.75651496646,0.653819679236,0.0,0.0,0.0,0.0,0.0,0.0,0.0,0.0,0.0,-0.143204265126,-0.269129770658,-0.00183259571459,0.000169,0.0,0.0,0.0,0.000169,0.0,0.0,0.0,0.000169,0.3924,0.00981,10.3986,0.006889,0.0,0.0,0.0,0.006889,0.0,0.0,0.0,0.006889
1421850805061127901,433495,1421850805061127901,fcu,-0.0107316141069,-0.00973604212454,-0.756513025297,0.653818082114,0.0,0.0,0.0,0.0,0.0,0.0,0.0,0.0,0.0,-0.129328897573,-0.206559716974,0.0552396708256,0.000169,0.0,0.0,0.0,0.000169,0.0,0.0,0.0,0.000169,0.30411,0.02943,10.32993,0.006889,0.0,0.0,0.0,0.006889,0.0,0.0,0.0,0.006889
1421850805063127995,433496,1421850805063127995,fcu,-0.0106737022431,-0.00980299179658,-0.756455113433,0.653885031786,0.0,0.0,0.0,0.0,0.0,0.0,0.0,0.0,0.0,0.169122404518,-0.00759218224618,0.00706858347058,0.000169,0.0,0.0,0.0,0.000169,0.0,0.0,0.0,0.000169,0.30411,0.02943,10.32993,0.006889,0.0,0.0,0.0,0.006889,0.0,0.0,0.0,0.006889
1421850805065127850,433497,1421850805065127850,fcu,-0.0104185977494,-0.00969782064504,-0.756457187852,0.653888314656,0.0,0.0,0.0,0.0,0.0,0.0,0.0,0.0,0.0,0.0123045712266,0.18195057452,0.049480084294,0.000169,0.0,0.0,0.0,0.000169,0.0,0.0,0.0,0.000169,0.37278,-0.05886,10.58499,0.006889,0.0,0.0,0.0,0.006889,0.0,0.0,0.0,0.006889
1421850805067127943,433498,1421850805067127943,fcu,-0.0104185977494,-0.00969782064504,-0.756457187852,0.653888314656,0.0,0.0,0.0,0.0,0.0,0.0,0.0,0.0,0.0,-0.0316777259237,0.0209439510239,-0.00733038285838,0.000169,0.0,0.0,0.0,0.000169,0.0,0.0,0.0,0.000169,0.37278,-0.05886,10.58499,0.006889,0.0,0.0,0.0,0.006889,0.0,0.0,0.0,0.006889
1421850805069128036,433499,1421850805069128036,fcu,-0.0107886704572,-0.00967002387193,-0.756513872046,0.653817143114,0.0,0.0,0.0,0.0,0.0,0.0,0.0,0.0,0.0,-0.125401906756,-0.235095850244,-0.0709476340936,0.000169,0.0,0.0,0.0,0.000169,0.0,0.0,0.0,0.000169,0.37278,0.01962,10.37898,0.006889,0.0,0.0,0.0,0.006889,0.0,0.0,0.0,0.006889
1421850805071127892,433500,1421850805071127892,fcu,-0.0109207077368,-0.00978413534103,-0.756511917797,0.653815514553,0.0,0.0,0.0,0.0,0.0,0.0,0.0,0.0,0.0,-0.100007366139,-0.178285383091,0.00209439510239,0.000169,0.0,0.0,0.0,0.000169,0.0,0.0,0.0,0.000169,0.37278,0.01962,10.37898,0.006889,0.0,0.0,0.0,0.006889,0.0,0.0,0.0,0.006889
1421850805073129892,433501,1421850805073129892,fcu,-0.0109769157548,-0.00971907513849,-0.756455709779,0.653880574755,0.0,0.0,0.0,0.0,0.0,0.0,0.0,0.0,0.0,-0.0685914396034,-0.0238237442897,0.066497044501,0.000169,0.0,0.0,0.0,0.000169,0.0,0.0,0.0,0.000169,0.2943,0.03924,10.37898,0.006889,0.0,0.0,0.0,0.006889,0.0,0.0,0.0,0.006889
1421850805075129986,433502,1421850805075129986,fcu,-0.0108448885764,-0.0096049519773,-0.756457653927,0.653882215009,0.0,0.0,0.0,0.0,0.0,0.0,0.0,0.0,0.0,0.0308923277603,0.159959425945,-0.0196349540849,0.000169,0.0,0.0,0.0,0.000169,0.0,0.0,0.0,0.000169,0.2943,0.03924,10.37898,0.006889,0.0,0.0,0.0,0.006889,0.0,0.0,0.0,0.006889
1421850805077129841,433503,1421850805077129841,fcu,-0.0108448885764,-0.0096049519773,-0.756457653927,0.653882215009,0.0,0.0,0.0,0.0,0.0,0.0,0.0,0.0,0.0,0.00287979326579,0.0706858347058,-0.001308996939,0.000169,0.0,0.0,0.0,0.000169,0.0,0.0,0.0,0.000169,0.3924,-0.04905,10.50651,0.006889,0.0,0.0,0.0,0.006889,0.0,0.0,0.0,0.006889
1421850805081130028,433505,1421850805081130028,fcu,-0.01115789416,-0.00964313653017,-0.756513482523,0.653811794079,0.0,0.0,0.0,0.0,0.0,0.0,0.0,0.0,0.0,-0.0905825881785,-0.263893782902,-0.0185877565337,0.000169,0.0,0.0,0.0,0.000169,0.0,0.0,0.0,0.000169,0.30411,0.07848,10.32012,0.006889,0.0,0.0,0.0,0.006889,0.0,0.0,0.0,0.006889
1421850805083129883,433506,1421850805083129883,fcu,-0.0113461403895,-0.00969222012046,-0.756455313691,0.653875129024,0.0,0.0,0.0,0.0,0.0,0.0,0.0,0.0,0.0,-0.188233759828,-0.0984365698125,0.0816814089933,0.000169,0.0,0.0,0.0,0.000169,0.0,0.0,0.0,0.000169,0.30411,0.07848,10.32012,0.006889,0.0,0.0,0.0,0.006889,0.0,0.0,0.0,0.006889
1421850805087131977,433508,1421850805087131977,fcu,-0.0111660042563,-0.00976718492403,-0.756454597815,0.653877942656,0.0,0.0,0.0,0.0,0.0,0.0,0.0,0.0,0.0,0.150272848597,0.129590696961,-0.0827286065445,0.000169,0.0,0.0,0.0,0.000169,0.0,0.0,0.0,0.000169,0.34335,0.0,10.40841,0.006889,0.0,0.0,0.0,0.006889,0.0,0.0,0.0,0.006889
1421850805089131832,433509,1421850805089131832,fcu,-0.0111660042563,-0.00976718492403,-0.756454597815,0.653877942656,0.0,0.0,0.0,0.0,0.0,0.0,0.0,0.0,0.0,-0.00287979326579,0.0301069295969,0.000261799387799,0.000169,0.0,0.0,0.0,0.000169,0.0,0.0,0.0,0.000169,0.37278,-0.03924,10.3986,0.006889,0.0,0.0,0.0,0.006889,0.0,0.0,0.0,0.006889
1421850805093132019,433511,1421850805093132019,fcu,-0.0113461403895,-0.00969222012046,-0.756455313691,0.653875129024,0.0,0.0,0.0,0.0,0.0,0.0,0.0,0.0,0.0,-0.225147473507,-0.0466002910282,0.0515744793964,0.000169,0.0,0.0,0.0,0.000169,0.0,0.0,0.0,0.000169,0.37278,-0.03924,10.3986,0.006889,0.0,0.0,0.0,0.006889,0.0,0.0,0.0,0.006889
1421850805095131874,433512,1421850805095131874,fcu,-0.0114594286272,-0.00956119367504,-0.756399929705,0.653939149626,0.0,0.0,0.0,0.0,0.0,0.0,0.0,0.0,0.0,-0.129852496348,-0.0285361332701,0.0759218224618,0.000169,0.0,0.0,0.0,0.000169,0.0,0.0,0.0,0.000169,0.27468,0.06867,10.29069,0.006889,0.0,0.0,0.0,0.006889,0.0,0.0,0.0,0.006889
1421850805097133875,433513,1421850805097133875,fcu,-0.0114032017157,-0.0096262069043,-0.756456156617,0.653874136396,0.0,0.0,0.0,0.0,0.0,0.0,0.0,0.0,0.0,0.168075206967,0.0369137136797,-0.0979129710369,0.000169,0.0,0.0,0.0,0.000169,0.0,0.0,0.0,0.000169,0.27468,0.06867,10.29069,0.006889,0.0,0.0,0.0,0.006889,0.0,0.0,0.0,0.006889
1421850805099133968,433514,1421850805099133968,fcu,-0.0112890789769,-0.00975823326282,-0.756454465005,0.653876116672,0.0,0.0,0.0,0.0,0.0,0.0,0.0,0.0,0.0,0.0392699081699,-0.0238237442897,-0.0102101761242,0.000169,0.0,0.0,0.0,0.000169,0.0,0.0,0.0,0.000169,0.34335,-0.08829,10.55556,0.006889,0.0,0.0,0.0,0.006889,0.0,0.0,0.0,0.006889
1421850805105134010,433517,1421850805105134010,fcu,-0.0116395700682,-0.00948624444234,-0.756400623864,0.653936256674,0.0,0.0,0.0,0.0,0.0,0.0,0.0,0.0,0.0,-0.122260314102,-0.0109955742876,0.00209439510239,0.000169,0.0,0.0,0.0,0.000169,0.0,0.0,0.0,0.000169,0.33354,0.02943,10.32993,0.006889,0.0,0.0,0.0,0.006889,0.0,0.0,0.0,0.006889
1421850805107133865,433518,1421850805107133865,fcu,-0.0116403978549,-0.00948522866211,-0.756457687688,0.653870245778,0.0,0.0,0.0,0.0,0.0,0.0,0.0,0.0,0.0,-0.106552350834,-0.0183259571459,-0.062570053684,0.000169,0.0,0.0,0.0,0.000169,0.0,0.0,0.0,0.000169,0.28449,0.08829,10.32993,0.006889,0.0,0.0,0.0,0.006889,0.0,0.0,0.0,0.006889
1421850805109135866,433519,1421850805109135866,fcu,-0.0115262757915,-0.00961725529,-0.756456020682,0.653872267451,0.0,0.0,0.0,0.0,0.0,0.0,0.0,0.0,0.0,0.207868713913,-0.06780604144,-0.011780972451,0.000169,0.0,0.0,0.0,0.000169,0.0,0.0,0.0,0.000169,0.28449,0.08829,10.32993,0.006889,0.0,0.0,0.0,0.006889,0.0,0.0,0.0,0.006889
1421850805111135960,433520,1421850805111135960,fcu,-0.0115922885401,-0.00967431689192,-0.756455041821,0.653871391133,0.0,0.0,0.0,0.0,0.0,0.0,0.0,0.0,0.0,0.0408407044967,-0.0617846555206,-0.0120427718388,0.000169,0.0,0.0,0.0,0.000169,0.0,0.0,0.0,0.000169,0.32373,-0.08829,10.48689,0.006889,0.0,0.0,0.0,0.006889,0.0,0.0,0.0,0.006889
1421850805115135908,433522,1421850805115135908,fcu,-0.0115735623648,-0.00942917683773,-0.756401586928,0.653937139618,0.0,0.0,0.0,0.0,0.0,0.0,0.0,0.0,0.0,-0.260228591472,-0.0185877565337,-0.0204203522483,0.000169,0.0,0.0,0.0,0.000169,0.0,0.0,0.0,0.000169,0.28449,0.07848,10.29069,0.006889,0.0,0.0,0.0,0.006889,0.0,0.0,0.0,0.006889
1421850805117136002,433523,1421850805117136002,fcu,-0.0116314461479,-0.0093621533116,-0.756459470711,0.653870116092,0.0,0.0,0.0,0.0,0.0,0.0,0.0,0.0,0.0,-0.174620191662,-0.13796827737,-0.0822050077689,0.000169,0.0,0.0,0.0,0.000169,0.0,0.0,0.0,0.000169,0.28449,0.07848,10.29069,0.006889,0.0,0.0,0.0,0.006889,0.0,0.0,0.0,0.006889
1421850805119135857,433524,1421850805119135857,fcu,-0.0116501879775,-0.00960728706544,-0.756512941259,0.653804361307,0.0,0.0,0.0,0.0,0.0,0.0,0.0,0.0,0.0,0.231168859427,-0.173311194723,-0.0722566310326,0.000169,0.0,0.0,0.0,0.000169,0.0,0.0,0.0,0.000169,0.28449,0.07848,10.29069,0.006889,0.0,0.0,0.0,0.006889,0.0,0.0,0.0,0.006889
1421850805121137857,433525,1421850805121137857,fcu,-0.0117251679297,-0.00978741669765,-0.756510124827,0.653803608086,0.0,0.0,0.0,0.0,0.0,0.0,0.0,0.0,0.0,0.200276531666,-0.205512519422,-0.0400553063333,0.000169,0.0,0.0,0.0,0.000169,0.0,0.0,0.0,0.000169,0.2943,-0.02943,10.45746,0.006889,0.0,0.0,0.0,0.006889,0.0,0.0,0.0,0.006889
1421850805123137951,433526,1421850805123137951,fcu,-0.0117251679297,-0.00978741669765,-0.756510124827,0.653803608086,0.0,0.0,0.0,0.0,0.0,0.0,0.0,0.0,0.0,0.0209439510239,0.11780972451,0.00340339204139,0.000169,0.0,0.0,0.0,0.000169,0.0,0.0,0.0,0.000169,0.2943,-0.02943,10.45746,0.006889,0.0,0.0,0.0,0.006889,0.0,0.0,0.0,0.006889
1421850805131137848,433530,1421850805131137848,fcu,-0.0120185687762,-0.00958144907411,-0.756455461318,0.653864576866,0.0,0.0,0.0,0.0,0.0,0.0,0.0,0.0,0.0,0.204727121259,-0.126710903695,-0.0473856891916,0.000169,0.0,0.0,0.0,0.000169,0.0,0.0,0.0,0.000169,0.33354,0.06867,10.36917,0.006889,0.0,0.0,0.0,0.006889,0.0,0.0,0.0,0.006889
1421850805133139849,433531,1421850805133139849,fcu,-0.0119704599315,-0.00977053679057,-0.756452785574,0.653865756786,0.0,0.0,0.0,0.0,0.0,0.0,0.0,0.0,0.0,0.0856083998103,-0.0390081087821,-0.00654498469498,0.000169,0.0,0.0,0.0,0.000169,0.0,0.0,0.0,0.000169,0.33354,0.06867,10.36917,0.006889,0.0,0.0,0.0,0.006889,0.0,0.0,0.0,0.006889
1421850805135139942,433532,1421850805135139942,fcu,-0.0117715852087,-0.0096003794344,-0.756398680456,0.653934475846,0.0,0.0,0.0,0.0,0.0,0.0,0.0,0.0,0.0,0.0604756585816,0.232216056978,0.0921533845053,0.000169,0.0,0.0,0.0,0.000169,0.0,0.0,0.0,0.000169,0.3924,-0.02943,10.38879,0.006889,0.0,0.0,0.0,0.006889,0.0,0.0,0.0,0.006889
1421850805137140036,433533,1421850805137140036,fcu,-0.0117618171692,-0.00947833006451,-0.756343415554,0.654000350661,0.0,0.0,0.0,0.0,0.0,0.0,0.0,0.0,0.0,-0.209177710852,0.142418866963,0.103672557568,0.000169,0.0,0.0,0.0,0.000169,0.0,0.0,0.0,0.000169,0.3924,-0.02943,10.38879,0.006889,0.0,0.0,0.0,0.006889,0.0,0.0,0.0,0.006889
1421850805139139891,433534,1421850805139139891,fcu,-0.0120079661114,-0.00946046996621,-0.756343133426,0.653996462358,0.0,0.0,0.0,0.0,0.0,0.0,0.0,0.0,0.0,-0.151320046148,-0.219911485751,-0.0615228561328,0.000169,0.0,0.0,0.0,0.000169,0.0,0.0,0.0,0.000169,0.32373,0.10791,10.28088,0.006889,0.0,0.0,0.0,0.006889,0.0,0.0,0.0,0.006889
1421850805151141882,433540,1421850805151141882,fcu,-0.0123128215846,-0.00937445771702,-0.756457797722,0.653859399438,0.0,0.0,0.0,0.0,0.0,0.0,0.0,0.0,0.0,-0.17959438003,-0.201847327993,-0.126449104307,0.000169,0.0,0.0,0.0,0.000169,0.0,0.0,0.0,0.000169,0.38259,0.05886,10.33974,0.006889,0.0,0.0,0.0,0.006889,0.0,0.0,0.0,0.006889
1421850805153141975,433541,1421850805153141975,fcu,-0.0126266183697,-0.00941141321301,-0.756570639055,0.653722312553,0.0,0.0,0.0,0.0,0.0,0.0,0.0,0.0,0.0,-0.0887499924639,-0.214937297383,-0.129328897573,0.000169,0.0,0.0,0.0,0.000169,0.0,0.0,0.0,0.000169,0.38259,0.05886,10.33974,0.006889,0.0,0.0,0.0,0.006889,0.0,0.0,0.0,0.006889
1421850805157143831,433543,1421850805157143831,fcu,-0.012510856272,-0.00954564325747,-0.756454876957,0.653856542598,0.0,0.0,0.0,0.0,0.0,0.0,0.0,0.0,0.0,0.101316363078,0.336150413934,0.132470490226,0.000169,0.0,0.0,0.0,0.000169,0.0,0.0,0.0,0.000169,0.33354,-0.11772,10.37898,0.006889,0.0,0.0,0.0,0.006889,0.0,0.0,0.0,0.006889
1421850805159143925,433544,1421850805159143925,fcu,-0.0122549376578,-0.00944154055836,-0.756399913795,0.653926482279,0.0,0.0,0.0,0.0,0.0,0.0,0.0,0.0,0.0,-0.0238237442897,0.264417381677,0.105766952671,0.000169,0.0,0.0,0.0,0.000169,0.0,0.0,0.0,0.000169,0.40221,-0.04905,10.40841,0.006889,0.0,0.0,0.0,0.006889,0.0,0.0,0.0,0.006889
1421850805167143822,433548,1421850805167143822,fcu,-0.0128238452793,-0.00958368317758,-0.75651064515,0.653785397346,0.0,0.0,0.0,0.0,0.0,0.0,0.0,0.0,0.0,0.234048652692,0.30211649352,0.0568104671524,0.000169,0.0,0.0,0.0,0.000169,0.0,0.0,0.0,0.000169,0.24525,0.0,10.24164,0.006889,0.0,0.0,0.0,0.006889,0.0,0.0,0.0,0.006889
1421850805169145823,433549,1421850805169145823,fcu,-0.0124261347886,-0.00924351520271,-0.756402359663,0.653923251534,0.0,0.0,0.0,0.0,0.0,0.0,0.0,0.0,0.0,-0.0856083998103,0.246091424531,0.114929931244,0.000169,0.0,0.0,0.0,0.000169,0.0,0.0,0.0,0.000169,0.37278,-0.12753,10.4967,0.006889,0.0,0.0,0.0,0.006889,0.0,0.0,0.0,0.006889
1421850805173146009,433551,1421850805173146009,fcu,-0.0127872020689,-0.00909250084003,-0.756460720822,0.653850894123,0.0,0.0,0.0,0.0,0.0,0.0,0.0,0.0,0.0,-0.265464579228,-0.317824456788,-0.148178453494,0.000169,0.0,0.0,0.0,0.000169,0.0,0.0,0.0,0.000169,0.25506,0.07848,10.21221,0.006889,0.0,0.0,0.0,0.006889,0.0,0.0,0.0,0.006889
1421850805175145864,433552,1421850805175145864,fcu,-0.0131188924101,-0.00937552200137,-0.756570021971,0.653713848794,0.0,0.0,0.0,0.0,0.0,0.0,0.0,0.0,0.0,-0.0497418836818,-0.338768407812,-0.130376095124,0.000169,0.0,0.0,0.0,0.000169,0.0,0.0,0.0,0.000169,0.25506,0.07848,10.21221,0.006889,0.0,0.0,0.0,0.006889,0.0,0.0,0.0,0.006889
1421850805179146051,433554,1421850805179146051,fcu,-0.0126257970209,-0.00941251505749,-0.75651358814,0.653788333307,0.0,0.0,0.0,0.0,0.0,0.0,0.0,0.0,0.0,0.158912228394,0.466526509058,0.0591666616426,0.000169,0.0,0.0,0.0,0.000169,0.0,0.0,0.0,0.000169,0.30411,-0.06867,10.45746,0.006889,0.0,0.0,0.0,0.006889,0.0,0.0,0.0,0.006889
1421850805181148052,433555,1421850805181148052,fcu,-0.012351187172,-0.00906337053899,-0.75640505176,0.65392407905,0.0,0.0,0.0,0.0,0.0,0.0,0.0,0.0,0.0,-0.216246294322,0.0897971900151,0.126710903695,0.000169,0.0,0.0,0.0,0.000169,0.0,0.0,0.0,0.000169,0.30411,-0.06867,10.45746,0.006889,0.0,0.0,0.0,0.006889,0.0,0.0,0.0,0.006889
1421850805183147907,433556,1421850805183147907,fcu,-0.0124653182656,-0.00893135281529,-0.756406622096,0.653921913402,0.0,0.0,0.0,0.0,0.0,0.0,0.0,0.0,0.0,-0.295309709437,-0.0939859802199,-0.0350811179651,0.000169,0.0,0.0,0.0,0.000169,0.0,0.0,0.0,0.000169,0.27468,0.12753,10.25145,0.006889,0.0,0.0,0.0,0.006889,0.0,0.0,0.0,0.006889
1421850805185148001,433557,1421850805185148001,fcu,-0.0129770805375,-0.00913947938061,-0.75651667277,0.653781759549,0.0,0.0,0.0,0.0,0.0,0.0,0.0,0.0,0.0,-0.0646644487864,-0.420449816805,-0.168598805743,0.000169,0.0,0.0,0.0,0.000169,0.0,0.0,0.0,0.000169,0.27468,0.12753,10.25145,0.006889,0.0,0.0,0.0,0.006889,0.0,0.0,0.0,0.006889
1421850805187147856,433558,1421850805187147856,fcu,-0.0131091117441,-0.00925359223615,-0.756514754806,0.653779739653,0.0,0.0,0.0,0.0,0.0,0.0,0.0,0.0,0.0,-0.0411025038845,-0.216246294322,-0.0123045712266,0.000169,0.0,0.0,0.0,0.000169,0.0,0.0,0.0,0.000169,0.27468,0.12753,10.25145,0.006889,0.0,0.0,0.0,0.006889,0.0,0.0,0.0,0.006889
1421850805189147949,433559,1421850805189147949,fcu,-0.0127488668656,-0.00940355295416,-0.7565134364,0.653786249574,0.0,0.0,0.0,0.0,0.0,0.0,0.0,0.0,0.0,0.15577063574,0.268344372494,-0.0188495559215,0.000169,0.0,0.0,0.0,0.000169,0.0,0.0,0.0,0.000169,0.22563,0.02943,10.32012,0.006889,0.0,0.0,0.0,0.006889,0.0,0.0,0.0,0.006889
1421850805191148043,433560,1421850805191148043,fcu,-0.0124848018971,-0.00917532774013,-0.756517282859,0.653790137443,0.0,0.0,0.0,0.0,0.0,0.0,0.0,0.0,0.0,-0.00602138591938,0.351858377202,-0.00811578102177,0.000169,0.0,0.0,0.0,0.000169,0.0,0.0,0.0,0.000169,0.22563,0.02943,10.32012,0.006889,0.0,0.0,0.0,0.006889,0.0,0.0,0.0,0.006889
1421850805193150043,433561,1421850805193150043,fcu,-0.0125418558021,-0.0091093091181,-0.756518080677,0.653789045449,0.0,0.0,0.0,0.0,0.0,0.0,0.0,0.0,0.0,-0.127758101246,0.0939859802199,0.0712094334814,0.000169,0.0,0.0,0.0,0.000169,0.0,0.0,0.0,0.000169,0.33354,0.05886,10.32993,0.006889,0.0,0.0,0.0,0.006889,0.0,0.0,0.0,0.006889
1421850805195149899,433562,1421850805195149899,fcu,-0.0129778780581,-0.0091383468819,-0.756573723111,0.653715738525,0.0,0.0,0.0,0.0,0.0,0.0,0.0,0.0,0.0,-0.265988178004,-0.423591409459,-0.132470490226,0.000169,0.0,0.0,0.0,0.000169,0.0,0.0,0.0,0.000169,0.33354,0.05886,10.32993,0.006889,0.0,0.0,0.0,0.006889,0.0,0.0,0.0,0.006889
1421850805197149992,433563,1421850805197149992,fcu,-0.0132998186162,-0.00929936546244,-0.756627722413,0.653644495351,0.0,0.0,0.0,0.0,0.0,0.0,0.0,0.0,0.0,-0.0866555973615,-0.435110582522,-0.126449104307,0.000169,0.0,0.0,0.0,0.000169,0.0,0.0,0.0,0.000169,0.20601,0.20601,10.05525,0.006889,0.0,0.0,0.0,0.006889,0.0,0.0,0.0,0.006889
1421850805199149847,433564,1421850805199149847,fcu,-0.0132517612277,-0.00948846634146,-0.75662510354,0.653645785211,0.0,0.0,0.0,0.0,0.0,0.0,0.0,0.0,0.0,0.372540528838,-0.0460766922527,-0.0191113553093,0.000169,0.0,0.0,0.0,0.000169,0.0,0.0,0.0,0.000169,0.20601,0.20601,10.05525,0.006889,0.0,0.0,0.0,0.006889,0.0,0.0,0.0,0.006889
1421850805201149940,433565,1421850805201149940,fcu,-0.013071652839,-0.00956347778989,-0.756624430226,0.653649098041,0.0,0.0,0.0,0.0,0.0,0.0,0.0,0.0,0.0,0.330914426178,0.125663706144,-0.0416261026601,0.000169,0.0,0.0,0.0,0.000169,0.0,0.0,0.0,0.000169,0.27468,0.02943,10.34955,0.006889,0.0,0.0,0.0,0.006889,0.0,0.0,0.0,0.006889
1421850805203150034,433566,1421850805203150034,fcu,-0.0128727561285,-0.00939346755334,-0.756570333645,0.653718123633,0.0,0.0,0.0,0.0,0.0,0.0,0.0,0.0,0.0,-0.0397935069455,0.318086256176,0.103410758181,0.000169,0.0,0.0,0.0,0.000169,0.0,0.0,0.0,0.000169,0.27468,0.02943,10.34955,0.006889,0.0,0.0,0.0,0.006889,0.0,0.0,0.0,0.006889
1421850805219153881,433574,1421850805219153881,fcu,-0.0131775642686,-0.00930719899916,-0.756684920125,0.653580644988,0.0,0.0,0.0,0.0,0.0,0.0,0.0,0.0,0.0,-0.121213116551,-0.125925505531,-0.0230383461263,0.000169,0.0,0.0,0.0,0.000169,0.0,0.0,0.0,0.000169,0.38259,0.02943,10.35936,0.006889,0.0,0.0,0.0,0.006889,0.0,0.0,0.0,0.006889
1421850805221153975,433575,1421850805221153975,fcu,-0.0131295231925,-0.00949630408513,-0.756682300579,0.653581924337,0.0,0.0,0.0,0.0,0.0,0.0,0.0,0.0,0.0,0.11414453308,-0.0963421747101,-0.0212057504117,0.000169,0.0,0.0,0.0,0.000169,0.0,0.0,0.0,0.000169,0.25506,0.11772,10.06506,0.006889,0.0,0.0,0.0,0.006889,0.0,0.0,0.0,0.006889
1421850805225153923,433577,1421850805225153923,fcu,-0.0130064568062,-0.00950529832679,-0.756682457574,0.653584072468,0.0,0.0,0.0,0.0,0.0,0.0,0.0,0.0,0.0,-0.0808960108299,0.0526216769476,0.0767072206252,0.000169,0.0,0.0,0.0,0.000169,0.0,0.0,0.0,0.000169,0.38259,-0.05886,10.42803,0.006889,0.0,0.0,0.0,0.006889,0.0,0.0,0.0,0.006889
1421850805227154016,433578,1421850805227154016,fcu,-0.0130634927266,-0.00943926528929,-0.756683284187,0.653582934952,0.0,0.0,0.0,0.0,0.0,0.0,0.0,0.0,0.0,-0.231692458202,0.120427718388,0.0536688744988,0.000169,0.0,0.0,0.0,0.000169,0.0,0.0,0.0,0.000169,0.38259,-0.05886,10.42803,0.006889,0.0,0.0,0.0,0.006889,0.0,0.0,0.0,0.006889
1421850805231155872,433580,1421850805231155872,fcu,-0.013233793395,-0.00924232064905,-0.756628690998,0.653645523338,0.0,0.0,0.0,0.0,0.0,0.0,0.0,0.0,0.0,-0.157341432067,-0.0460766922527,-0.0193731546971,0.000169,0.0,0.0,0.0,0.000169,0.0,0.0,0.0,0.000169,0.31392,0.08829,10.13373,0.006889,0.0,0.0,0.0,0.006889,0.0,0.0,0.0,0.006889
1421850805233155966,433581,1421850805233155966,fcu,-0.0131775642686,-0.00930719899916,-0.756684920125,0.653580644988,0.0,0.0,0.0,0.0,0.0,0.0,0.0,0.0,0.0,0.156556033904,-0.0874409955249,-0.0795870138909,0.000169,0.0,0.0,0.0,0.000169,0.0,0.0,0.0,0.000169,0.31392,0.08829,10.13373,0.006889,0.0,0.0,0.0,0.006889,0.0,0.0,0.0,0.006889
1421850805235155821,433582,1421850805235155821,fcu,-0.0131303518514,-0.00949515828193,-0.756739333481,0.65351588886,0.0,0.0,0.0,0.0,0.0,0.0,0.0,0.0,0.0,0.0416261026601,-0.0332485222505,-0.0149225651046,0.000169,0.0,0.0,0.0,0.000169,0.0,0.0,0.0,0.000169,0.31392,-0.0981,10.38879,0.006889,0.0,0.0,0.0,0.006889,0.0,0.0,0.0,0.006889
1421850805237155914,433583,1421850805237155914,fcu,-0.0131295231925,-0.00949630408513,-0.756682300579,0.653581924337,0.0,0.0,0.0,0.0,0.0,0.0,0.0,0.0,0.0,-0.0777544181763,-0.0180641577581,0.0492182849062,0.000169,0.0,0.0,0.0,0.000169,0.0,0.0,0.0,0.000169,0.31392,-0.0981,10.38879,0.006889,0.0,0.0,0.0,0.006889,0.0,0.0,0.0,0.006889
1421850805243157864,433586,1421850805243157864,fcu,-0.0132916354091,-0.00917513242551,-0.756686533012,0.653578335114,0.0,0.0,0.0,0.0,0.0,0.0,0.0,0.0,0.0,-0.0261799387799,0.0,-0.112050137978,0.000169,0.0,0.0,0.0,0.000169,0.0,0.0,0.0,0.000169,0.24525,0.05886,10.2024,0.006889,0.0,0.0,0.0,0.006889,0.0,0.0,0.0,0.006889
1421850805245157957,433587,1421850805245157957,fcu,-0.0131783764247,-0.0093060490043,-0.756741952914,0.653514609283,0.0,0.0,0.0,0.0,0.0,0.0,0.0,0.0,0.0,0.165719012477,-0.0301069295969,-0.0329867228627,0.000169,0.0,0.0,0.0,0.000169,0.0,0.0,0.0,0.000169,0.24525,0.05886,10.2024,0.006889,0.0,0.0,0.0,0.006889,0.0,0.0,0.0,0.006889
1421850805253160000,433591,1421850805253160000,fcu,-0.0132916354091,-0.00917513242551,-0.756686533012,0.653578335114,0.0,0.0,0.0,0.0,0.0,0.0,0.0,0.0,0.0,-0.0112573736754,-0.00287979326579,-0.106028752059,0.000169,0.0,0.0,0.0,0.000169,0.0,0.0,0.0,0.000169,0.27468,0.0981,10.21221,0.006889,0.0,0.0,0.0,0.006889,0.0,0.0,0.0,0.006889
1421850805255159855,433592,1421850805255159855,fcu,-0.0132264008521,-0.00911693903343,-0.756744523625,0.653513327873,0.0,0.0,0.0,0.0,0.0,0.0,0.0,0.0,0.0,0.0544542726622,-0.0243473430653,-0.069115038379,0.000169,0.0,0.0,0.0,0.000169,0.0,0.0,0.0,0.000169,0.27468,0.0981,10.21221,0.006889,0.0,0.0,0.0,0.006889,0.0,0.0,0.0,0.006889
1421850805267161846,433598,1421850805267161846,fcu,-0.0133600820373,-0.00922867421622,-0.756856649519,0.653379179236,0.0,0.0,0.0,0.0,0.0,0.0,0.0,0.0,0.0,0.0617846555206,-0.114929931244,-0.0908443875663,0.000169,0.0,0.0,0.0,0.000169,0.0,0.0,0.0,0.000169,0.28449,0.06867,10.3005,0.006889,0.0,0.0,0.0,0.006889,0.0,0.0,0.0,0.006889
1421850805269161940,433599,1421850805269161940,fcu,-0.0133789625725,-0.00947364612302,-0.756910077384,0.653313391983,0.0,0.0,0.0,0.0,0.0,0.0,0.0,0.0,0.0,0.00209439510239,-0.0623082542962,0.0167551608191,0.000169,0.0,0.0,0.0,0.000169,0.0,0.0,0.0,0.000169,0.28449,0.06867,10.3005,0.006889,0.0,0.0,0.0,0.006889,0.0,0.0,0.0,0.006889
1421850805283164024,433606,1421850805283164024,fcu,-0.013729269527,-0.00920159517292,-0.756856157942,0.653372477221,0.0,0.0,0.0,0.0,0.0,0.0,0.0,0.0,0.0,-0.145560459616,0.266773576167,0.143727863902,0.000169,0.0,0.0,0.0,0.000169,0.0,0.0,0.0,0.000169,0.33354,-0.02943,10.46727,0.006889,0.0,0.0,0.0,0.006889,0.0,0.0,0.0,0.006889
1421850805285163879,433607,1421850805285163879,fcu,-0.0137104341206,-0.00895665102541,-0.756802639025,0.653438266375,0.0,0.0,0.0,0.0,0.0,0.0,0.0,0.0,0.0,-0.127758101246,-0.0306305283725,-0.0379609112309,0.000169,0.0,0.0,0.0,0.000169,0.0,0.0,0.0,0.000169,0.33354,-0.02943,10.46727,0.006889,0.0,0.0,0.0,0.006889,0.0,0.0,0.0,0.006889
1421850805293165922,433611,1421850805293165922,fcu,-0.0138531333877,-0.00919136000386,-0.756913005356,0.653304149626,0.0,0.0,0.0,0.0,0.0,0.0,0.0,0.0,0.0,0.0314159265359,0.061261056745,0.0272271363311,0.000169,0.0,0.0,0.0,0.000169,0.0,0.0,0.0,0.000169,0.28449,-0.07848,10.29069,0.006889,0.0,0.0,0.0,0.006889,0.0,0.0,0.0,0.006889
1421850805295166016,433612,1421850805295166016,fcu,-0.0137690088083,-0.0088882044922,-0.756917452514,0.65330497036,0.0,0.0,0.0,0.0,0.0,0.0,0.0,0.0,0.0,-0.148963851658,0.176976386152,-0.0308923277603,0.000169,0.0,0.0,0.0,0.000169,0.0,0.0,0.0,0.000169,0.35316,0.0,10.48689,0.006889,0.0,0.0,0.0,0.006889,0.0,0.0,0.0,0.006889
1421850805307168007,433618,1421850805307168007,fcu,-0.0138928443322,-0.00887795513201,-0.756974293049,0.653236626692,0.0,0.0,0.0,0.0,0.0,0.0,0.0,0.0,0.0,-0.14032447186,0.0452912940893,0.0267035375555,0.000169,0.0,0.0,0.0,0.000169,0.0,0.0,0.0,0.000169,0.36297,-0.03924,10.58499,0.006889,0.0,0.0,0.0,0.006889,0.0,0.0,0.0,0.006889
1421850805309167862,433619,1421850805309167862,fcu,-0.0142627940372,-0.00884956741924,-0.757030781141,0.653163573899,0.0,0.0,0.0,0.0,0.0,0.0,0.0,0.0,0.0,-0.206297917586,-0.332747021893,-0.137706477982,0.000169,0.0,0.0,0.0,0.000169,0.0,0.0,0.0,0.000169,0.33354,0.07848,10.3986,0.006889,0.0,0.0,0.0,0.006889,0.0,0.0,0.0,0.006889
1421850805313169956,433621,1421850805313169956,fcu,-0.0144047627634,-0.00908538824069,-0.757084122727,0.653095390923,0.0,0.0,0.0,0.0,0.0,0.0,0.0,0.0,0.0,0.174358392274,-0.0934623814443,0.0429350995991,0.000169,0.0,0.0,0.0,0.000169,0.0,0.0,0.0,0.000169,0.27468,-0.00981,10.35936,0.006889,0.0,0.0,0.0,0.006889,0.0,0.0,0.0,0.006889
1421850805315170050,433622,1421850805315170050,fcu,-0.0141487952714,-0.00898169408049,-0.75702922507,0.653166053278,0.0,0.0,0.0,0.0,0.0,0.0,0.0,0.0,0.0,0.0434586983747,0.225671072283,0.0484328867428,0.000169,0.0,0.0,0.0,0.000169,0.0,0.0,0.0,0.000169,0.27468,-0.00981,10.35936,0.006889,0.0,0.0,0.0,0.006889,0.0,0.0,0.0,0.006889
1421850805325171947,433627,1421850805325171947,fcu,-0.0143485679447,-0.00915020414537,-0.757140317546,0.653030575018,0.0,0.0,0.0,0.0,0.0,0.0,0.0,0.0,0.0,0.178285383091,0.161530222272,0.0575958653158,0.000169,0.0,0.0,0.0,0.000169,0.0,0.0,0.0,0.000169,0.30411,0.06867,10.32993,0.006889,0.0,0.0,0.0,0.006889,0.0,0.0,0.0,0.006889
1421850805327172041,433628,1421850805327172041,fcu,-0.0143485679447,-0.00915020414537,-0.757140317546,0.653030575018,0.0,0.0,0.0,0.0,0.0,0.0,0.0,0.0,0.0,0.157603231455,0.161530222272,0.0350811179651,0.000169,0.0,0.0,0.0,0.000169,0.0,0.0,0.0,0.000169,0.30411,0.06867,10.32993,0.006889,0.0,0.0,0.0,0.006889,0.0,0.0,0.0,0.006889
1421850805329171896,433629,1421850805329171896,fcu,-0.0143220922826,-0.00877975477321,-0.757202522081,0.65296411397,0.0,0.0,0.0,0.0,0.0,0.0,0.0,0.0,0.0,-0.20341812432,0.0159697626557,-0.0701622359302,0.000169,0.0,0.0,0.0,0.000169,0.0,0.0,0.0,0.000169,0.42183,-0.01962,10.61442,0.006889,0.0,0.0,0.0,0.006889,0.0,0.0,0.0,0.006889
1421850805331171989,433630,1421850805331171989,fcu,-0.0144451472163,-0.00877066419963,-0.757202345946,0.65296172971,0.0,0.0,0.0,0.0,0.0,0.0,0.0,0.0,0.0,-0.216246294322,-0.0853466004225,-0.117024326346,0.000169,0.0,0.0,0.0,0.000169,0.0,0.0,0.0,0.000169,0.42183,-0.01962,10.61442,0.006889,0.0,0.0,0.0,0.006889,0.0,0.0,0.0,0.006889
1421850805333171844,433631,1421850805333171844,fcu,-0.0145879564157,-0.00900515947871,-0.757312661282,0.652827413405,0.0,0.0,0.0,0.0,0.0,0.0,0.0,0.0,0.0,0.0570722665402,-0.292953514947,-0.154723438189,0.000169,0.0,0.0,0.0,0.000169,0.0,0.0,0.0,0.000169,0.42183,-0.01962,10.61442,0.006889,0.0,0.0,0.0,0.006889,0.0,0.0,0.0,0.006889
1421850805335171938,433632,1421850805335171938,fcu,-0.0147110089211,-0.00899604749031,-0.75731248155,0.652824986221,0.0,0.0,0.0,0.0,0.0,0.0,0.0,0.0,0.0,-0.0795870138909,-0.0984365698125,0.0429350995991,0.000169,0.0,0.0,0.0,0.000169,0.0,0.0,0.0,0.000169,0.33354,0.0,10.44765,0.006889,0.0,0.0,0.0,0.006889,0.0,0.0,0.0,0.006889
1421850805337173939,433633,1421850805337173939,fcu,-0.0145871705117,-0.00900643248377,-0.757255688459,0.652893498916,0.0,0.0,0.0,0.0,0.0,0.0,0.0,0.0,0.0,0.114406332468,0.149749249821,0.0620464549084,0.000169,0.0,0.0,0.0,0.000169,0.0,0.0,0.0,0.000169,0.33354,0.0,10.44765,0.006889,0.0,0.0,0.0,0.006889,0.0,0.0,0.0,0.006889
1421850805339174032,433634,1421850805339174032,fcu,-0.0145780684011,-0.00888336754685,-0.757257428365,0.652893370229,0.0,0.0,0.0,0.0,0.0,0.0,0.0,0.0,0.0,-0.0719948316448,0.111002940427,-0.00602138591938,0.000169,0.0,0.0,0.0,0.000169,0.0,0.0,0.0,0.000169,0.33354,0.0,10.44765,0.006889,0.0,0.0,0.0,0.006889,0.0,0.0,0.0,0.006889
1421850805341173887,433635,1421850805341173887,fcu,-0.0146350440404,-0.00881728433606,-0.757258200701,0.652892095567,0.0,0.0,0.0,0.0,0.0,0.0,0.0,0.0,0.0,-0.113882733693,-0.0748746249106,-0.0788016157275,0.000169,0.0,0.0,0.0,0.000169,0.0,0.0,0.0,0.000169,0.38259,0.0,10.52613,0.006889,0.0,0.0,0.0,0.006889,0.0,0.0,0.0,0.006889
1421850805343173981,433636,1421850805343173981,fcu,-0.014758865731,-0.00880689518128,-0.757314992874,0.652823571915,0.0,0.0,0.0,0.0,0.0,0.0,0.0,0.0,0.0,-0.172002197784,-0.0725184304204,-0.11780972451,0.000169,0.0,0.0,0.0,0.000169,0.0,0.0,0.0,0.000169,0.38259,0.0,10.52613,0.006889,0.0,0.0,0.0,0.006889,0.0,0.0,0.0,0.006889
1421850805345173836,433637,1421850805345173836,fcu,-0.0148819175968,-0.00879778324024,-0.757314810757,0.652821112516,0.0,0.0,0.0,0.0,0.0,0.0,0.0,0.0,0.0,-0.164410015538,0.00418879020479,0.106552350834,0.000169,0.0,0.0,0.0,0.000169,0.0,0.0,0.0,0.000169,0.38259,0.0,10.52613,0.006889,0.0,0.0,0.0,0.006889,0.0,0.0,0.0,0.006889
1421850805347173929,433638,1421850805347173929,fcu,-0.0148811497887,-0.00879908189905,-0.757257838484,0.652887198215,0.0,0.0,0.0,0.0,0.0,0.0,0.0,0.0,0.0,-0.0180641577581,0.0136135681656,0.0617846555206,0.000169,0.0,0.0,0.0,0.000169,0.0,0.0,0.0,0.000169,0.30411,0.0,10.3986,0.006889,0.0,0.0,0.0,0.006889,0.0,0.0,0.0,0.006889
1421850805349175930,433639,1421850805349175930,fcu,-0.014758865731,-0.00880689518128,-0.757314992874,0.652823571915,0.0,0.0,0.0,0.0,0.0,0.0,0.0,0.0,0.0,0.0712094334814,0.0950331777711,-0.0240855436775,0.000169,0.0,0.0,0.0,0.000169,0.0,0.0,0.0,0.000169,0.30411,0.0,10.3986,0.006889,0.0,0.0,0.0,0.006889,0.0,0.0,0.0,0.006889
1421850805351176023,433640,1421850805351176023,fcu,-0.0148819175968,-0.00879778324024,-0.757314810757,0.652821112516,0.0,0.0,0.0,0.0,0.0,0.0,0.0,0.0,0.0,-0.0861319985859,-0.10471975512,-0.0301069295969,0.000169,0.0,0.0,0.0,0.000169,0.0,0.0,0.0,0.000169,0.30411,0.0,10.3986,0.006889,0.0,0.0,0.0,0.006889,0.0,0.0,0.0,0.006889
1421850805357175827,433643,1421850805357175827,fcu,-0.0151280200313,-0.00877955945422,-0.757314441751,0.65281612929,0.0,0.0,0.0,0.0,0.0,0.0,0.0,0.0,0.0,-0.121998514714,-0.00811578102177,0.0620464549084,0.000169,0.0,0.0,0.0,0.000169,0.0,0.0,0.0,0.000169,0.32373,0.02943,10.36917,0.006889,0.0,0.0,0.0,0.006889,0.0,0.0,0.0,0.006889
1421850805359175920,433644,1421850805359175920,fcu,-0.0151287861348,-0.008778239252,-0.757371407822,0.652750038652,0.0,0.0,0.0,0.0,0.0,0.0,0.0,0.0,0.0,0.0167551608191,-0.010471975512,-0.0358665161285,0.000169,0.0,0.0,0.0,0.000169,0.0,0.0,0.0,0.000169,0.32373,0.02943,10.36917,0.006889,0.0,0.0,0.0,0.006889,0.0,0.0,0.0,0.006889
1421850805367177963,433648,1421850805367177963,fcu,-0.0154417408877,-0.00881561713121,-0.757427034932,0.652677657261,0.0,0.0,0.0,0.0,0.0,0.0,0.0,0.0,0.0,-0.0816814089933,-0.0251327412287,-0.0434586983747,0.000169,0.0,0.0,0.0,0.000169,0.0,0.0,0.0,0.000169,0.2943,0.02943,10.38879,0.006889,0.0,0.0,0.0,0.006889,0.0,0.0,0.0,0.006889
1421850805369177818,433649,1421850805369177818,fcu,-0.0154425101366,-0.00881426955154,-0.757483988918,0.652611556798,0.0,0.0,0.0,0.0,0.0,0.0,0.0,0.0,0.0,0.0180641577581,-0.00811578102177,-0.0827286065445,0.000169,0.0,0.0,0.0,0.000169,0.0,0.0,0.0,0.000169,0.2943,0.02943,10.38879,0.006889,0.0,0.0,0.0,0.006889,0.0,0.0,0.0,0.006889
1421850805371177912,433650,1421850805371177912,fcu,-0.0155086062589,-0.00887122847343,-0.757483026103,0.652610335195,0.0,0.0,0.0,0.0,0.0,0.0,0.0,0.0,0.0,0.0348193185773,-0.0788016157275,-0.06780604144,0.000169,0.0,0.0,0.0,0.000169,0.0,0.0,0.0,0.000169,0.35316,-0.02943,10.55556,0.006889,0.0,0.0,0.0,0.006889,0.0,0.0,0.0,0.006889
1421850805373179913,433651,1421850805373179913,fcu,-0.0156407981487,-0.00898514611409,-0.757481083166,0.652607877081,0.0,0.0,0.0,0.0,0.0,0.0,0.0,0.0,0.0,-0.0827286065445,-0.208392312688,-0.0345575191895,0.000169,0.0,0.0,0.0,0.000169,0.0,0.0,0.0,0.000169,0.35316,-0.02943,10.55556,0.006889,0.0,0.0,0.0,0.006889,0.0,0.0,0.0,0.006889
1421850805375180006,433652,1421850805375180006,fcu,-0.0157076829278,-0.00904073411251,-0.757537050834,0.652540535475,0.0,0.0,0.0,0.0,0.0,0.0,0.0,0.0,0.0,-0.0269653369433,-0.0209439510239,-0.0539306738866,0.000169,0.0,0.0,0.0,0.000169,0.0,0.0,0.0,0.000169,0.35316,-0.02943,10.55556,0.006889,0.0,0.0,0.0,0.006889,0.0,0.0,0.0,0.006889
1421850805377179861,433653,1421850805377179861,fcu,-0.0156985271435,-0.00891767346438,-0.757538812161,0.652540404431,0.0,0.0,0.0,0.0,0.0,0.0,0.0,0.0,0.0,-0.139015474921,0.0348193185773,0.0133517687778,0.000169,0.0,0.0,0.0,0.000169,0.0,0.0,0.0,0.000169,0.33354,0.04905,10.42803,0.006889,0.0,0.0,0.0,0.006889,0.0,0.0,0.0,0.006889
1421850805379179955,433654,1421850805379179955,fcu,-0.0158215724965,-0.00890851881805,-0.757538617201,0.652537784028,0.0,0.0,0.0,0.0,0.0,0.0,0.0,0.0,0.0,-0.0371755130675,-0.0808960108299,-0.0811578102177,0.000169,0.0,0.0,0.0,0.000169,0.0,0.0,0.0,0.000169,0.33354,0.04905,10.42803,0.006889,0.0,0.0,0.0,0.006889,0.0,0.0,0.0,0.006889
1421850805387181997,433658,1421850805387181997,fcu,-0.0161437089942,-0.00906881443893,-0.757592413984,0.652465226306,0.0,0.0,0.0,0.0,0.0,0.0,0.0,0.0,0.0,-0.0657116463376,0.0709476340936,0.0185877565337,0.000169,0.0,0.0,0.0,0.000169,0.0,0.0,0.0,0.000169,0.3924,0.00981,10.58499,0.006889,0.0,0.0,0.0,0.006889,0.0,0.0,0.0,0.006889
1421850805389181852,433659,1421850805389181852,fcu,-0.0161345424823,-0.00894575474443,-0.757594186039,0.652465094308,0.0,0.0,0.0,0.0,0.0,0.0,0.0,0.0,0.0,-0.0719948316448,0.0447676953137,-0.0175405589825,0.000169,0.0,0.0,0.0,0.000169,0.0,0.0,0.0,0.000169,0.3924,0.00981,10.58499,0.006889,0.0,0.0,0.0,0.006889,0.0,0.0,0.0,0.006889
1421850805391181946,433660,1421850805391181946,fcu,-0.0162767196933,-0.0091812881824,-0.757647354888,0.652396549634,0.0,0.0,0.0,0.0,0.0,0.0,0.0,0.0,0.0,0.0798488132787,-0.173834793499,-0.102625360017,0.000169,0.0,0.0,0.0,0.000169,0.0,0.0,0.0,0.000169,0.38259,0.00981,10.46727,0.006889,0.0,0.0,0.0,0.006889,0.0,0.0,0.0,0.006889
1421850805393182039,433661,1421850805393182039,fcu,-0.016465870606,-0.0092290534213,-0.757646145537,0.652392533549,0.0,0.0,0.0,0.0,0.0,0.0,0.0,0.0,0.0,-0.05471607205,-0.131161493287,-0.0298451302091,0.000169,0.0,0.0,0.0,0.000169,0.0,0.0,0.0,0.000169,0.38259,0.00981,10.46727,0.006889,0.0,0.0,0.0,0.006889,0.0,0.0,0.0,0.006889
1421850805396181822,433662,1421850805396181822,fcu,-0.0166641976177,-0.0093998766106,-0.757643090737,0.652388606504,0.0,0.0,0.0,0.0,0.0,0.0,0.0,0.0,0.0,-0.156556033904,-0.165457213089,-0.0274889357189,0.000169,0.0,0.0,0.0,0.000169,0.0,0.0,0.0,0.000169,0.38259,-0.03924,10.55556,0.006889,0.0,0.0,0.0,0.006889,0.0,0.0,0.0,0.006889
1421850805397183895,433663,1421850805397183895,fcu,-0.0167211292001,-0.00933375974245,-0.757643908146,0.652387149794,0.0,0.0,0.0,0.0,0.0,0.0,0.0,0.0,0.0,-0.124616508592,-0.01308996939,0.0523598775598,0.000169,0.0,0.0,0.0,0.000169,0.0,0.0,0.0,0.000169,0.38259,-0.03924,10.55556,0.006889,0.0,0.0,0.0,0.006889,0.0,0.0,0.0,0.006889
1421850805399183989,433664,1421850805399183989,fcu,-0.0167780606551,-0.00926764280322,-0.757644719786,0.652385688116,0.0,0.0,0.0,0.0,0.0,0.0,0.0,0.0,0.0,-0.0837758040957,-0.0950331777711,0.0811578102177,0.000169,0.0,0.0,0.0,0.000169,0.0,0.0,0.0,0.000169,0.38259,-0.03924,10.55556,0.006889,0.0,0.0,0.0,0.006889,0.0,0.0,0.0,0.006889
1421850805409185886,433669,1421850805409185886,fcu,-0.0172710221014,-0.00922943259162,-0.757700801575,0.652308228265,0.0,0.0,0.0,0.0,0.0,0.0,0.0,0.0,0.0,-0.151843644924,0.147654854719,0.0408407044967,0.000169,0.0,0.0,0.0,0.000169,0.0,0.0,0.0,0.000169,0.38259,-0.03924,10.42803,0.006889,0.0,0.0,0.0,0.006889,0.0,0.0,0.0,0.006889
1421850805411185980,433670,1421850805411185980,fcu,-0.0172710221014,-0.00922943259162,-0.757700801575,0.652308228265,0.0,0.0,0.0,0.0,0.0,0.0,0.0,0.0,0.0,0.0267035375555,0.0515744793964,-0.0225147473507,0.000169,0.0,0.0,0.0,0.000169,0.0,0.0,0.0,0.000169,0.42183,-0.00981,10.50651,0.006889,0.0,0.0,0.0,0.006889,0.0,0.0,0.0,0.006889
1421850805413185835,433671,1421850805413185835,fcu,-0.0172810261134,-0.00935098172127,-0.757755886868,0.652242241191,0.0,0.0,0.0,0.0,0.0,0.0,0.0,0.0,0.0,-0.0248709418409,-0.0714712328692,-0.111002940427,0.000169,0.0,0.0,0.0,0.000169,0.0,0.0,0.0,0.000169,0.42183,-0.00981,10.50651,0.006889,0.0,0.0,0.0,0.006889,0.0,0.0,0.0,0.006889
1421850805417186022,433673,1421850805417186022,fcu,-0.0176702001798,-0.00956641822725,-0.757865321626,0.652101527329,0.0,0.0,0.0,0.0,0.0,0.0,0.0,0.0,0.0,-0.0722566310326,-0.236928445958,-0.138230076758,0.000169,0.0,0.0,0.0,0.000169,0.0,0.0,0.0,0.000169,0.38259,-0.00981,10.43784,0.006889,0.0,0.0,0.0,0.006889,0.0,0.0,0.0,0.006889
1421850805419185877,433674,1421850805419185877,fcu,-0.0177178866072,-0.0093772277117,-0.757868022212,0.652099842818,0.0,0.0,0.0,0.0,0.0,0.0,0.0,0.0,0.0,-0.0356047167407,0.0939859802199,0.0913679863419,0.000169,0.0,0.0,0.0,0.000169,0.0,0.0,0.0,0.000169,0.37278,-0.05886,10.4967,0.006889,0.0,0.0,0.0,0.006889,0.0,0.0,0.0,0.006889
1421850805421187878,433675,1421850805421187878,fcu,-0.0176509465647,-0.00932185009243,-0.757812149459,0.652167381374,0.0,0.0,0.0,0.0,0.0,0.0,0.0,0.0,0.0,-0.106028752059,0.112311937366,0.0615228561328,0.000169,0.0,0.0,0.0,0.000169,0.0,0.0,0.0,0.000169,0.37278,-0.05886,10.4967,0.006889,0.0,0.0,0.0,0.006889,0.0,0.0,0.0,0.006889
1421850805435189962,433682,1421850805435189962,fcu,-0.0182785994761,-0.0093924869905,-0.758036768414,0.651887974826,0.0,0.0,0.0,0.0,0.0,0.0,0.0,0.0,0.0,-0.254207205553,-0.15943582717,-0.0976511716491,0.000169,0.0,0.0,0.0,0.000169,0.0,0.0,0.0,0.000169,0.38259,0.04905,10.41822,0.006889,0.0,0.0,0.0,0.006889,0.0,0.0,0.0,0.006889
1421850805437189817,433683,1421850805437189817,fcu,-0.0184677673728,-0.0094401371041,-0.758035485645,0.651883446547,0.0,0.0,0.0,0.0,0.0,0.0,0.0,0.0,0.0,-0.191375352481,-0.21650809371,-0.12252211349,0.000169,0.0,0.0,0.0,0.000169,0.0,0.0,0.0,0.000169,0.38259,0.04905,10.41822,0.006889,0.0,0.0,0.0,0.006889,0.0,0.0,0.0,0.006889
1421850805439189911,433684,1421850805439189911,fcu,-0.0186101434892,-0.00967536532424,-0.758088335893,0.651814486528,0.0,0.0,0.0,0.0,0.0,0.0,0.0,0.0,0.0,-0.0151843644924,-0.0316777259237,0.00706858347058,0.000169,0.0,0.0,0.0,0.000169,0.0,0.0,0.0,0.000169,0.32373,0.0,10.42803,0.006889,0.0,0.0,0.0,0.006889,0.0,0.0,0.0,0.006889
1421850805441190004,433685,1421850805441190004,fcu,-0.01848711714,-0.00968462651875,-0.758088568701,0.651817579169,0.0,0.0,0.0,0.0,0.0,0.0,0.0,0.0,0.0,0.0256563400043,0.0649262481742,0.0879645943005,0.000169,0.0,0.0,0.0,0.000169,0.0,0.0,0.0,0.000169,0.32373,0.0,10.42803,0.006889,0.0,0.0,0.0,0.006889,0.0,0.0,0.0,0.006889
1421850805443189859,433686,1421850805443189859,fcu,-0.018420132017,-0.00962933948544,-0.758032758129,0.651885198605,0.0,0.0,0.0,0.0,0.0,0.0,0.0,0.0,0.0,-0.0298451302091,0.0984365698125,0.0167551608191,0.000169,0.0,0.0,0.0,0.000169,0.0,0.0,0.0,0.000169,0.40221,0.00981,10.45746,0.006889,0.0,0.0,0.0,0.006889,0.0,0.0,0.0,0.006889
1421850805446192026,433687,1421850805446192026,fcu,-0.0185439988839,-0.00961847077423,-0.758089410958,0.651815963382,0.0,0.0,0.0,0.0,0.0,0.0,0.0,0.0,0.0,-0.0714712328692,-0.12723450247,-0.0866555973615,0.000169,0.0,0.0,0.0,0.000169,0.0,0.0,0.0,0.000169,0.40221,0.00981,10.45746,0.006889,0.0,0.0,0.0,0.006889,0.0,0.0,0.0,0.006889
1421850805447191954,433688,1421850805447191954,fcu,-0.0187247390115,-0.00954141979732,-0.75814689139,0.651745070202,0.0,0.0,0.0,0.0,0.0,0.0,0.0,0.0,0.0,-0.27829274923,-0.232216056978,-0.0735656279716,0.000169,0.0,0.0,0.0,0.000169,0.0,0.0,0.0,0.000169,0.33354,0.06867,10.37898,0.006889,0.0,0.0,0.0,0.006889,0.0,0.0,0.0,0.006889
1421850805449192047,433689,1421850805449192047,fcu,-0.0190470563739,-0.00970115233403,-0.758200294144,0.65167124476,0.0,0.0,0.0,0.0,0.0,0.0,0.0,0.0,0.0,0.0659734457254,-0.136397481043,-0.0814196096055,0.000169,0.0,0.0,0.0,0.000169,0.0,0.0,0.0,0.000169,0.33354,0.06867,10.37898,0.006889,0.0,0.0,0.0,0.006889,0.0,0.0,0.0,0.006889
1421850805451191902,433690,1421850805451191902,fcu,-0.018924033555,-0.00971043485627,-0.758200533162,0.651674412511,0.0,0.0,0.0,0.0,0.0,0.0,0.0,0.0,0.0,0.0659734457254,-0.136397481043,-0.0887499924639,0.000169,0.0,0.0,0.0,0.000169,0.0,0.0,0.0,0.000169,0.33354,0.06867,10.37898,0.006889,0.0,0.0,0.0,0.006889,0.0,0.0,0.0,0.006889
1421850805453191996,433691,1421850805453191996,fcu,-0.018924033555,-0.00971043485627,-0.758200533162,0.651674412511,0.0,0.0,0.0,0.0,0.0,0.0,0.0,0.0,0.0,0.109170344712,0.130114295736,0.0562868683768,0.000169,0.0,0.0,0.0,0.000169,0.0,0.0,0.0,0.000169,0.38259,-0.00981,10.55556,0.006889,0.0,0.0,0.0,0.006889,0.0,0.0,0.0,0.006889
1421850805455191851,433692,1421850805455191851,fcu,-0.0189147490889,-0.00958738627434,-0.758202455423,0.651674267469,0.0,0.0,0.0,0.0,0.0,0.0,0.0,0.0,0.0,-0.0225147473507,-0.0738274273594,-0.00863937979737,0.000169,0.0,0.0,0.0,0.000169,0.0,0.0,0.0,0.000169,0.38259,-0.00981,10.55556,0.006889,0.0,0.0,0.0,0.006889,0.0,0.0,0.0,0.006889
1421850805461194038,433695,1421850805461194038,fcu,-0.0194932779152,-0.00984983400805,-0.758310245776,0.651527868964,0.0,0.0,0.0,0.0,0.0,0.0,0.0,0.0,0.0,0.0879645943005,-0.210748507178,-0.05471607205,0.000169,0.0,0.0,0.0,0.000169,0.0,0.0,0.0,0.000169,0.33354,0.07848,10.36917,0.006889,0.0,0.0,0.0,0.006889,0.0,0.0,0.0,0.006889
1421850805463193893,433696,1421850805463193893,fcu,-0.0194364213087,-0.00991600902317,-0.758309383329,0.651529567593,0.0,0.0,0.0,0.0,0.0,0.0,0.0,0.0,0.0,0.140848070636,0.0829904059323,-0.0125663706144,0.000169,0.0,0.0,0.0,0.000169,0.0,0.0,0.0,0.000169,0.31392,0.0,10.47708,0.006889,0.0,0.0,0.0,0.006889,0.0,0.0,0.0,0.006889
1421850805469195843,433699,1421850805469195843,fcu,-0.0196740056575,-0.00977263829324,-0.758367707969,0.651456712723,0.0,0.0,0.0,0.0,0.0,0.0,0.0,0.0,0.0,-0.265726378616,-0.199752932891,-0.128543499409,0.000169,0.0,0.0,0.0,0.000169,0.0,0.0,0.0,0.000169,0.37278,0.0,10.46727,0.006889,0.0,0.0,0.0,0.006889,0.0,0.0,0.0,0.006889
1421850805471195936,433700,1421850805471195936,fcu,-0.0199200390799,-0.00975400939106,-0.758367207139,0.651450098227,0.0,0.0,0.0,0.0,0.0,0.0,0.0,0.0,0.0,-0.154199839414,-0.212581102893,-0.0408407044967,0.000169,0.0,0.0,0.0,0.000169,0.0,0.0,0.0,0.000169,0.28449,0.06867,10.37898,0.006889,0.0,0.0,0.0,0.006889,0.0,0.0,0.0,0.006889
1421850805487197876,433708,1421850805487197876,fcu,-0.0204426885087,-0.0100805359464,-0.758530745858,0.651238502294,0.0,0.0,0.0,0.0,0.0,0.0,0.0,0.0,0.0,0.0746128255228,-0.057334065928,-0.0371755130675,0.000169,0.0,0.0,0.0,0.000169,0.0,0.0,0.0,0.000169,0.34335,0.01962,10.48689,0.006889,0.0,0.0,0.0,0.006889,0.0,0.0,0.0,0.006889
1421850805489197969,433709,1421850805489197969,fcu,-0.0205656995463,-0.0100711895354,-0.758530485605,0.651235077028,0.0,0.0,0.0,0.0,0.0,0.0,0.0,0.0,0.0,-0.208915911464,-0.128281700022,-0.0442440965381,0.000169,0.0,0.0,0.0,0.000169,0.0,0.0,0.0,0.000169,0.40221,0.0,10.43784,0.006889,0.0,0.0,0.0,0.006889,0.0,0.0,0.0,0.006889
1421850805493199825,433711,1421850805493199825,fcu,-0.0208125969853,-0.010050680647,-0.758586787696,0.651161965381,0.0,0.0,0.0,0.0,0.0,0.0,0.0,0.0,0.0,-0.183521370847,-0.213104701669,-0.00602138591938,0.000169,0.0,0.0,0.0,0.000169,0.0,0.0,0.0,0.000169,0.32373,0.12753,10.29069,0.006889,0.0,0.0,0.0,0.006889,0.0,0.0,0.0,0.006889
1421850805495199919,433712,1421850805495199919,fcu,-0.0209356053965,-0.010041323639,-0.758586522245,0.65115847573,0.0,0.0,0.0,0.0,0.0,0.0,0.0,0.0,0.0,0.001308996939,0.0133517687778,-0.069115038379,0.000169,0.0,0.0,0.0,0.000169,0.0,0.0,0.0,0.000169,0.32373,0.12753,10.29069,0.006889,0.0,0.0,0.0,0.006889,0.0,0.0,0.0,0.006889
1421850805507201910,433718,1421850805507201910,fcu,-0.0215711441822,-0.0102368565531,-0.758694723918,0.651008608549,0.0,0.0,0.0,0.0,0.0,0.0,0.0,0.0,0.0,0.175143790438,-0.0557632696012,-0.0641408500108,0.000169,0.0,0.0,0.0,0.000169,0.0,0.0,0.0,0.000169,0.35316,0.07848,10.44765,0.006889,0.0,0.0,0.0,0.006889,0.0,0.0,0.0,0.006889
1421850805509202003,433719,1421850805509202003,fcu,-0.0215814290908,-0.0103580120694,-0.758749459793,0.650942555659,0.0,0.0,0.0,0.0,0.0,0.0,0.0,0.0,0.0,0.0793252145031,-0.0903207887907,-0.0251327412287,0.000169,0.0,0.0,0.0,0.000169,0.0,0.0,0.0,0.000169,0.35316,0.07848,10.44765,0.006889,0.0,0.0,0.0,0.006889,0.0,0.0,0.0,0.006889
1421850805511201859,433720,1421850805511201859,fcu,-0.0215814290908,-0.0103580120694,-0.758749459793,0.650942555659,0.0,0.0,0.0,0.0,0.0,0.0,0.0,0.0,0.0,-0.0285361332701,-0.0761836218496,-0.0719948316448,0.000169,0.0,0.0,0.0,0.000169,0.0,0.0,0.0,0.000169,0.41202,-0.01962,10.38879,0.006889,0.0,0.0,0.0,0.006889,0.0,0.0,0.0,0.006889
1421850805513201952,433721,1421850805513201952,fcu,-0.0218936293088,-0.0103960587026,-0.758747721949,0.65093354914,0.0,0.0,0.0,0.0,0.0,0.0,0.0,0.0,0.0,-0.256825199431,-0.311803070869,-0.0261799387799,0.000169,0.0,0.0,0.0,0.000169,0.0,0.0,0.0,0.000169,0.41202,-0.01962,10.38879,0.006889,0.0,0.0,0.0,0.006889,0.0,0.0,0.0,0.006889
1421850805515202045,433722,1421850805515202045,fcu,-0.0223194329283,-0.0103016792377,-0.758747778033,0.650920523296,0.0,0.0,0.0,0.0,0.0,0.0,0.0,0.0,0.0,-0.175929188601,-0.164410015538,0.0167551608191,0.000169,0.0,0.0,0.0,0.000169,0.0,0.0,0.0,0.000169,0.41202,-0.01962,10.38879,0.006889,0.0,0.0,0.0,0.006889,0.0,0.0,0.0,0.006889
1421850805517204046,433723,1421850805517204046,fcu,-0.0223856280174,-0.0103585037753,-0.758746590944,0.650918732093,0.0,0.0,0.0,0.0,0.0,0.0,0.0,0.0,0.0,0.0269653369433,-0.124354709205,-0.050789081233,0.000169,0.0,0.0,0.0,0.000169,0.0,0.0,0.0,0.000169,0.35316,0.10791,10.3986,0.006889,0.0,0.0,0.0,0.006889,0.0,0.0,0.0,0.006889
1421850805519203901,433724,1421850805519203901,fcu,-0.0223485388472,-0.010668840782,-0.75879823251,0.650854792552,0.0,0.0,0.0,0.0,0.0,0.0,0.0,0.0,0.0,0.100007366139,-0.111002940427,-0.0963421747101,0.000169,0.0,0.0,0.0,0.000169,0.0,0.0,0.0,0.000169,0.35316,0.10791,10.3986,0.006889,0.0,0.0,0.0,0.006889,0.0,0.0,0.0,0.006889
1421850805521203995,433725,1421850805521203995,fcu,-0.0222917409668,-0.0107350583788,-0.758797298589,0.650856740351,0.0,0.0,0.0,0.0,0.0,0.0,0.0,0.0,0.0,0.0458148928649,-0.00942477796077,-0.0342957198017,0.000169,0.0,0.0,0.0,0.000169,0.0,0.0,0.0,0.000169,0.42183,-0.07848,10.50651,0.006889,0.0,0.0,0.0,0.006889,0.0,0.0,0.0,0.006889
1421850805523203850,433726,1421850805523203850,fcu,-0.0223494697941,-0.0106668904634,-0.758855027416,0.650788572436,0.0,0.0,0.0,0.0,0.0,0.0,0.0,0.0,0.0,-0.135088484104,-0.0950331777711,-0.0733038285838,0.000169,0.0,0.0,0.0,0.000169,0.0,0.0,0.0,0.000169,0.42183,-0.07848,10.50651,0.006889,0.0,0.0,0.0,0.006889,0.0,0.0,0.0,0.006889
1421850805525203943,433727,1421850805525203943,fcu,-0.0226522538899,-0.0105818477297,-0.758855378738,0.650779082371,0.0,0.0,0.0,0.0,0.0,0.0,0.0,0.0,0.0,-0.21650809371,-0.119904119612,0.00837758040957,0.000169,0.0,0.0,0.0,0.000169,0.0,0.0,0.0,0.000169,0.38259,0.0981,10.32012,0.006889,0.0,0.0,0.0,0.006889,0.0,0.0,0.0,0.006889
1421850805527204037,433728,1421850805527204037,fcu,-0.0228320397516,-0.0105062151166,-0.75885600768,0.650773291564,0.0,0.0,0.0,0.0,0.0,0.0,0.0,0.0,0.0,-0.236928445958,-0.129852496348,-0.011780972451,0.000169,0.0,0.0,0.0,0.000169,0.0,0.0,0.0,0.000169,0.38259,0.0981,10.32012,0.006889,0.0,0.0,0.0,0.006889,0.0,0.0,0.0,0.006889
1421850805529206038,433729,1421850805529206038,fcu,-0.0228518040422,-0.0107502910859,-0.758908500332,0.650707395392,0.0,0.0,0.0,0.0,0.0,0.0,0.0,0.0,0.0,0.206559716974,-0.18561576595,-0.108646745937,0.000169,0.0,0.0,0.0,0.000169,0.0,0.0,0.0,0.000169,0.38259,0.06867,10.44765,0.006889,0.0,0.0,0.0,0.006889,0.0,0.0,0.0,0.006889
1421850805531205893,433730,1421850805531205893,fcu,-0.0228621765571,-0.0108713297004,-0.758963102608,0.650641332804,0.0,0.0,0.0,0.0,0.0,0.0,0.0,0.0,0.0,0.123307511653,-0.182474173296,-0.0709476340936,0.000169,0.0,0.0,0.0,0.000169,0.0,0.0,0.0,0.000169,0.38259,0.06867,10.44765,0.006889,0.0,0.0,0.0,0.006889,0.0,0.0,0.0,0.006889
1421850805533205986,433731,1421850805533205986,fcu,-0.0228621765571,-0.0108713297004,-0.758963102608,0.650641332804,0.0,0.0,0.0,0.0,0.0,0.0,0.0,0.0,0.0,0.0562868683768,0.0594284610304,-0.0337721210261,0.000169,0.0,0.0,0.0,0.000169,0.0,0.0,0.0,0.000169,0.43164,-0.06867,10.4967,0.006889,0.0,0.0,0.0,0.006889,0.0,0.0,0.0,0.006889
1421850805536206007,433732,1421850805536206007,fcu,-0.0230419477509,-0.0107956662958,-0.758963753677,0.65063549153,0.0,0.0,0.0,0.0,0.0,0.0,0.0,0.0,0.0,-0.224362075344,-0.0924151838931,0.0157079632679,0.000169,0.0,0.0,0.0,0.000169,0.0,0.0,0.0,0.000169,0.43164,-0.06867,10.4967,0.006889,0.0,0.0,0.0,0.006889,0.0,0.0,0.0,0.006889
1421850805537205935,433733,1421850805537205935,fcu,-0.0230987263208,-0.0107294341728,-0.758964692886,0.650633478263,0.0,0.0,0.0,0.0,0.0,0.0,0.0,0.0,0.0,-0.220958683302,-0.0932005820565,-0.0311541271481,0.000169,0.0,0.0,0.0,0.000169,0.0,0.0,0.0,0.000169,0.38259,0.14715,10.31031,0.006889,0.0,0.0,0.0,0.006889,0.0,0.0,0.0,0.006889
1421850805539206028,433734,1421850805539206028,fcu,-0.0234118595809,-0.010765329563,-0.759019634319,0.650557597165,0.0,0.0,0.0,0.0,0.0,0.0,0.0,0.0,0.0,0.0287979326579,-0.191637151869,-0.105505153283,0.000169,0.0,0.0,0.0,0.000169,0.0,0.0,0.0,0.000169,0.38259,0.14715,10.31031,0.006889,0.0,0.0,0.0,0.006889,0.0,0.0,0.0,0.006889
1421850805541208029,433735,1421850805541208029,fcu,-0.0234213047649,-0.0108883614001,-0.75901744383,0.650557765329,0.0,0.0,0.0,0.0,0.0,0.0,0.0,0.0,0.0,0.178023583703,-0.171740398396,-0.0536688744988,0.000169,0.0,0.0,0.0,0.000169,0.0,0.0,0.0,0.000169,0.40221,0.0,10.45746,0.006889,0.0,0.0,0.0,0.006889,0.0,0.0,0.0,0.006889
1421850805543207884,433736,1421850805543207884,fcu,-0.0233654886809,-0.0109525591441,-0.759073259914,0.650493567585,0.0,0.0,0.0,0.0,0.0,0.0,0.0,0.0,0.0,0.169122404518,-0.124354709205,-0.0243473430653,0.000169,0.0,0.0,0.0,0.000169,0.0,0.0,0.0,0.000169,0.40221,0.0,10.45746,0.006889,0.0,0.0,0.0,0.006889,0.0,0.0,0.0,0.006889
1421850805545207977,433737,1421850805545207977,fcu,-0.023374944557,-0.0110755895787,-0.759071037231,0.650493738417,0.0,0.0,0.0,0.0,0.0,0.0,0.0,0.0,0.0,-0.0966039740979,-0.0549778714378,0.0107337748998,0.000169,0.0,0.0,0.0,0.000169,0.0,0.0,0.0,0.000169,0.40221,0.0,10.45746,0.006889,0.0,0.0,0.0,0.006889,0.0,0.0,0.0,0.006889
1421850805547207832,433738,1421850805547207832,fcu,-0.0234307499194,-0.0110113928529,-0.759015231869,0.650557935142,0.0,0.0,0.0,0.0,0.0,0.0,0.0,0.0,0.0,-0.305258086174,-0.0997455667515,0.0340339204139,0.000169,0.0,0.0,0.0,0.000169,0.0,0.0,0.0,0.000169,0.42183,0.05886,10.35936,0.006889,0.0,0.0,0.0,0.006889,0.0,0.0,0.0,0.006889
1421850805549207926,433739,1421850805549207926,fcu,-0.0237344509032,-0.0109242014367,-0.759072351397,0.650481746867,0.0,0.0,0.0,0.0,0.0,0.0,0.0,0.0,0.0,-0.224100275956,-0.239546439836,-0.112311937366,0.000169,0.0,0.0,0.0,0.000169,0.0,0.0,0.0,0.000169,0.42183,0.05886,10.35936,0.006889,0.0,0.0,0.0,0.006889,0.0,0.0,0.0,0.006889
1421850805551208019,433740,1421850805551208019,fcu,-0.0239340815761,-0.0110924796681,-0.759125311345,0.650409777225,0.0,0.0,0.0,0.0,0.0,0.0,0.0,0.0,0.0,0.154199839414,-0.17723818554,-0.132732289614,0.000169,0.0,0.0,0.0,0.000169,0.0,0.0,0.0,0.000169,0.37278,0.0981,10.36917,0.006889,0.0,0.0,0.0,0.006889,0.0,0.0,0.0,0.006889
1421850805553210020,433741,1421850805553210020,fcu,-0.0238877735047,-0.0112796700735,-0.759178831107,0.650345789346,0.0,0.0,0.0,0.0,0.0,0.0,0.0,0.0,0.0,0.2188642882,-0.260228591472,-0.0863937979737,0.000169,0.0,0.0,0.0,0.000169,0.0,0.0,0.0,0.000169,0.37278,0.0981,10.36917,0.006889,0.0,0.0,0.0,0.006889,0.0,0.0,0.0,0.006889
1421850805555209875,433742,1421850805555209875,fcu,-0.0238877735047,-0.0112796700735,-0.759178831107,0.650345789346,0.0,0.0,0.0,0.0,0.0,0.0,0.0,0.0,0.0,-0.0162315620435,-0.0314159265359,-0.0353429173529,0.000169,0.0,0.0,0.0,0.000169,0.0,0.0,0.0,0.000169,0.37278,0.0981,10.36917,0.006889,0.0,0.0,0.0,0.006889,0.0,0.0,0.0,0.006889
1421850805557209969,433743,1421850805557209969,fcu,-0.0239435481435,-0.011215508691,-0.759123056468,0.650409950728,0.0,0.0,0.0,0.0,0.0,0.0,0.0,0.0,0.0,-0.273318560862,0.0411025038845,0.103934356956,0.000169,0.0,0.0,0.0,0.000169,0.0,0.0,0.0,0.000169,0.42183,0.03924,10.34955,0.006889,0.0,0.0,0.0,0.006889,0.0,0.0,0.0,0.006889
1421850805559209824,433744,1421850805559209824,fcu,-0.0243039973561,-0.0110619696043,-0.759181134512,0.650331418234,0.0,0.0,0.0,0.0,0.0,0.0,0.0,0.0,0.0,-0.315730061686,-0.294262511886,0.0811578102177,0.000169,0.0,0.0,0.0,0.000169,0.0,0.0,0.0,0.000169,0.42183,0.03924,10.34955,0.006889,0.0,0.0,0.0,0.006889,0.0,0.0,0.0,0.006889
1421850805561209917,433745,1421850805561209917,fcu,-0.0244364558676,-0.0111755241166,-0.759178565376,0.650327512227,0.0,0.0,0.0,0.0,0.0,0.0,0.0,0.0,0.0,-0.174096592886,-0.329867228627,-0.168337006355,0.000169,0.0,0.0,0.0,0.000169,0.0,0.0,0.0,0.000169,0.42183,0.03924,10.34955,0.006889,0.0,0.0,0.0,0.006889,0.0,0.0,0.0,0.006889
1421850805563210011,433746,1421850805563210011,fcu,-0.024580382291,-0.011407815778,-0.759287166652,0.650191252712,0.0,0.0,0.0,0.0,0.0,0.0,0.0,0.0,0.0,0.163101018599,-0.242164433714,-0.112835536141,0.000169,0.0,0.0,0.0,0.000169,0.0,0.0,0.0,0.000169,0.36297,0.03924,10.34955,0.006889,0.0,0.0,0.0,0.006889,0.0,0.0,0.0,0.006889
1421850805565212011,433747,1421850805565212011,fcu,-0.0245236423069,-0.0114740760396,-0.759286168241,0.650193395279,0.0,0.0,0.0,0.0,0.0,0.0,0.0,0.0,0.0,0.0256563400043,0.160483024721,-0.0403171057211,0.000169,0.0,0.0,0.0,0.000169,0.0,0.0,0.0,0.000169,0.36297,0.03924,10.34955,0.006889,0.0,0.0,0.0,0.006889,0.0,0.0,0.0,0.006889
1421850805567211866,433748,1421850805567211866,fcu,-0.0244574034524,-0.011417310871,-0.759287483296,0.650195353827,0.0,0.0,0.0,0.0,0.0,0.0,0.0,0.0,0.0,-0.0149225651046,0.162053821048,0.0267035375555,0.000169,0.0,0.0,0.0,0.000169,0.0,0.0,0.0,0.000169,0.41202,0.0,10.31031,0.006889,0.0,0.0,0.0,0.006889,0.0,0.0,0.0,0.006889
1421850805569211960,433749,1421850805569211960,fcu,-0.0245604106898,-0.01116390723,-0.759234997981,0.650257157779,0.0,0.0,0.0,0.0,0.0,0.0,0.0,0.0,0.0,-0.371493331287,0.0335103216383,0.139277274309,0.000169,0.0,0.0,0.0,0.000169,0.0,0.0,0.0,0.000169,0.41202,0.0,10.31031,0.006889,0.0,0.0,0.0,0.006889,0.0,0.0,0.0,0.006889
1421850805571212053,433750,1421850805571212053,fcu,-0.0248063678665,-0.0111449386743,-0.759234360443,0.650248891101,0.0,0.0,0.0,0.0,0.0,0.0,0.0,0.0,0.0,-0.161006623496,-0.267820773719,-0.0709476340936,0.000169,0.0,0.0,0.0,0.000169,0.0,0.0,0.0,0.000169,0.41202,0.0,10.31031,0.006889,0.0,0.0,0.0,0.006889,0.0,0.0,0.0,0.006889
